{"type":"FeatureCollection","features":[{"id":"326142","type":"Feature","properties":{"ident":"EKAC","type":"seaplane_base","name":"Aarhus Seaplane Terminal","continent":"EU","iso_country":"DK","iso_region":"DK-82","municipality":"Aarhus","scheduled_service":"yes","gps_code":"EKAC"},"geometry":{"type":"Point","coordinates":[10.25106,56.152602]}},{"id":"45444","type":"Feature","properties":{"ident":"ME07","type":"seaplane_base","name":"Acadian Seaplane Base","elevation_ft":"0","continent":"NA","iso_country":"US","iso_region":"US-ME","municipality":"Bar Harbor","scheduled_service":"no","gps_code":"ME07","local_code":"ME07"},"geometry":{"type":"Point","coordinates":[-68.219583,44.39805]}},{"id":"13363","type":"Feature","properties":{"ident":"6MA8","type":"seaplane_base","name":"Acushnet River Seaplane Base","continent":"NA","iso_country":"US","iso_region":"US-MA","municipality":"New Bedford","scheduled_service":"no","gps_code":"6MA8","local_code":"6MA8"},"geometry":{"type":"Point","coordinates":[-70.917503,41.647301]}},{"id":"337214","type":"Feature","properties":{"ident":"US-1981","type":"seaplane_base","name":"Adams Lake Seaplane Base","elevation_ft":"955","continent":"NA","iso_country":"US","iso_region":"US-IN","municipality":"Woolcottville","scheduled_service":"no","local_code":"IN5"},"geometry":{"type":"Point","coordinates":[-85.331119,41.552689]}},{"id":"338920","type":"Feature","properties":{"ident":"US-2544","type":"seaplane_base","name":"Adams Seaplane Base","elevation_ft":"1306","continent":"NA","iso_country":"US","iso_region":"US-MN","municipality":"Remer","scheduled_service":"no","gps_code":"4MN7","local_code":"4MN7"},"geometry":{"type":"Point","coordinates":[-94.033889,46.973611]}},{"id":"328928","type":"Feature","properties":{"ident":"US-0941","type":"seaplane_base","name":"Aero Estates Seaplane Base","elevation_ft":"345","continent":"NA","iso_country":"US","iso_region":"US-TX","municipality":"Frankston","scheduled_service":"no","local_code":"TX1"},"geometry":{"type":"Point","coordinates":[-95.43248,32.079175]}},{"id":"508489","type":"Feature","properties":{"ident":"CRD8","type":"seaplane_base","name":"Aird Island Seaplane Base","elevation_ft":"577","continent":"NA","iso_country":"CA","iso_region":"CA-ON","municipality":"Spanish","scheduled_service":"no","gps_code":"CRD8","local_code":"CRD8"},"geometry":{"type":"Point","coordinates":[-82.4145,46.143]}},{"id":"20274","type":"Feature","properties":{"ident":"KKI","type":"seaplane_base","name":"Akiachak Seaplane Base","elevation_ft":"0","continent":"NA","iso_country":"US","iso_region":"US-AK","municipality":"Akiachak","scheduled_service":"no","gps_code":"KKI","local_code":"KKI"},"geometry":{"type":"Point","coordinates":[-161.434998,60.907902]}},{"id":"28152","type":"Feature","properties":{"ident":"CER6","type":"seaplane_base","name":"Aklavik Seaplane Base","elevation_ft":"7","continent":"NA","iso_country":"CA","iso_region":"CA-NT","municipality":"Aklavik","scheduled_service":"no","gps_code":"CER6","local_code":"CER6","wikipedia_link":"https://en.wikipedia.org/wiki/Aklavik_Water_Aerodrome","keywords":"ER6"},"geometry":{"type":"Point","coordinates":[-134.992007,68.222504]}},{"id":"20904","type":"Feature","properties":{"ident":"KQA","type":"seaplane_base","name":"Akutan Seaplane Base","continent":"NA","iso_country":"US","iso_region":"US-AK","municipality":"Akutan","scheduled_service":"no","local_code":"KQA","wikipedia_link":"https://en.wikipedia.org/wiki/Akutan_Seaplane_Base"},"geometry":{"type":"Point","coordinates":[-165.778896,54.13377]}},{"id":"26349","type":"Feature","properties":{"ident":"Z33","type":"seaplane_base","name":"Aleknagik Seaplane Base","elevation_ft":"7","continent":"NA","iso_country":"US","iso_region":"US-AK","municipality":"Aleknagik","scheduled_service":"no","gps_code":"Z33","local_code":"Z33"},"geometry":{"type":"Point","coordinates":[-158.623993,59.273998]}},{"id":"28153","type":"Feature","properties":{"ident":"CBC3","type":"seaplane_base","name":"Alert Bay Seaplane Base","continent":"NA","iso_country":"CA","iso_region":"CA-BC","scheduled_service":"no","gps_code":"CBC3","local_code":"CBC3","wikipedia_link":"https://en.wikipedia.org/wiki/Alert_Bay_Water_Aerodrome#","keywords":"BC3"},"geometry":{"type":"Point","coordinates":[-126.932999,50.583302]}},{"id":"28154","type":"Feature","properties":{"ident":"CPN6","type":"seaplane_base","name":"Algoma Mills Seaplane Base","elevation_ft":"602","continent":"NA","iso_country":"CA","iso_region":"CA-ON","scheduled_service":"no","gps_code":"CPN6","local_code":"CPN6","wikipedia_link":"https://en.wikipedia.org/wiki/Algoma_Mills_Water_Aerodrome"},"geometry":{"type":"Point","coordinates":[-82.833298,46.1833]}},{"id":"16289","type":"Feature","properties":{"ident":"ALZ","type":"seaplane_base","name":"Alitak Seaplane Base","continent":"NA","iso_country":"US","iso_region":"US-AK","municipality":"Lazy Bay","scheduled_service":"yes","iata_code":"ALZ","local_code":"ALZ","wikipedia_link":"https://en.wikipedia.org/wiki/Alitak_Seaplane_Base"},"geometry":{"type":"Point","coordinates":[-154.249692,56.897294]}},{"id":"18294","type":"Feature","properties":{"ident":"JY35","type":"seaplane_base","name":"Allen's Seaplane Base","continent":"NA","iso_country":"US","iso_region":"US-NJ","municipality":"Brick","scheduled_service":"no","gps_code":"JY35","local_code":"JY35"},"geometry":{"type":"Point","coordinates":[-74.057899,40.033501]}},{"id":"28156","type":"Feature","properties":{"ident":"CBE7","type":"seaplane_base","name":"Alliford Bay Seaplane Base","continent":"NA","iso_country":"CA","iso_region":"CA-BC","scheduled_service":"no","gps_code":"CBE7","local_code":"CBE7","wikipedia_link":"https://en.wikipedia.org/wiki/Alliford_Bay_Water_Aerodrome"},"geometry":{"type":"Point","coordinates":[-131.992082,53.214717]}},{"id":"7172","type":"Feature","properties":{"ident":"0FL2","type":"seaplane_base","name":"Alligator Drink Seaplane Base","elevation_ft":"19","continent":"NA","iso_country":"US","iso_region":"US-FL","municipality":"Geneva","scheduled_service":"no","gps_code":"0FL2","local_code":"0FL2"},"geometry":{"type":"Point","coordinates":[-81.1642,28.7878]}},{"id":"28157","type":"Feature","properties":{"ident":"CGD2","type":"seaplane_base","name":"Alma (Rivière La Grande Décharge) Seaplane Base","elevation_ft":"227","continent":"NA","iso_country":"CA","iso_region":"CA-QC","municipality":"Alma","scheduled_service":"no","gps_code":"CGD2","local_code":"CGD2","wikipedia_link":"https://en.wikipedia.org/wiki/Alma_(Rivi%C3%A8re_La_Grande_D%C3%A9charge)_Water_Aerodrome"},"geometry":{"type":"Point","coordinates":[-71.615799,48.563301]}},{"id":"16492","type":"Feature","properties":{"ident":"B18","type":"seaplane_base","name":"Alton Bay Seaplane Base","elevation_ft":"504","continent":"NA","iso_country":"US","iso_region":"US-NH","municipality":"Alton Bay","scheduled_service":"no","gps_code":"B18","local_code":"B18","wikipedia_link":"https://en.wikipedia.org/wiki/Alton_Bay_Seaplane_Base"},"geometry":{"type":"Point","coordinates":[-71.237,43.4776]}},{"id":"25582","type":"Feature","properties":{"ident":"W37","type":"seaplane_base","name":"American Lake Seaplane Base","elevation_ft":"235","continent":"NA","iso_country":"US","iso_region":"US-WA","municipality":"Tacoma","scheduled_service":"no","gps_code":"W37","local_code":"W37"},"geometry":{"type":"Point","coordinates":[-122.560997,47.141499]}},{"id":"16174","type":"Feature","properties":{"ident":"AK81","type":"seaplane_base","name":"Amook Bay Seaplane Base","continent":"NA","iso_country":"US","iso_region":"US-AK","municipality":"Amook Bay","scheduled_service":"yes","gps_code":"AK81","iata_code":"AOS","local_code":"AK81","wikipedia_link":"https://en.wikipedia.org/wiki/Amook_Bay_Seaplane_Base"},"geometry":{"type":"Point","coordinates":[-153.815002,57.4715]}},{"id":"28158","type":"Feature","properties":{"ident":"CSC6","type":"seaplane_base","name":"Amos (Lac Figuery) Seaplane Base","continent":"NA","iso_country":"CA","iso_region":"CA-QC","scheduled_service":"no","gps_code":"CSC6","local_code":"CSC6"},"geometry":{"type":"Point","coordinates":[-78.117798,48.499699]}},{"id":"355519","type":"Feature","properties":{"ident":"US-6934","type":"seaplane_base","name":"Anan Creek Seaplane Base","continent":"NA","iso_country":"US","iso_region":"US-AK","municipality":"Wrangell","scheduled_service":"no"},"geometry":{"type":"Point","coordinates":[-131.892024,56.185882]}},{"id":"343540","type":"Feature","properties":{"ident":"MV-0003","type":"seaplane_base","name":"Anantara Kihavah Maldives Villa Seaplane Base","continent":"AS","iso_country":"MV","iso_region":"MV-20","municipality":"Kihavah Huravalhi","scheduled_service":"no"},"geometry":{"type":"Point","coordinates":[73.0575,5.29819]}},{"id":"22597","type":"Feature","properties":{"ident":"MY23","type":"seaplane_base","name":"Andings Landing Seaplane Base","elevation_ft":"942","continent":"NA","iso_country":"US","iso_region":"US-MN","municipality":"Chanhassen","scheduled_service":"no","gps_code":"MY23","local_code":"MY23"},"geometry":{"type":"Point","coordinates":[-93.608597,44.880501]}},{"id":"16093","type":"Feature","properties":{"ident":"PAGN","type":"seaplane_base","name":"Angoon Seaplane Base","continent":"NA","iso_country":"US","iso_region":"US-AK","municipality":"Angoon","scheduled_service":"yes","gps_code":"PAGN","iata_code":"AGN","local_code":"AGN","wikipedia_link":"https://en.wikipedia.org/wiki/Angoon_Seaplane_Base"},"geometry":{"type":"Point","coordinates":[-134.56722,57.497097]}},{"id":"6605","type":"Feature","properties":{"ident":"01MD","type":"seaplane_base","name":"Annapolis Seaplane Base","continent":"NA","iso_country":"US","iso_region":"US-MD","municipality":"Annapolis","scheduled_service":"no","gps_code":"01MD","local_code":"01MD"},"geometry":{"type":"Point","coordinates":[-76.456001,38.999199]}},{"id":"18755","type":"Feature","properties":{"ident":"K40","type":"seaplane_base","name":"Anvik Seaplane Base","elevation_ft":"52","continent":"NA","iso_country":"US","iso_region":"US-AK","municipality":"Anvik","scheduled_service":"no","gps_code":"K40","local_code":"K40"},"geometry":{"type":"Point","coordinates":[-160.205002,62.6562]}},{"id":"317768","type":"Feature","properties":{"ident":"YQJ","type":"seaplane_base","name":"April Point Seaplane Base","continent":"NA","iso_country":"CA","iso_region":"CA-BC","municipality":"Quadra Island","scheduled_service":"no","iata_code":"YQJ"},"geometry":{"type":"Point","coordinates":[-125.235,50.065]}},{"id":"25895","type":"Feature","properties":{"ident":"WS01","type":"seaplane_base","name":"Archie's Seaplane Base","elevation_ft":"768","continent":"NA","iso_country":"US","iso_region":"US-WI","municipality":"Janesville","scheduled_service":"no","gps_code":"WS01","local_code":"WS01"},"geometry":{"type":"Point","coordinates":[-89.0709,42.737499]}},{"id":"28159","type":"Feature","properties":{"ident":"CES6","type":"seaplane_base","name":"Arctic Red River Seaplane Base","elevation_ft":"20","continent":"NA","iso_country":"CA","iso_region":"CA-NT","scheduled_service":"no","local_code":"ES6","wikipedia_link":"https://en.wikipedia.org/wiki/Arctic_Red_River_Water_Aerodrome"},"geometry":{"type":"Point","coordinates":[-133.75,67.449997]}},{"id":"28160","type":"Feature","properties":{"ident":"CJF6","type":"seaplane_base","name":"Armstrong Seaplane Base","elevation_ft":"1120","continent":"NA","iso_country":"CA","iso_region":"CA-ON","scheduled_service":"no","gps_code":"CJF6","local_code":"CJF6","wikipedia_link":"https://en.wikipedia.org/wiki/Armstrong_Water_Aerodrome"},"geometry":{"type":"Point","coordinates":[-89.050003,50.25]}},{"id":"28162","type":"Feature","properties":{"ident":"CNB5","type":"seaplane_base","name":"Arnprior Seaplane Base","elevation_ft":"330","continent":"NA","iso_country":"CA","iso_region":"CA-ON","municipality":"Arnprior","scheduled_service":"no","gps_code":"CNB5","local_code":"CNB5","wikipedia_link":"https://en.wikipedia.org/wiki/Arnprior_Water_Aerodrome"},"geometry":{"type":"Point","coordinates":[-76.359703,45.407501]}},{"id":"300786","type":"Feature","properties":{"ident":"AYY","type":"seaplane_base","name":"Arugam Bay SPB","continent":"AS","iso_country":"LK","iso_region":"LK-5","municipality":"Pottuvil","scheduled_service":"no","iata_code":"AYY"},"geometry":{"type":"Point","coordinates":[81.823889,6.86]}},{"id":"314211","type":"Feature","properties":{"ident":"CRV8","type":"seaplane_base","name":"Arviat Water Aerodrome","elevation_ft":"20","continent":"NA","iso_country":"CA","iso_region":"CA-NU","municipality":"Arviat","scheduled_service":"no","gps_code":"CRV8","local_code":"CRV8","wikipedia_link":"https://en.wikipedia.org/wiki/Arviat_Water_Aerodrome"},"geometry":{"type":"Point","coordinates":[-94.1158,61.1472]}},{"id":"8450","type":"Feature","properties":{"ident":"1MI0","type":"seaplane_base","name":"Ashman Island Seaplane Base","elevation_ft":"580","continent":"NA","iso_country":"US","iso_region":"US-MI","municipality":"Drummond Island","scheduled_service":"no","gps_code":"1MI0","local_code":"1MI0"},"geometry":{"type":"Point","coordinates":[-83.724197,46.0686]}},{"id":"28163","type":"Feature","properties":{"ident":"CJH6","type":"seaplane_base","name":"Atikokan Seaplane Base","elevation_ft":"1296","continent":"NA","iso_country":"CA","iso_region":"CA-ON","municipality":"Atikokan","scheduled_service":"no","gps_code":"CJH6","local_code":"CJH6","wikipedia_link":"https://en.wikipedia.org/wiki/Atikokan_Water_Aerodrome","keywords":"JH6"},"geometry":{"type":"Point","coordinates":[-91.666702,48.766701]}},{"id":"28164","type":"Feature","properties":{"ident":"CAD6","type":"seaplane_base","name":"Atlin Seaplane Base","elevation_ft":"2190","continent":"NA","iso_country":"CA","iso_region":"CA-BC","municipality":"Atlin","scheduled_service":"no","gps_code":"CAD6","local_code":"CAD6","wikipedia_link":"https://en.wiki2.org/wiki/Atlin_Water_Aerodrome","keywords":"AD6"},"geometry":{"type":"Point","coordinates":[-133.716995,59.5667]}},{"id":"21735","type":"Feature","properties":{"ident":"M00","type":"seaplane_base","name":"Augusta Seaplane Base","elevation_ft":"23","continent":"NA","iso_country":"US","iso_region":"US-ME","municipality":"Augusta","scheduled_service":"no","gps_code":"M00","local_code":"M00"},"geometry":{"type":"Point","coordinates":[-69.7817,44.267601]}},{"id":"342286","type":"Feature","properties":{"ident":"US-3338","type":"seaplane_base","name":"Avalon Port Seaplane Base","continent":"NA","iso_country":"US","iso_region":"US-CA","municipality":"Avalon","scheduled_service":"no"},"geometry":{"type":"Point","coordinates":[-118.324329,33.34526]}},{"id":"511371","type":"Feature","properties":{"ident":"CA-0881","type":"seaplane_base","name":"Averell's Cove Water Aerodrome","elevation_ft":"1165","continent":"NA","iso_country":"CA","iso_region":"CA-ON","municipality":"Dorset","scheduled_service":"no","gps_code":"CAC5","local_code":"CAC5"},"geometry":{"type":"Point","coordinates":[-78.752589,45.307624]}},{"id":"354676","type":"Feature","properties":{"ident":"NH30","type":"seaplane_base","name":"Avery Point Airport","elevation_ft":"505","continent":"NA","iso_country":"US","iso_region":"US-NH","municipality":"Moultonborough","scheduled_service":"no","gps_code":"NH30","local_code":"NH30"},"geometry":{"type":"Point","coordinates":[-71.402759,43.675523]}},{"id":"505964","type":"Feature","properties":{"ident":"52NH","type":"seaplane_base","name":"Baboosic Lake Seaplane Base","elevation_ft":"227","continent":"NA","iso_country":"US","iso_region":"US-NH","municipality":"Amherst","scheduled_service":"no","gps_code":"52NH","local_code":"52NH"},"geometry":{"type":"Point","coordinates":[-71.576417,42.879714]}},{"id":"343547","type":"Feature","properties":{"ident":"MV-0010","type":"seaplane_base","name":"Baglioni Resort Seaplane Base","continent":"AS","iso_country":"MV","iso_region":"MV-17","municipality":"Rinbudhoo","scheduled_service":"no","keywords":"Maagau"},"geometry":{"type":"Point","coordinates":[72.9167,2.9477]}},{"id":"22651","type":"Feature","properties":{"ident":"MY96","type":"seaplane_base","name":"Bahnsen Seaplane Base","elevation_ft":"1004","continent":"NA","iso_country":"US","iso_region":"US-MN","municipality":"Faribault","scheduled_service":"no","gps_code":"MY96","local_code":"MY96","keywords":"Quist Seaplane Base"},"geometry":{"type":"Point","coordinates":[-93.330804,44.416698]}},{"id":"28165","type":"Feature","properties":{"ident":"CSD6","type":"seaplane_base","name":"Baie-Comeau Water Aerodrome","elevation_ft":"125","continent":"NA","iso_country":"CA","iso_region":"CA-QC","municipality":"Baie-Comeau","scheduled_service":"no","gps_code":"CSD6","local_code":"CSD6","wikipedia_link":"https://en.wikipedia.org/wiki/Baie-Comeau_Water_Aerodrome","keywords":"SD6"},"geometry":{"type":"Point","coordinates":[-68.340599,49.204201]}},{"id":"308917","type":"Feature","properties":{"ident":"YBJ","type":"seaplane_base","name":"Baie-Johan-Beetz Water Aerodrome","continent":"NA","iso_country":"CA","iso_region":"CA-QC","municipality":"Baie-Johan-Beetz","scheduled_service":"no","iata_code":"YBJ","local_code":"SG6","wikipedia_link":"https://en.wikipedia.org/wiki/Baie-Johan-Beetz_Seaplane_Base"},"geometry":{"type":"Point","coordinates":[-62.81004,50.283745]}},{"id":"28166","type":"Feature","properties":{"ident":"CJK6","type":"seaplane_base","name":"Baker Lake Seaplane Base","elevation_ft":"8","continent":"NA","iso_country":"CA","iso_region":"CA-NU","municipality":"Baker Lake","scheduled_service":"no","gps_code":"CJK6","local_code":"CJK6","wikipedia_link":"https://en.wikipedia.org/wiki/Baker_Lake_Water_Aerodrome","keywords":"JK6"},"geometry":{"type":"Point","coordinates":[-96.016701,64.316704]}},{"id":"28167","type":"Feature","properties":{"ident":"CFF8","type":"seaplane_base","name":"Bakers Narrows Seaplane Base","elevation_ft":"965","continent":"NA","iso_country":"CA","iso_region":"CA-MB","municipality":"Flin Flon","scheduled_service":"no","gps_code":"CFF8","local_code":"CFF8","wikipedia_link":"https://en.wikipedia.org/wiki/Flin_Flon/Bakers_Narrows_Water_Aerodrome"},"geometry":{"type":"Point","coordinates":[-101.660004,54.6786]}},{"id":"28168","type":"Feature","properties":{"ident":"CGL3","type":"seaplane_base","name":"Bala/Gibson Lake Seaplane Base","elevation_ft":"635","continent":"NA","iso_country":"CA","iso_region":"CA-ON","scheduled_service":"no","gps_code":"CGL3","local_code":"CGL3","wikipedia_link":"https://en.wikipedia.org/wiki/Bala/Gibson_Lake_Water_Aerodrome"},"geometry":{"type":"Point","coordinates":[-79.726097,44.948601]}},{"id":"310995","type":"Feature","properties":{"ident":"CBA6","type":"seaplane_base","name":"Bala/Muskoka Float Flying Club Seaplane Base","elevation_ft":"739","continent":"NA","iso_country":"CA","iso_region":"CA-ON","municipality":"Bala","scheduled_service":"no","gps_code":"CBA6","local_code":"CBA6","wikipedia_link":"https://en.wikipedia.org/wiki/Bala/Muskoka_Float_Flying_Club_Water_Aerodrome"},"geometry":{"type":"Point","coordinates":[-79.555333,45.0355]}},{"id":"508533","type":"Feature","properties":{"ident":"CBE6","type":"seaplane_base","name":"Balsam Lake (Erlandson) Water Aerodrome","elevation_ft":"853","continent":"NA","iso_country":"CA","iso_region":"CA-ON","municipality":"Kirkfield","scheduled_service":"no","gps_code":"CBE6","local_code":"CBE6","wikipedia_link":"https://en.wikipedia.org/wiki/Kirkfield/Balsam_Lake_(Erlandson)_Water_Aerodrome"},"geometry":{"type":"Point","coordinates":[-78.8919,44.5699]}},{"id":"301224","type":"Feature","properties":{"ident":"CA-0510","type":"seaplane_base","name":"Balsam Lake Seaplane Base","elevation_ft":"850","continent":"NA","iso_country":"CA","iso_region":"CA-ON","municipality":"Kirkfield","scheduled_service":"no","gps_code":"CKW7","local_code":"CKW7","wikipedia_link":"https://en.wikipedia.org/wiki/Kirkfield/Balsam_Lake_Seaplane_Base"},"geometry":{"type":"Point","coordinates":[-78.893096,44.54063]}},{"id":"28169","type":"Feature","properties":{"ident":"CAE9","type":"seaplane_base","name":"Bamfield Seaplane Base","continent":"NA","iso_country":"CA","iso_region":"CA-BC","municipality":"Bamfield","scheduled_service":"yes","gps_code":"CAE9","iata_code":"YBF","local_code":"CAE9","wikipedia_link":"https://en.wikipedia.org/wiki/Bamfield_Water_Aerodrome","keywords":"AE9"},"geometry":{"type":"Point","coordinates":[-125.137453,48.835967]}},{"id":"28172","type":"Feature","properties":{"ident":"CNE5","type":"seaplane_base","name":"Bar River Seaplane Base","elevation_ft":"580","continent":"NA","iso_country":"CA","iso_region":"CA-ON","municipality":"Bar River","scheduled_service":"no","gps_code":"CNE5","local_code":"CNE5","wikipedia_link":"https://en.wikipedia.org/wiki/Bar_River_Water_Aerodrome","keywords":"NE5"},"geometry":{"type":"Point","coordinates":[-84.100206,46.424215]}},{"id":"16502","type":"Feature","properties":{"ident":"BNF","type":"seaplane_base","name":"Baranof Warm Springs Float and Seaplane Base","elevation_ft":"0","continent":"NA","iso_country":"US","iso_region":"US-AK","municipality":"Baranof","scheduled_service":"no","iata_code":"BNF","local_code":"BNF","keywords":"Warm Spring Bay Seaplane Base  Baranof Warm Springs, Baranoff"},"geometry":{"type":"Point","coordinates":[-134.833146,57.088799]}},{"id":"509601","type":"Feature","properties":{"ident":"0IA","type":"seaplane_base","name":"Barbee Lake Seaplane Base","elevation_ft":"838","continent":"NA","iso_country":"US","iso_region":"US-IN","municipality":"Warsaw","scheduled_service":"no","gps_code":"0IA","local_code":"0IA"},"geometry":{"type":"Point","coordinates":[-85.703814,41.284675]}},{"id":"537462","type":"Feature","properties":{"ident":"72NH","type":"seaplane_base","name":"Barndoor Island Seaplane Base","elevation_ft":"504","continent":"NA","iso_country":"US","iso_region":"US-NH","municipality":"Alton","scheduled_service":"no","gps_code":"72NH","local_code":"72NH"},"geometry":{"type":"Point","coordinates":[-71.232264,43.553853]}},{"id":"6608","type":"Feature","properties":{"ident":"01MN","type":"seaplane_base","name":"Barnes Seaplane Base","elevation_ft":"1358","continent":"NA","iso_country":"US","iso_region":"US-MN","municipality":"Cook","scheduled_service":"no","gps_code":"01MN","local_code":"01MN"},"geometry":{"type":"Point","coordinates":[-92.557404,47.899601]}},{"id":"28170","type":"Feature","properties":{"ident":"CTP3","type":"seaplane_base","name":"Barrage Gouin Seaplane Base","elevation_ft":"1325","continent":"NA","iso_country":"CA","iso_region":"CA-QC","scheduled_service":"no","gps_code":"CTP3","local_code":"CTP3","wikipedia_link":"https://en.wikipedia.org/wiki/Barrage_Gouin_Water_Aerodrome"},"geometry":{"type":"Point","coordinates":[-74.102798,48.354198]}},{"id":"16505","type":"Feature","properties":{"ident":"BQV","type":"seaplane_base","name":"Bartlett Cove Seaplane Base","continent":"NA","iso_country":"US","iso_region":"US-AK","municipality":"Gustavus","scheduled_service":"no","gps_code":"BQV","iata_code":"BQV","local_code":"BQV","wikipedia_link":"https://fr.wikipedia.org/wiki/Base_d%27hydravions_de_Bartlett_Cove"},"geometry":{"type":"Point","coordinates":[-135.884995,58.4552]}},{"id":"322200","type":"Feature","properties":{"ident":"FR-0358","type":"seaplane_base","name":"Base Hydro-ULM \"Henri Fabre\"","elevation_ft":"1","continent":"EU","iso_country":"FR","iso_region":"FR-PAC","municipality":"Martigues","scheduled_service":"no","local_code":"LF1301"},"geometry":{"type":"Point","coordinates":[5.077778,43.420833]}},{"id":"322162","type":"Feature","properties":{"ident":"FR-0357","type":"seaplane_base","name":"Base Hydro-ULM d'Amance","elevation_ft":"430","continent":"EU","iso_country":"FR","iso_region":"FR-GES","municipality":"Amance","scheduled_service":"no","local_code":"LF1056"},"geometry":{"type":"Point","coordinates":[4.505,48.350833]}},{"id":"322201","type":"Feature","properties":{"ident":"FR-0359","type":"seaplane_base","name":"Base Hydro-ULM de La Ciotat","elevation_ft":"1","continent":"EU","iso_country":"FR","iso_region":"FR-PAC","municipality":"La Ciotat","scheduled_service":"no","local_code":"LF1353"},"geometry":{"type":"Point","coordinates":[5.641389,43.173717]}},{"id":"322120","type":"Feature","properties":{"ident":"FR-0352","type":"seaplane_base","name":"Base Hydro-ULM de Montrevel-en-Bresse","elevation_ft":"620","continent":"EU","iso_country":"FR","iso_region":"FR-ARA","municipality":"Montrevel-en-Bresse","scheduled_service":"no","local_code":"LF0159"},"geometry":{"type":"Point","coordinates":[5.142219,46.34499]}},{"id":"322202","type":"Feature","properties":{"ident":"FR-0360","type":"seaplane_base","name":"Base Hydro-ULM du Barrage de Pareloup","elevation_ft":"2635","continent":"EU","iso_country":"FR","iso_region":"FR-OCC","scheduled_service":"no","local_code":"LF1255"},"geometry":{"type":"Point","coordinates":[2.74417,44.20667]}},{"id":"322108","type":"Feature","properties":{"ident":"FR-0350","type":"seaplane_base","name":"Base Hydro-ULM Juan Les Pins","elevation_ft":"1","continent":"EU","iso_country":"FR","iso_region":"FR-PAC","municipality":"Juan-les-Pins","scheduled_service":"no","local_code":"LF0651"},"geometry":{"type":"Point","coordinates":[7.102469,43.565548]}},{"id":"45404","type":"Feature","properties":{"ident":"81IN","type":"seaplane_base","name":"Bass Lake Seaplane Base","elevation_ft":"713","continent":"NA","iso_country":"US","iso_region":"US-IN","municipality":"Winona","scheduled_service":"no","gps_code":"01L","local_code":"01L","keywords":"81IN"},"geometry":{"type":"Point","coordinates":[-86.581667,41.228889]}},{"id":"28173","type":"Feature","properties":{"ident":"CNF5","type":"seaplane_base","name":"Batchawana Seaplane Base","elevation_ft":"601","continent":"NA","iso_country":"CA","iso_region":"CA-ON","scheduled_service":"no","gps_code":"CNF5","local_code":"CNF5"},"geometry":{"type":"Point","coordinates":[-84.599998,46.916698]}},{"id":"21980","type":"Feature","properties":{"ident":"ME57","type":"seaplane_base","name":"Bauneg Beg Seaplane Base","elevation_ft":"305","continent":"NA","iso_country":"US","iso_region":"US-ME","municipality":"North Berwick","scheduled_service":"no","gps_code":"ME57","local_code":"ME57"},"geometry":{"type":"Point","coordinates":[-70.735298,43.359001]}},{"id":"11405","type":"Feature","properties":{"ident":"4FD4","type":"seaplane_base","name":"Bay Seaplanes Seaplane Base","continent":"NA","iso_country":"US","iso_region":"US-FL","municipality":"Panama City","scheduled_service":"no","gps_code":"4FD4","local_code":"4FD4"},"geometry":{"type":"Point","coordinates":[-85.749901,30.1849]}},{"id":"21531","type":"Feature","properties":{"ident":"LA64","type":"seaplane_base","name":"Bayou Boeuf Seaplane Base","elevation_ft":"2","continent":"NA","iso_country":"US","iso_region":"US-LA","municipality":"Amelia","scheduled_service":"no","gps_code":"LA64","local_code":"LA64"},"geometry":{"type":"Point","coordinates":[-91.100098,29.6835]}},{"id":"8742","type":"Feature","properties":{"ident":"1WI5","type":"seaplane_base","name":"Beaver Dam Lake Seaplane Base","elevation_ft":"871","continent":"NA","iso_country":"US","iso_region":"US-WI","municipality":"Randolph","scheduled_service":"no","gps_code":"1WI5","local_code":"1WI5"},"geometry":{"type":"Point","coordinates":[-88.952599,43.514999]}},{"id":"17084","type":"Feature","properties":{"ident":"D71","type":"seaplane_base","name":"Beaver Lake Seaplane Base","elevation_ft":"150","continent":"NA","iso_country":"US","iso_region":"US-AK","municipality":"Big Lake","scheduled_service":"no","gps_code":"D71","local_code":"D71","wikipedia_link":"https://en.wikipedia.org/wiki/Beaver_Lake_Seaplane_Base"},"geometry":{"type":"Point","coordinates":[-149.830994,61.582901]}},{"id":"7671","type":"Feature","properties":{"ident":"10MA","type":"seaplane_base","name":"Beaver Lake Seaplane Base","elevation_ft":"384","continent":"NA","iso_country":"US","iso_region":"US-MA","municipality":"Ware","scheduled_service":"no","gps_code":"10MA","local_code":"10MA"},"geometry":{"type":"Point","coordinates":[-72.306999,42.2626]}},{"id":"13869","type":"Feature","properties":{"ident":"75PN","type":"seaplane_base","name":"Beaver Seaplane Base","elevation_ft":"682","continent":"NA","iso_country":"US","iso_region":"US-PA","municipality":"Beaver","scheduled_service":"no","gps_code":"75PN","local_code":"75PN"},"geometry":{"type":"Point","coordinates":[-80.310097,40.6856]}},{"id":"28174","type":"Feature","properties":{"ident":"CAB3","type":"seaplane_base","name":"Bedwell Harbour Seaplane Base","elevation_ft":"0","continent":"NA","iso_country":"CA","iso_region":"CA-BC","municipality":"Bedwell Harbour","scheduled_service":"yes","gps_code":"CAB3","iata_code":"YBW","local_code":"CAB3","wikipedia_link":"https://en.wikipedia.org/wiki/Bedwell_Harbour_Water_Aerodrome","keywords":"AB3"},"geometry":{"type":"Point","coordinates":[-123.233002,48.75]}},{"id":"300806","type":"Feature","properties":{"ident":"BYV","type":"seaplane_base","name":"Beira Lake Seaplane Base","elevation_ft":"17","continent":"AS","iso_country":"LK","iso_region":"LK-1","municipality":"Colombo","scheduled_service":"no","iata_code":"BYV"},"geometry":{"type":"Point","coordinates":[79.854167,6.929444]}},{"id":"19362","type":"Feature","properties":{"ident":"KBE","type":"seaplane_base","name":"Bell Island Hot Springs Seaplane Base","continent":"NA","iso_country":"US","iso_region":"US-AK","municipality":"Bell Island","scheduled_service":"no","gps_code":"KBE","iata_code":"KBE","local_code":"KBE"},"geometry":{"type":"Point","coordinates":[-131.572006,55.9291]}},{"id":"28175","type":"Feature","properties":{"ident":"CAW8","type":"seaplane_base","name":"Bella Bella/Shearwater Seaplane Base","elevation_ft":"0","continent":"NA","iso_country":"CA","iso_region":"CA-BC","municipality":"Bella Bella","scheduled_service":"no","gps_code":"CAW8","iata_code":"YSX","local_code":"CAW8","wikipedia_link":"https://en.wikipedia.org/wiki/Bella_Bella/Shearwater_Water_Aerodrome","keywords":"AW8"},"geometry":{"type":"Point","coordinates":[-128.08299,52.150002]}},{"id":"28176","type":"Feature","properties":{"ident":"CAR9","type":"seaplane_base","name":"Bella Bella/Waglisla Seaplane Base","continent":"NA","iso_country":"CA","iso_region":"CA-BC","scheduled_service":"no","gps_code":"CAR9","local_code":"CAR9","wikipedia_link":"https://en.wikipedia.org/wiki/Bella_Bella/Waglisla_Water_Aerodrome","keywords":"AR9"},"geometry":{"type":"Point","coordinates":[-128.132994,52.166698]}},{"id":"321917","type":"Feature","properties":{"ident":"NH01","type":"seaplane_base","name":"Bellamy River Seaplane Base","elevation_ft":"0","continent":"NA","iso_country":"US","iso_region":"US-NH","municipality":"Dover","scheduled_service":"no","gps_code":"NH01","local_code":"NH01"},"geometry":{"type":"Point","coordinates":[-70.846261,43.141792]}},{"id":"312172","type":"Feature","properties":{"ident":"BJT","type":"seaplane_base","name":"Bentota River Waterdrome","continent":"AS","iso_country":"LK","iso_region":"LK-1","municipality":"Bentota","scheduled_service":"yes","iata_code":"BJT","wikipedia_link":"https://en.wikipedia.org/wiki/Bentota_River_Airport"},"geometry":{"type":"Point","coordinates":[79.996,6.431]}},{"id":"322797","type":"Feature","properties":{"ident":"NO-0068","type":"seaplane_base","name":"Bergen Seaplane Base, Sandviken","continent":"EU","iso_country":"NO","iso_region":"NO-46","municipality":"Bergen","scheduled_service":"no","wikipedia_link":"https://en.wikipedia.org/wiki/Bergen_Airport,_Sandviken"},"geometry":{"type":"Point","coordinates":[5.319931,60.408154]}},{"id":"43522","type":"Feature","properties":{"ident":"FR-0182","type":"seaplane_base","name":"Berre/Marignane Seaplane Base","continent":"EU","iso_country":"FR","iso_region":"FR-PAC","municipality":"Marseille","scheduled_service":"no","gps_code":"LFTB"},"geometry":{"type":"Point","coordinates":[5.216667,43.450001]}},{"id":"26358","type":"Feature","properties":{"ident":"Z59","type":"seaplane_base","name":"Bethel Seaplane Base","elevation_ft":"15","continent":"NA","iso_country":"US","iso_region":"US-AK","municipality":"Bethel","scheduled_service":"no","gps_code":"Z59","iata_code":"JBT","local_code":"Z59","wikipedia_link":"https://en.wikipedia.org/wiki/Bethel_Seaplane_Base"},"geometry":{"type":"Point","coordinates":[-161.742996,60.782001]}},{"id":"23720","type":"Feature","properties":{"ident":"OI76","type":"seaplane_base","name":"Bieber's Seaplane Base","elevation_ft":"1020","continent":"NA","iso_country":"US","iso_region":"US-OH","municipality":"North Lima","scheduled_service":"no","gps_code":"OI76","local_code":"OI76"},"geometry":{"type":"Point","coordinates":[-80.693522,40.985502]}},{"id":"28177","type":"Feature","properties":{"ident":"CAF6","type":"seaplane_base","name":"Big Bay Seaplane Base","continent":"NA","iso_country":"CA","iso_region":"CA-BC","municipality":"Stuart Island","scheduled_service":"yes","gps_code":"CAF6","iata_code":"YIG","local_code":"CAF6","wikipedia_link":"https://en.wikipedia.org/wiki/Big_Bay_Water_Aerodrome","keywords":"AF6"},"geometry":{"type":"Point","coordinates":[-125.1372,50.3923]}},{"id":"28178","type":"Feature","properties":{"ident":"CJS6","type":"seaplane_base","name":"Big Hook Wilderness Camp Seaplane Base","elevation_ft":"860","continent":"NA","iso_country":"CA","iso_region":"CA-ON","scheduled_service":"no","gps_code":"CJS6","local_code":"CJS6","wikipedia_link":"https://en.wikipedia.org/wiki/Big_Hook_Wilderness_Camp_Water_Aerodrome"},"geometry":{"type":"Point","coordinates":[-92.949997,53.5667]}},{"id":"11466","type":"Feature","properties":{"ident":"4IN1","type":"seaplane_base","name":"Big Long Lake Seaplane Base","elevation_ft":"940","continent":"NA","iso_country":"US","iso_region":"US-IN","municipality":"Kendallville","scheduled_service":"no","local_code":"56I","keywords":"4IN1"},"geometry":{"type":"Point","coordinates":[-85.231583,41.552725]}},{"id":"337212","type":"Feature","properties":{"ident":"US-1979","type":"seaplane_base","name":"Big Turkey Lake Seaplane Base","elevation_ft":"927","continent":"NA","iso_country":"US","iso_region":"US-IN","municipality":"Stroh","scheduled_service":"no","local_code":"IN0"},"geometry":{"type":"Point","coordinates":[-85.188628,41.584967]}},{"id":"35303","type":"Feature","properties":{"ident":"BS-NSB","type":"seaplane_base","name":"Bimini North Seaplane Base","continent":"NA","iso_country":"BS","iso_region":"BS-BI","municipality":"Bimini","scheduled_service":"yes","iata_code":"NSB","wikipedia_link":"https://en.wikipedia.org/wiki/North_Bimini_Airport"},"geometry":{"type":"Point","coordinates":[-79.25,25.767]}},{"id":"21748","type":"Feature","properties":{"ident":"M69","type":"seaplane_base","name":"Birch Lake Seaplane Base","elevation_ft":"1278","continent":"NA","iso_country":"US","iso_region":"US-MN","municipality":"Deerwood","scheduled_service":"no","gps_code":"M69","local_code":"M69"},"geometry":{"type":"Point","coordinates":[-93.813904,46.369701]}},{"id":"28179","type":"Feature","properties":{"ident":"CJX6","type":"seaplane_base","name":"Bird River Seaplane Base","elevation_ft":"826","continent":"NA","iso_country":"CA","iso_region":"CA-MB","scheduled_service":"no","gps_code":"CJX6","local_code":"CJX6","wikipedia_link":"https://en.wikipedia.org/wiki/Bird_River_Water_Aerodrome"},"geometry":{"type":"Point","coordinates":[-95.75,50.400002]}},{"id":"28180","type":"Feature","properties":{"ident":"CJY6","type":"seaplane_base","name":"Bissett Seaplane Base","elevation_ft":"824","continent":"NA","iso_country":"CA","iso_region":"CA-MB","scheduled_service":"no","gps_code":"CJY6","local_code":"CJY6","wikipedia_link":"https://en.wikipedia.org/wiki/Bissett_Water_Aerodrome","keywords":"JY6"},"geometry":{"type":"Point","coordinates":[-95.683296,51.016701]}},{"id":"308670","type":"Feature","properties":{"ident":"MV-0001","type":"seaplane_base","name":"Biyadoo Island","continent":"AS","iso_country":"MV","iso_region":"MV-MLE","scheduled_service":"no"},"geometry":{"type":"Point","coordinates":[73.451672,3.924968]}},{"id":"28394","type":"Feature","properties":{"ident":"CPK8","type":"seaplane_base","name":"Black Donald Lake Seaplane Base","elevation_ft":"815","continent":"NA","iso_country":"CA","iso_region":"CA-ON","municipality":"Renfrew","scheduled_service":"no","gps_code":"CPK8","local_code":"CPK8","wikipedia_link":"https://en.wikipedia.org/wiki/Renfrew/Black_Donald_Lake_Water_Aerodrome"},"geometry":{"type":"Point","coordinates":[-76.956703,45.205002]}},{"id":"28181","type":"Feature","properties":{"ident":"CJZ6","type":"seaplane_base","name":"Black Lake Seaplane Base","elevation_ft":"909","continent":"NA","iso_country":"CA","iso_region":"CA-SK","scheduled_service":"no","gps_code":"CJZ6","local_code":"CJZ6","wikipedia_link":"https://en.wikipedia.org/wiki/Black_Lake_Water_Aerodrome"},"geometry":{"type":"Point","coordinates":[-105.550003,59.150002]}},{"id":"28182","type":"Feature","properties":{"ident":"CAG6","type":"seaplane_base","name":"Blind Channel Seaplane Base","elevation_ft":"0","continent":"NA","iso_country":"CA","iso_region":"CA-BC","scheduled_service":"no","gps_code":"CAG6","local_code":"CAG6","wikipedia_link":"https://en.wikipedia.org/wiki/Blind_Channel_Water_Aerodrome","keywords":"AG6"},"geometry":{"type":"Point","coordinates":[-125.5,50.416698]}},{"id":"26363","type":"Feature","properties":{"ident":"Z87","type":"seaplane_base","name":"Blinn Lake Seaplane Base","elevation_ft":"50","continent":"NA","iso_country":"US","iso_region":"US-AK","municipality":"Cold Bay","scheduled_service":"no","gps_code":"Z87","local_code":"Z87"},"geometry":{"type":"Point","coordinates":[-162.753006,55.251598]}},{"id":"17086","type":"Feature","properties":{"ident":"D75","type":"seaplane_base","name":"Blodget Lake Seaplane Base","elevation_ft":"242","continent":"NA","iso_country":"US","iso_region":"US-AK","municipality":"Wasilla","scheduled_service":"no","gps_code":"D75","local_code":"D75"},"geometry":{"type":"Point","coordinates":[-149.675995,61.576099]}},{"id":"317272","type":"Feature","properties":{"ident":"XBB","type":"seaplane_base","name":"Blubber Bay Seaplane Base","elevation_ft":"0","continent":"NA","iso_country":"CA","iso_region":"CA-BC","municipality":"Blubber Bay","scheduled_service":"no","iata_code":"XBB"},"geometry":{"type":"Point","coordinates":[-124.621064,49.793958]}},{"id":"302394","type":"Feature","properties":{"ident":"BXL","type":"seaplane_base","name":"Blue Lagoon Seaplane Base","elevation_ft":"0","continent":"OC","iso_country":"FJ","iso_region":"FJ-W","municipality":"Nanuya Lailai Island","scheduled_service":"no","iata_code":"BXL"},"geometry":{"type":"Point","coordinates":[177.368,-16.943]}},{"id":"28310","type":"Feature","properties":{"ident":"CSM6","type":"seaplane_base","name":"Blue Sea Lake Seaplane Base","elevation_ft":"560","continent":"NA","iso_country":"CA","iso_region":"CA-QC","municipality":"Maniwaki","scheduled_service":"no","gps_code":"CSM6","local_code":"CSM6"},"geometry":{"type":"Point","coordinates":[-76.048302,46.242199]}},{"id":"316197","type":"Feature","properties":{"ident":"CA-0556","type":"seaplane_base","name":"Boffa Lake Water Aerodrome","elevation_ft":"338","continent":"NA","iso_country":"CA","iso_region":"CA-NU","scheduled_service":"no","local_code":"EX6"},"geometry":{"type":"Point","coordinates":[-116.196,69.637]}},{"id":"28323","type":"Feature","properties":{"ident":"CSA4","type":"seaplane_base","name":"Boisvert & Fils Seaplane Base","continent":"NA","iso_country":"CA","iso_region":"CA-QC","municipality":"Montréal","scheduled_service":"no","gps_code":"CSA4","local_code":"CSA4","wikipedia_link":"https://en.wikipedia.org/wiki/Montr%C3%A9al/Boisvert_%26_Fils_Water_Airport"},"geometry":{"type":"Point","coordinates":[-73.596901,45.645599]}},{"id":"16285","type":"Feature","properties":{"ident":"AL96","type":"seaplane_base","name":"Bon Secour Seaplane Base","continent":"NA","iso_country":"US","iso_region":"US-AL","municipality":"Gulf Shores","scheduled_service":"no","gps_code":"AL96","local_code":"AL96"},"geometry":{"type":"Point","coordinates":[-87.740799,30.2983]}},{"id":"17041","type":"Feature","properties":{"ident":"CT87","type":"seaplane_base","name":"Bootlegger's Seaplane Base","elevation_ft":"35","continent":"NA","iso_country":"US","iso_region":"US-CT","municipality":"Enfield","scheduled_service":"no","gps_code":"CT87","local_code":"CT87"},"geometry":{"type":"Point","coordinates":[-72.605904,41.998402]}},{"id":"8007","type":"Feature","properties":{"ident":"16NH","type":"seaplane_base","name":"Bossey's Seaplane Base","elevation_ft":"624","continent":"NA","iso_country":"US","iso_region":"US-NH","municipality":"Meredith","scheduled_service":"no","gps_code":"16NH","local_code":"16NH"},"geometry":{"type":"Point","coordinates":[-71.512497,43.604198]}},{"id":"17831","type":"Feature","properties":{"ident":"ID54","type":"seaplane_base","name":"Bottle Bay Seaplane Base","elevation_ft":"2063","continent":"NA","iso_country":"US","iso_region":"US-ID","municipality":"Sandpoint","scheduled_service":"no","gps_code":"ID54","local_code":"ID54"},"geometry":{"type":"Point","coordinates":[-116.445,48.479099]}},{"id":"529214","type":"Feature","properties":{"ident":"FR-1051","type":"seaplane_base","name":"Bourcefranc","continent":"EU","iso_country":"FR","iso_region":"FR-NAQ","scheduled_service":"no","local_code":"LF1756","home_link":"https://www.airfly17.fr/"},"geometry":{"type":"Point","coordinates":[-1.131111,45.871944]}},{"id":"510885","type":"Feature","properties":{"ident":"CCB9","type":"seaplane_base","name":"Bracebridge/Spirit Bay Water Aerodrome","elevation_ft":"739","continent":"NA","iso_country":"CA","iso_region":"CA-ON","municipality":"Lake Muskoka","scheduled_service":"no","gps_code":"CCB9","local_code":"CCB9","wikipedia_link":"https://en.wikipedia.org/wiki/Bracebridge/Spirit_Bay_Water_Aerodrome"},"geometry":{"type":"Point","coordinates":[-79.391409,45.048451]}},{"id":"21960","type":"Feature","properties":{"ident":"ME3","type":"seaplane_base","name":"Bradford Camps Seaplane Base","elevation_ft":"815","continent":"NA","iso_country":"US","iso_region":"US-ME","municipality":"Ashland","scheduled_service":"no","gps_code":"ME3","local_code":"ME3"},"geometry":{"type":"Point","coordinates":[-69.004997,46.395802]}},{"id":"14441","type":"Feature","properties":{"ident":"7VA7","type":"seaplane_base","name":"Brammer Seaplane Base","elevation_ft":"795","continent":"NA","iso_country":"US","iso_region":"US-VA","municipality":"Union Hall","scheduled_service":"no","gps_code":"9VA7","local_code":"9VA7"},"geometry":{"type":"Point","coordinates":[-79.699799,37.033501]}},{"id":"12488","type":"Feature","properties":{"ident":"5ME","type":"seaplane_base","name":"Brandy Pond Seaplane Base","elevation_ft":"267","continent":"NA","iso_country":"US","iso_region":"US-ME","municipality":"Naples","scheduled_service":"no","gps_code":"5ME","local_code":"5ME"},"geometry":{"type":"Point","coordinates":[-70.591103,43.954601]}},{"id":"323245","type":"Feature","properties":{"ident":"CA-0683","type":"seaplane_base","name":"Brechin / Ronan Waterdrome","continent":"NA","iso_country":"CA","iso_region":"CA-ON","municipality":"Brechin","scheduled_service":"no"},"geometry":{"type":"Point","coordinates":[-79.2237,44.569697]}},{"id":"8952","type":"Feature","properties":{"ident":"23MD","type":"seaplane_base","name":"Breezecroft Seaplane Base","elevation_ft":"10","continent":"NA","iso_country":"US","iso_region":"US-MD","municipality":"Chestertown","scheduled_service":"no","gps_code":"23MD","local_code":"23MD"},"geometry":{"type":"Point","coordinates":[-76.206902,39.2556]}},{"id":"21946","type":"Feature","properties":{"ident":"ME12","type":"seaplane_base","name":"Brettuns Pond Seaplane Base","elevation_ft":"400","continent":"NA","iso_country":"US","iso_region":"US-ME","municipality":"Livermore","scheduled_service":"no","gps_code":"ME12","local_code":"ME12"},"geometry":{"type":"Point","coordinates":[-70.254501,44.387798]}},{"id":"17613","type":"Feature","properties":{"ident":"H77","type":"seaplane_base","name":"Bridge Bay Resort Seaplane Base","elevation_ft":"1065","continent":"NA","iso_country":"US","iso_region":"US-CA","municipality":"Redding","scheduled_service":"no","gps_code":"H77","local_code":"H77"},"geometry":{"type":"Point","coordinates":[-122.322998,40.757599]}},{"id":"320961","type":"Feature","properties":{"ident":"0FA5","type":"seaplane_base","name":"Briley Farm Seaplane Base","elevation_ft":"66","continent":"NA","iso_country":"US","iso_region":"US-FL","municipality":"Oakland","scheduled_service":"no","gps_code":"0FA5","local_code":"0FA5"},"geometry":{"type":"Point","coordinates":[-81.628611,28.572778]}},{"id":"13175","type":"Feature","properties":{"ident":"6A7","type":"seaplane_base","name":"Brocker Lake Seaplane Base","elevation_ft":"100","continent":"NA","iso_country":"US","iso_region":"US-AK","municipality":"Big Lake","scheduled_service":"no","gps_code":"6A7","local_code":"6A7"},"geometry":{"type":"Point","coordinates":[-149.772995,61.4818]}},{"id":"24385","type":"Feature","properties":{"ident":"S76","type":"seaplane_base","name":"Brooks Seaplane Base","elevation_ft":"2125","continent":"NA","iso_country":"US","iso_region":"US-ID","municipality":"Coeur D'Alene","scheduled_service":"no","gps_code":"S76","local_code":"S76","wikipedia_link":"https://en.wikipedia.org/wiki/Brooks_Seaplane_Base"},"geometry":{"type":"Point","coordinates":[-116.786003,47.6721]}},{"id":"7760","type":"Feature","properties":{"ident":"12I","type":"seaplane_base","name":"Brookville Reservoir Seaplane Base","elevation_ft":"748","continent":"NA","iso_country":"US","iso_region":"US-IN","municipality":"Brookville","scheduled_service":"no","gps_code":"12I","local_code":"12I"},"geometry":{"type":"Point","coordinates":[-85,39.5103]}},{"id":"351146","type":"Feature","properties":{"ident":"6MT4","type":"seaplane_base","name":"Brown Cabin Seaplane Base","elevation_ft":"3340","continent":"NA","iso_country":"US","iso_region":"US-MT","municipality":"Libby","scheduled_service":"no","gps_code":"6MT4","local_code":"6MT4"},"geometry":{"type":"Point","coordinates":[-115.091325,48.038069]}},{"id":"321881","type":"Feature","properties":{"ident":"CBL2","type":"seaplane_base","name":"Buck Lake Seaplane Base","elevation_ft":"709","continent":"NA","iso_country":"CA","iso_region":"CA-ON","municipality":"Severn Bridge","scheduled_service":"no","gps_code":"CBL2","local_code":"CBL2","wikipedia_link":"https://en.wikipedia.org/wiki/Severn_Bridge/Buck_Lake_Water_Aerodrome"},"geometry":{"type":"Point","coordinates":[-79.413,44.7717]}},{"id":"13963","type":"Feature","properties":{"ident":"78B","type":"seaplane_base","name":"Buckhorn Camps Seaplane Base","elevation_ft":"500","continent":"NA","iso_country":"US","iso_region":"US-ME","municipality":"Norcross/Millinocket/","scheduled_service":"no","gps_code":"78B","local_code":"78B"},"geometry":{"type":"Point","coordinates":[-68.949501,45.654202]}},{"id":"527980","type":"Feature","properties":{"ident":"CUB2","type":"seaplane_base","name":"Buckhorn Water Aerodrome","elevation_ft":"806","continent":"NA","iso_country":"CA","iso_region":"CA-ON","municipality":"Upper Buckhorn Lake","scheduled_service":"no","gps_code":"CUB2","local_code":"CUB2"},"geometry":{"type":"Point","coordinates":[-78.355,44.53]}},{"id":"28183","type":"Feature","properties":{"ident":"CJB7","type":"seaplane_base","name":"Buffalo Narrows Seaplane Base","elevation_ft":"1382","continent":"NA","iso_country":"CA","iso_region":"CA-SK","municipality":"Buffalo Narrows","scheduled_service":"no","gps_code":"CJB7","local_code":"CJB7","wikipedia_link":"https://en.wikipedia.org/wiki/Buffalo_Narrows_Water_Aerodrome","keywords":"JB7"},"geometry":{"type":"Point","coordinates":[-108.483002,55.849998]}},{"id":"308918","type":"Feature","properties":{"ident":"YBH","type":"seaplane_base","name":"Bull Harbour Water Aerodrome","elevation_ft":"0","continent":"NA","iso_country":"CA","iso_region":"CA-BC","municipality":"Bull Harbour","scheduled_service":"no","iata_code":"YBH","local_code":"AH6"},"geometry":{"type":"Point","coordinates":[-127.9372,50.9179]}},{"id":"28184","type":"Feature","properties":{"ident":"CJC7","type":"seaplane_base","name":"Burditt Lake Seaplane Base","elevation_ft":"1150","continent":"NA","iso_country":"CA","iso_region":"CA-ON","scheduled_service":"no","gps_code":"CJC7","local_code":"CJC7","wikipedia_link":"https://en.wikipedia.org/wiki/Burditt_Lake_Water_Aerodrome"},"geometry":{"type":"Point","coordinates":[-93.8022,48.919399]}},{"id":"11840","type":"Feature","properties":{"ident":"50MI","type":"seaplane_base","name":"Burgess Lake Seaplane Base","elevation_ft":"799","continent":"NA","iso_country":"US","iso_region":"US-MI","municipality":"Greenville","scheduled_service":"no","gps_code":"50MI","local_code":"50MI"},"geometry":{"type":"Point","coordinates":[-85.294197,43.157299]}},{"id":"320722","type":"Feature","properties":{"ident":"CLD3","type":"seaplane_base","name":"Burns Lake (LD Air) Water Aerodrome","elevation_ft":"2300","continent":"NA","iso_country":"CA","iso_region":"CA-BC","municipality":"Burns Lake","scheduled_service":"no","gps_code":"CLD3","local_code":"CLD3","wikipedia_link":"https://en.wikipedia.org/wiki/Burns_Lake_(LD_Air)_Water_Aerodrome","keywords":"AJ6"},"geometry":{"type":"Point","coordinates":[-125.756901,54.21]}},{"id":"22136","type":"Feature","properties":{"ident":"MN30","type":"seaplane_base","name":"Busch's Fish Lake Seaplane Base","elevation_ft":"870","continent":"NA","iso_country":"US","iso_region":"US-MN","municipality":"Maple Grove","scheduled_service":"no","gps_code":"MN30","local_code":"MN30"},"geometry":{"type":"Point","coordinates":[-93.465202,45.094101]}},{"id":"430581","type":"Feature","properties":{"ident":"PH-0494","type":"seaplane_base","name":"Busuanga Bay Lodge Seaplane Terminal","continent":"AS","iso_country":"PH","iso_region":"PH-PLW","municipality":"Busuanga","scheduled_service":"no"},"geometry":{"type":"Point","coordinates":[119.97753,12.0231]}},{"id":"510126","type":"Feature","properties":{"ident":"NO-0103","type":"seaplane_base","name":"Bykle sjøflyplass - Hovden","elevation_ft":"2307","continent":"EU","iso_country":"NO","iso_region":"NO-42","scheduled_service":"no","wikipedia_link":"https://no.wikipedia.org/wiki/Bykle_sj%C3%B8flyplass,_Hovden"},"geometry":{"type":"Point","coordinates":[7.358815,59.52733]}},{"id":"9243","type":"Feature","properties":{"ident":"29FA","type":"seaplane_base","name":"Caloosa Downtown Seaplane Base","elevation_ft":"2","continent":"NA","iso_country":"US","iso_region":"US-FL","municipality":"Fort Myers","scheduled_service":"no","gps_code":"29FA","local_code":"29FA"},"geometry":{"type":"Point","coordinates":[-81.875,26.635]}},{"id":"321913","type":"Feature","properties":{"ident":"CMB3","type":"seaplane_base","name":"Cambridge (Puslinch Lake) Seaplane Base","elevation_ft":"1000","continent":"NA","iso_country":"CA","iso_region":"CA-ON","municipality":"Cambridge","scheduled_service":"no","gps_code":"CMB3","local_code":"CMB3","wikipedia_link":"https://en.wikipedia.org/wiki/Cambridge_(Puslinch_Lake)_Water_Aerodrome"},"geometry":{"type":"Point","coordinates":[-80.257002,43.4205]}},{"id":"28186","type":"Feature","properties":{"ident":"CJD7","type":"seaplane_base","name":"Cambridge Bay Seaplane Base","continent":"NA","iso_country":"CA","iso_region":"CA-NU","municipality":"Cambridge Bay","scheduled_service":"no","gps_code":"CJD7","local_code":"CJD7","wikipedia_link":"https://en.wikipedia.org/wiki/Cambridge_Bay_Water_Aerodrome","keywords":"JD7"},"geometry":{"type":"Point","coordinates":[-105.021003,69.122202]}},{"id":"316098","type":"Feature","properties":{"ident":"CA-0551","type":"seaplane_base","name":"Cameron Bay Water Aerodrome","elevation_ft":"512","continent":"NA","iso_country":"CA","iso_region":"CA-NT","municipality":"Cameron Bay","scheduled_service":"no","local_code":"EA7"},"geometry":{"type":"Point","coordinates":[-117.89,66.06]}},{"id":"333333","type":"Feature","properties":{"ident":"GB-0745","type":"seaplane_base","name":"Cameron House Hotel Seaplane Base","continent":"EU","iso_country":"GB","iso_region":"GB-SCT","scheduled_service":"no","keywords":"Duck Bay"},"geometry":{"type":"Point","coordinates":[-4.6059,56.014]}},{"id":"28188","type":"Feature","properties":{"ident":"CAK6","type":"seaplane_base","name":"Camp Cordero Seaplane Base","elevation_ft":"0","continent":"NA","iso_country":"CA","iso_region":"CA-BC","scheduled_service":"no","gps_code":"CAK6","local_code":"CAK6","wikipedia_link":"https://en.wikipedia.org/wiki/Camp_Cordero_Water_Aerodrome","keywords":"AK6"},"geometry":{"type":"Point","coordinates":[-125.453785,50.446694]}},{"id":"348614","type":"Feature","properties":{"ident":"GF-0009","type":"seaplane_base","name":"Camp Maripas Seaplane Base","elevation_ft":"52","continent":"SA","iso_country":"GF","iso_region":"GF-CY","municipality":"Kourou","scheduled_service":"no"},"geometry":{"type":"Point","coordinates":[-52.68906,5.04285]}},{"id":"10402","type":"Feature","properties":{"ident":"3C3","type":"seaplane_base","name":"Campbell Lake Seaplane Base","elevation_ft":"20","continent":"NA","iso_country":"US","iso_region":"US-AK","municipality":"Anchorage","scheduled_service":"no","local_code":"A11","keywords":"3C3, 33AA"},"geometry":{"type":"Point","coordinates":[-149.942003,61.133099]}},{"id":"28187","type":"Feature","properties":{"ident":"CAE3","type":"seaplane_base","name":"Campbell River Seaplane Base","continent":"NA","iso_country":"CA","iso_region":"CA-BC","municipality":"Campbell River","scheduled_service":"yes","gps_code":"CAE3","iata_code":"YHH","local_code":"CAE3","wikipedia_link":"https://en.wikipedia.org/wiki/Campbell_River_Water_Aerodrome","keywords":"AE3, Campbell River Harbour Airport"},"geometry":{"type":"Point","coordinates":[-125.25,50.049999]}},{"id":"511358","type":"Feature","properties":{"ident":"CCP5","type":"seaplane_base","name":"Camping Pontbriand Water Aerodrome","elevation_ft":"505","continent":"NA","iso_country":"CA","iso_region":"CA-QC","municipality":"Rawdon","scheduled_service":"no","gps_code":"CCP5","local_code":"CCP5","wikipedia_link":"https://en.wikipedia.org/wiki/Rawdon/Camping_Pontbriand_(Hydro)_Water_Aerodrome"},"geometry":{"type":"Point","coordinates":[-73.756167,46.053333]}},{"id":"321938","type":"Feature","properties":{"ident":"US-0370","type":"seaplane_base","name":"Cape Air Seaplanes on Boston Harbor Seaplane Base","elevation_ft":"0","continent":"NA","iso_country":"US","iso_region":"US-MA","municipality":"Boston","scheduled_service":"no","gps_code":"MA87","iata_code":"BNH","local_code":"MA87"},"geometry":{"type":"Point","coordinates":[-71.025832,42.352502]}},{"id":"26359","type":"Feature","properties":{"ident":"Z71","type":"seaplane_base","name":"Cape Pole Seaplane Base","elevation_ft":"0","continent":"NA","iso_country":"US","iso_region":"US-AK","municipality":"Cape Pole","scheduled_service":"no","gps_code":"Z71","iata_code":"CZP","local_code":"Z71"},"geometry":{"type":"Point","coordinates":[-133.796997,55.966301]}},{"id":"28189","type":"Feature","properties":{"ident":"CEB7","type":"seaplane_base","name":"Carcross Seaplane Base","elevation_ft":"2152","continent":"NA","iso_country":"CA","iso_region":"CA-YT","municipality":"Carcross","scheduled_service":"no","gps_code":"CEB7","local_code":"CEB7","wikipedia_link":"https://en.wikipedia.org/wiki/Carcross_Water_Aerodrome","keywords":"EB7"},"geometry":{"type":"Point","coordinates":[-134.697404,60.172428]}},{"id":"28397","type":"Feature","properties":{"ident":"CRB7","type":"seaplane_base","name":"Cardinal Aviation Seaplane Base","continent":"NA","iso_country":"CA","iso_region":"CA-QC","municipality":"Rivière Blanche","scheduled_service":"no","gps_code":"CRB7","local_code":"CRB7","wikipedia_link":"https://en.wikipedia.org/wiki/Rivi%C3%A8re_Blanche/Cardinal_Aviation_Water_Aerodrome"},"geometry":{"type":"Point","coordinates":[-75.6278,45.547501]}},{"id":"15813","type":"Feature","properties":{"ident":"9MN0","type":"seaplane_base","name":"Carey Lake Seaplane Base","elevation_ft":"1351","continent":"NA","iso_country":"US","iso_region":"US-MN","municipality":"Hibbing","scheduled_service":"no","gps_code":"9MN0","local_code":"9MN0"},"geometry":{"type":"Point","coordinates":[-92.827698,47.418301]}},{"id":"320861","type":"Feature","properties":{"ident":"CJF2","type":"seaplane_base","name":"Carignan/Rivière L’Acadie Water Aerodrome","elevation_ft":"32","continent":"NA","iso_country":"CA","iso_region":"CA-QC","municipality":"Carignan","scheduled_service":"no","gps_code":"CJF2","local_code":"CJF2","wikipedia_link":"https://en.wikipedia.org/wiki/Carignan/Riv%C3%A8re_l%27Acadie_Water_Aerodrome"},"geometry":{"type":"Point","coordinates":[-73.2948,45.4736]}},{"id":"28190","type":"Feature","properties":{"ident":"CTY3","type":"seaplane_base","name":"Cascades Seaplane Base","elevation_ft":"340","continent":"NA","iso_country":"CA","iso_region":"CA-QC","municipality":"Cantley","scheduled_service":"no","gps_code":"CTY3","local_code":"CTY3","wikipedia_link":"https://en.wikipedia.org/wiki/Cascades_Water_Aerodrome"},"geometry":{"type":"Point","coordinates":[-75.868103,45.5858]}},{"id":"11878","type":"Feature","properties":{"ident":"51MI","type":"seaplane_base","name":"Cass Lake-Cove Island Seaplane Base","elevation_ft":"990","continent":"NA","iso_country":"US","iso_region":"US-MI","municipality":"Pontiac","scheduled_service":"no","gps_code":"51MI","local_code":"51MI"},"geometry":{"type":"Point","coordinates":[-83.356003,42.6161]}},{"id":"312330","type":"Feature","properties":{"ident":"NFCS","type":"seaplane_base","name":"Castaway Island Seaplane Base","elevation_ft":"0","continent":"OC","iso_country":"FJ","iso_region":"FJ-W","municipality":"Castaway Island","scheduled_service":"no","gps_code":"NFCS","iata_code":"CST"},"geometry":{"type":"Point","coordinates":[177.129,-17.7358]}},{"id":"317282","type":"Feature","properties":{"ident":"NUF","type":"seaplane_base","name":"Castlereagh Lake Seaplane Base","elevation_ft":"3580","continent":"AS","iso_country":"LK","iso_region":"LK-2","municipality":"Hatton","scheduled_service":"no","iata_code":"NUF","keywords":"Castlereigh Reservoir"},"geometry":{"type":"Point","coordinates":[80.584,6.86]}},{"id":"505283","type":"Feature","properties":{"ident":"86ME","type":"seaplane_base","name":"Cathance Landing Seaplane Base","elevation_ft":"0","continent":"NA","iso_country":"US","iso_region":"US-ME","municipality":"Bowdoinham","scheduled_service":"no","gps_code":"86ME","local_code":"86ME"},"geometry":{"type":"Point","coordinates":[-69.895222,44.006528]}},{"id":"335330","type":"Feature","properties":{"ident":"US-1503","type":"seaplane_base","name":"Cedar Lake Seaplane Base","elevation_ft":"692","continent":"NA","iso_country":"US","iso_region":"US-IN","municipality":"Cedar Lake","scheduled_service":"no","local_code":"IN7"},"geometry":{"type":"Point","coordinates":[-87.432811,41.373461]}},{"id":"344815","type":"Feature","properties":{"ident":"US-4185","type":"seaplane_base","name":"Cedarville Reservoir Seaplane Base","elevation_ft":"781","continent":"NA","iso_country":"US","iso_region":"US-IN","municipality":"Leo-Cedarville","scheduled_service":"no","local_code":"IN4"},"geometry":{"type":"Point","coordinates":[-85.014361,41.204361]}},{"id":"25729","type":"Feature","properties":{"ident":"WI35","type":"seaplane_base","name":"Ceder Lake Seaplane Base","elevation_ft":"917","continent":"NA","iso_country":"US","iso_region":"US-WI","municipality":"New Richmond","scheduled_service":"no","gps_code":"WI35","local_code":"WI35"},"geometry":{"type":"Point","coordinates":[-92.572701,45.215801]}},{"id":"510889","type":"Feature","properties":{"ident":"CCL5","type":"seaplane_base","name":"Chandos Lake/Sciuk's Landing Seaplane Base","elevation_ft":"1037","continent":"NA","iso_country":"CA","iso_region":"CA-ON","municipality":"Chandos Lake","scheduled_service":"no","gps_code":"CCL5","local_code":"CCL5"},"geometry":{"type":"Point","coordinates":[-77.970833,44.804667]}},{"id":"28191","type":"Feature","properties":{"ident":"CNL5","type":"seaplane_base","name":"Chapleau Seaplane Base","elevation_ft":"1443","continent":"NA","iso_country":"CA","iso_region":"CA-ON","scheduled_service":"no","gps_code":"CNL5","local_code":"CNL5"},"geometry":{"type":"Point","coordinates":[-83.400002,47.849998]}},{"id":"25495","type":"Feature","properties":{"ident":"VI22","type":"seaplane_base","name":"Charlotte Amalie Harbor Seaplane Base","continent":"NA","iso_country":"VI","iso_region":"VI-U-A","municipality":"Charlotte Amalie St Thomas","scheduled_service":"yes","gps_code":"VI22","iata_code":"SPB","local_code":"VI22","wikipedia_link":"https://en.wikipedia.org/wiki/Charlotte_Amalie_Harbor_Seaplane_Base"},"geometry":{"type":"Point","coordinates":[-64.940697,18.3386]}},{"id":"17057","type":"Feature","properties":{"ident":"CYM","type":"seaplane_base","name":"Chatham Seaplane Base","continent":"NA","iso_country":"US","iso_region":"US-AK","municipality":"Chatham","scheduled_service":"yes","gps_code":"05AA","iata_code":"CYM","local_code":"05AA","wikipedia_link":"https://en.wikipedia.org/wiki/Chatham_Seaplane_Base","keywords":"CYM"},"geometry":{"type":"Point","coordinates":[-134.945999,57.5149]}},{"id":"9905","type":"Feature","properties":{"ident":"2Z5","type":"seaplane_base","name":"Chena River Seaplane Base","elevation_ft":"440","continent":"NA","iso_country":"US","iso_region":"US-AK","municipality":"Fairbanks","scheduled_service":"no","gps_code":"2Z5","local_code":"2Z5"},"geometry":{"type":"Point","coordinates":[-147.848007,64.832901]}},{"id":"19520","type":"Feature","properties":{"ident":"KCN","type":"seaplane_base","name":"Chernofski Harbor Seaplane Base","continent":"NA","iso_country":"US","iso_region":"US-AK","municipality":"Chernofski Harbor","scheduled_service":"no","gps_code":"KCN","iata_code":"KCN","local_code":"KCN","wikipedia_link":"http://wikimapia.org/6966644/Port-of-Chernofski-Harbor"},"geometry":{"type":"Point","coordinates":[-167.520272,53.402899]}},{"id":"347058","type":"Feature","properties":{"ident":"US-4991","type":"seaplane_base","name":"Cherry Pockets Fish Camp Seaplane Base","elevation_ft":"78","continent":"NA","iso_country":"US","iso_region":"US-FL","municipality":"Lake Wales","scheduled_service":"no","gps_code":"13FD","local_code":"13FD"},"geometry":{"type":"Point","coordinates":[-81.544454,27.993719]}},{"id":"8448","type":"Feature","properties":{"ident":"1ME","type":"seaplane_base","name":"Chesuncook Lake House Seaplane Base","elevation_ft":"942","continent":"NA","iso_country":"US","iso_region":"US-ME","municipality":"Chesuncook","scheduled_service":"no","gps_code":"1ME","local_code":"1ME"},"geometry":{"type":"Point","coordinates":[-69.409401,46.060902]}},{"id":"349269","type":"Feature","properties":{"ident":"US-5621","type":"seaplane_base","name":"Chevron Southpass Tank Battery E-3 Seaplane Base","continent":"NA","iso_country":"US","iso_region":"US-LA","municipality":"Venice","scheduled_service":"no"},"geometry":{"type":"Point","coordinates":[-89.31955,29.03716]}},{"id":"349271","type":"Feature","properties":{"ident":"US-5623","type":"seaplane_base","name":"Chevron Southpass Tank Battery W-1 Seaplane Base","continent":"NA","iso_country":"US","iso_region":"US-LA","municipality":"Venice","scheduled_service":"no"},"geometry":{"type":"Point","coordinates":[-89.287025,29.089656]}},{"id":"349270","type":"Feature","properties":{"ident":"US-5622","type":"seaplane_base","name":"Chevron Southpass Tank Battery W-2 Seaplane Base","continent":"NA","iso_country":"US","iso_region":"US-LA","municipality":"Venice","scheduled_service":"no"},"geometry":{"type":"Point","coordinates":[-89.32897,29.04025]}},{"id":"320873","type":"Feature","properties":{"ident":"CSZ7","type":"seaplane_base","name":"Chibougamau/Lac Caché Water Aerodrome","elevation_ft":"1255","continent":"NA","iso_country":"CA","iso_region":"CA-QC","municipality":"Chibougamau","scheduled_service":"no","gps_code":"CSZ7","local_code":"CSZ7","wikipedia_link":"https://en.wikipedia.org/wiki/Chibougamau/Lac_Cach%C3%A9_Water_Aerodrome","keywords":"SZ7"},"geometry":{"type":"Point","coordinates":[-74.424285,49.823371]}},{"id":"26360","type":"Feature","properties":{"ident":"Z78","type":"seaplane_base","name":"Chignik Bay Seaplane Base","continent":"NA","iso_country":"US","iso_region":"US-AK","municipality":"Chignik","scheduled_service":"no","gps_code":"Z78","iata_code":"KBW","local_code":"Z78","wikipedia_link":"https://en.wikipedia.org/wiki/Chignik_Bay_Seaplane_Base"},"geometry":{"type":"Point","coordinates":[-158.401001,56.295601]}},{"id":"312506","type":"Feature","properties":{"ident":"CIV","type":"seaplane_base","name":"Chomley Seaplane Base","elevation_ft":"0","continent":"NA","iso_country":"US","iso_region":"US-AK","municipality":"Chomley","scheduled_service":"no","iata_code":"CIV"},"geometry":{"type":"Point","coordinates":[-132.21,55.217]}},{"id":"528831","type":"Feature","properties":{"ident":"FR-0753","type":"seaplane_base","name":"Chouzy sur Cisse Hydro base","elevation_ft":"197","continent":"EU","iso_country":"FR","iso_region":"FR-CVL","scheduled_service":"no","local_code":"LF4158","home_link":"https://www.aildor.fr/"},"geometry":{"type":"Point","coordinates":[1.238056,47.498889]}},{"id":"6990","type":"Feature","properties":{"ident":"08MN","type":"seaplane_base","name":"Christenson Point Seaplane Base","elevation_ft":"1372","continent":"NA","iso_country":"US","iso_region":"US-MN","municipality":"Chisholm/Hibbing","scheduled_service":"no","gps_code":"08MN","local_code":"08MN"},"geometry":{"type":"Point","coordinates":[-93.054398,47.669399]}},{"id":"45246","type":"Feature","properties":{"ident":"AK8","type":"seaplane_base","name":"Christiansen Lake Seaplane Base","elevation_ft":"400","continent":"NA","iso_country":"US","iso_region":"US-AK","municipality":"Talkeetna","scheduled_service":"no","gps_code":"AK8","local_code":"AK8"},"geometry":{"type":"Point","coordinates":[-150.06935,62.313414]}},{"id":"25496","type":"Feature","properties":{"ident":"VI32","type":"seaplane_base","name":"Christiansted Harbor Seaplane Base","continent":"NA","iso_country":"VI","iso_region":"VI-U-A","municipality":"Christiansted St Croix","scheduled_service":"yes","gps_code":"VI32","iata_code":"SSB","local_code":"VI32","wikipedia_link":"https://en.wikipedia.org/wiki/Christiansted_Harbor_Seaplane_Base"},"geometry":{"type":"Point","coordinates":[-64.704903,17.7472]}},{"id":"28193","type":"Feature","properties":{"ident":"CHL3","type":"seaplane_base","name":"Church Lake Seaplane Base","elevation_ft":"280","continent":"NA","iso_country":"CA","iso_region":"CA-NS","scheduled_service":"no","gps_code":"CHL3","local_code":"CHL3","wikipedia_link":"https://en.wikipedia.org/wiki/Church_Lake_Water_Aerodrome"},"geometry":{"type":"Point","coordinates":[-64.612198,44.559399]}},{"id":"28192","type":"Feature","properties":{"ident":"CJJ7","type":"seaplane_base","name":"Churchill Seaplane Base","elevation_ft":"46","continent":"NA","iso_country":"CA","iso_region":"CA-MB","municipality":"Churchill","scheduled_service":"no","gps_code":"CJJ7","local_code":"CJJ7","wikipedia_link":"https://en.wikipedia.org/wiki/Churchill_Water_Aerodrome","keywords":"JJ7"},"geometry":{"type":"Point","coordinates":[-94.050004,58.700004]}},{"id":"28194","type":"Feature","properties":{"ident":"CTM3","type":"seaplane_base","name":"Chute-Des-Passes/Lac Margane Seaplane Base","elevation_ft":"1310","continent":"NA","iso_country":"CA","iso_region":"CA-QC","municipality":"Chutes-des-Passes","scheduled_service":"no","gps_code":"CTM3","iata_code":"YWQ","local_code":"CTM3","wikipedia_link":"https://en.wikipedia.org/wiki/Chutes-des-Passes/Lac_Margane_Water_Aerodrome"},"geometry":{"type":"Point","coordinates":[-71.138,49.9434]}},{"id":"316114","type":"Feature","properties":{"ident":"CA-0554","type":"seaplane_base","name":"Clarence Lagoon Water Aerodrome","elevation_ft":"0","continent":"NA","iso_country":"CA","iso_region":"CA-YT","scheduled_service":"no","local_code":"EC7"},"geometry":{"type":"Point","coordinates":[-140.81,69.62]}},{"id":"12411","type":"Feature","properties":{"ident":"5IN7","type":"seaplane_base","name":"Clear Lake Seaplane Base","elevation_ft":"1037","continent":"NA","iso_country":"US","iso_region":"US-IN","municipality":"Clear Lake","scheduled_service":"no","gps_code":"57P","local_code":"57P","keywords":"5IN7"},"geometry":{"type":"Point","coordinates":[-84.837196,41.7356]}},{"id":"511645","type":"Feature","properties":{"ident":"CCW6","type":"seaplane_base","name":"Clearwater Lake Seaplane Base","elevation_ft":"820","continent":"NA","iso_country":"CA","iso_region":"CA-ON","municipality":"Washago","scheduled_service":"no","gps_code":"CCW6","local_code":"CCW6"},"geometry":{"type":"Point","coordinates":[-79.242,44.8018]}},{"id":"335861","type":"Feature","properties":{"ident":"US-1519","type":"seaplane_base","name":"Clearwater Marriott Seaplane Base","elevation_ft":"1","continent":"NA","iso_country":"US","iso_region":"US-FL","municipality":"Clearwater","scheduled_service":"no","gps_code":"1FD2","local_code":"1FD2"},"geometry":{"type":"Point","coordinates":[-82.828299,27.952748]}},{"id":"327086","type":"Feature","properties":{"ident":"US-0845","type":"seaplane_base","name":"Clearwater Seaplane Base","elevation_ft":"1277","continent":"NA","iso_country":"US","iso_region":"US-MN","municipality":"Leonard","scheduled_service":"no","gps_code":"21MN","local_code":"21MN"},"geometry":{"type":"Point","coordinates":[-95.204433,47.734533]}},{"id":"321919","type":"Feature","properties":{"ident":"00NK","type":"seaplane_base","name":"Cliche Cove Seaplane Base","elevation_ft":"96","continent":"NA","iso_country":"US","iso_region":"US-NY","municipality":"Beekmantown","scheduled_service":"no","gps_code":"00NK","local_code":"00NK"},"geometry":{"type":"Point","coordinates":[-73.369806,44.811861]}},{"id":"352216","type":"Feature","properties":{"ident":"US-6410","type":"seaplane_base","name":"Clifford Lake Seaplane Base","elevation_ft":"890","continent":"NA","iso_country":"US","iso_region":"US-MI","municipality":"Stanton","scheduled_service":"no","local_code":"22C"},"geometry":{"type":"Point","coordinates":[-85.185314,43.305026]}},{"id":"28195","type":"Feature","properties":{"ident":"CST6","type":"seaplane_base","name":"Clova/Lac Duchamp Seaplane Base","elevation_ft":"1375","continent":"NA","iso_country":"CA","iso_region":"CA-QC","scheduled_service":"no","gps_code":"CST6","local_code":"CST6","wikipedia_link":"https://en.wikipedia.org/wiki/Clova/Lac_Duchamp_Water_Aerodrome"},"geometry":{"type":"Point","coordinates":[-75.365799,48.110001]}},{"id":"349148","type":"Feature","properties":{"ident":"US-5612","type":"seaplane_base","name":"Clovelly Farms Seaplane Base","continent":"NA","iso_country":"US","iso_region":"US-LA","municipality":"Cut Off","scheduled_service":"no"},"geometry":{"type":"Point","coordinates":[-90.27527,29.55333]}},{"id":"28196","type":"Feature","properties":{"ident":"CAQ3","type":"seaplane_base","name":"Coal Harbour Seaplane Base","elevation_ft":"0","continent":"NA","iso_country":"CA","iso_region":"CA-BC","municipality":"Coal Harbour","scheduled_service":"no","gps_code":"CAQ3","local_code":"CAQ3","wikipedia_link":"https://en.wikipedia.org/wiki/Coal_Harbour_Water_Aerodrome","keywords":"AQ3"},"geometry":{"type":"Point","coordinates":[-127.57865,50.597378]}},{"id":"45522","type":"Feature","properties":{"ident":"35NH","type":"seaplane_base","name":"Cobbetts Pond Seaplane Base","elevation_ft":"177","continent":"NA","iso_country":"US","iso_region":"US-NH","municipality":"Windham","scheduled_service":"no","gps_code":"35NH","local_code":"35NH"},"geometry":{"type":"Point","coordinates":[-71.275853,42.806914]}},{"id":"28197","type":"Feature","properties":{"ident":"CNN5","type":"seaplane_base","name":"Cochrane Seaplane Base","elevation_ft":"807","continent":"NA","iso_country":"CA","iso_region":"CA-ON","scheduled_service":"no","gps_code":"CNN5","local_code":"CNN5","wikipedia_link":"https://en.wikipedia.org/wiki/Cochrane_Water_Aerodrome"},"geometry":{"type":"Point","coordinates":[-81.033302,49.109699]}},{"id":"19466","type":"Feature","properties":{"ident":"KCC","type":"seaplane_base","name":"Coffman Cove Seaplane Base","continent":"NA","iso_country":"US","iso_region":"US-AK","municipality":"Coffman Cove","scheduled_service":"yes","gps_code":"KCC","iata_code":"KCC","local_code":"KCC","wikipedia_link":"https://en.wikipedia.org/wiki/Coffman_Cove_Seaplane_Base"},"geometry":{"type":"Point","coordinates":[-132.835093,56.012586]}},{"id":"11029","type":"Feature","properties":{"ident":"43FD","type":"seaplane_base","name":"Cole's Seaplane Base","elevation_ft":"53","continent":"NA","iso_country":"US","iso_region":"US-FL","municipality":"Kissimmee","scheduled_service":"no","gps_code":"43FD","local_code":"43FD"},"geometry":{"type":"Point","coordinates":[-81.385705,28.28773]}},{"id":"28198","type":"Feature","properties":{"ident":"CED7","type":"seaplane_base","name":"Colville Lake Seaplane Base","elevation_ft":"801","continent":"NA","iso_country":"CA","iso_region":"CA-NT","municipality":"Colville Lake","scheduled_service":"no","gps_code":"CED7","local_code":"CED7","wikipedia_link":"https://en.wikipedia.org/wiki/Colville_Lake_Water_Aerodrome","keywords":"ED7"},"geometry":{"type":"Point","coordinates":[-126.099998,67.050003]}},{"id":"8877","type":"Feature","properties":{"ident":"22CA","type":"seaplane_base","name":"Commodore Center Seaplane Base","continent":"NA","iso_country":"US","iso_region":"US-CA","municipality":"Mill Valley","scheduled_service":"no","gps_code":"22CA","local_code":"22CA"},"geometry":{"type":"Point","coordinates":[-122.512697,37.878893]}},{"id":"44003","type":"Feature","properties":{"ident":"LILY","type":"seaplane_base","name":"Como (Idroscalo - Water Ad) Hidroport","elevation_ft":"663","continent":"EU","iso_country":"IT","iso_region":"IT-25","municipality":"Como (CO)","scheduled_service":"no","gps_code":"LILY","local_code":"CO02","wikipedia_link":"https://it.wikipedia.org/wiki/Idroscalo_internazionale_di_Como"},"geometry":{"type":"Point","coordinates":[9.06972,45.814701]}},{"id":"28200","type":"Feature","properties":{"ident":"CCX6","type":"seaplane_base","name":"Comox Seaplane Base","elevation_ft":"0","continent":"NA","iso_country":"CA","iso_region":"CA-BC","municipality":"Comox","scheduled_service":"yes","gps_code":"CCX6","local_code":"CCX6","wikipedia_link":"https://en.wikipedia.org/wiki/Comox_Water_Aerodrome","keywords":"AL6"},"geometry":{"type":"Point","coordinates":[-124.932999,49.670601]}},{"id":"17165","type":"Feature","properties":{"ident":"E61","type":"seaplane_base","name":"Conchas Lake Seaplane Base","elevation_ft":"4201","continent":"NA","iso_country":"US","iso_region":"US-NM","municipality":"Conchas Dam","scheduled_service":"no","gps_code":"E61","local_code":"E61","wikipedia_link":"https://en.wikipedia.org/wiki/Conchas_Lake_Seaplane_Base"},"geometry":{"type":"Point","coordinates":[-104.216003,35.384201]}},{"id":"28201","type":"Feature","properties":{"ident":"CJL7","type":"seaplane_base","name":"Confederation Lake Seaplane Base","elevation_ft":"1323","continent":"NA","iso_country":"CA","iso_region":"CA-ON","scheduled_service":"no","gps_code":"CJL7","local_code":"CJL7","wikipedia_link":"https://en.wikipedia.org/wiki/Confederation_Lake_Water_Aerodrome"},"geometry":{"type":"Point","coordinates":[-92.833298,51.049999]}},{"id":"28202","type":"Feature","properties":{"ident":"CCR8","type":"seaplane_base","name":"Conne River Seaplane Base","elevation_ft":"350","continent":"NA","iso_country":"CA","iso_region":"CA-NL","scheduled_service":"no","gps_code":"CCR8","local_code":"CCR8","wikipedia_link":"https://en.wikipedia.org/wiki/Conne_River_Water_Aerodrome"},"geometry":{"type":"Point","coordinates":[-55.577801,47.924999]}},{"id":"28203","type":"Feature","properties":{"ident":"CNQ5","type":"seaplane_base","name":"Constance Lake Seaplane Base","elevation_ft":"196","continent":"NA","iso_country":"CA","iso_region":"CA-ON","municipality":"Ottawa","scheduled_service":"no","gps_code":"CNQ5","local_code":"CNQ5","wikipedia_link":"https://en.wikipedia.org/wiki/Constance_Lake_Water_Aerodrome"},"geometry":{"type":"Point","coordinates":[-75.975601,45.402802]}},{"id":"21945","type":"Feature","properties":{"ident":"ME11","type":"seaplane_base","name":"Cooper Seaplane Base","elevation_ft":"373","continent":"NA","iso_country":"US","iso_region":"US-ME","municipality":"Hartford","scheduled_service":"no","gps_code":"ME11","local_code":"ME11"},"geometry":{"type":"Point","coordinates":[-70.287804,44.3423]}},{"id":"315831","type":"Feature","properties":{"ident":"YCF","type":"seaplane_base","name":"Cortes Bay Water Aerodrome","continent":"NA","iso_country":"CA","iso_region":"CA-BC","municipality":"Cortes Bay","scheduled_service":"no","iata_code":"YCF","keywords":"AM6"},"geometry":{"type":"Point","coordinates":[-124.930002,50.063]}},{"id":"10482","type":"Feature","properties":{"ident":"3H3","type":"seaplane_base","name":"Cottonwood Lake Seaplane Base","elevation_ft":"300","continent":"NA","iso_country":"US","iso_region":"US-AK","municipality":"Wasilla","scheduled_service":"no","gps_code":"3H3","local_code":"3H3"},"geometry":{"type":"Point","coordinates":[-149.315994,61.597599]}},{"id":"23986","type":"Feature","properties":{"ident":"PA15","type":"seaplane_base","name":"Couillard Seaplane Base","elevation_ft":"210","continent":"NA","iso_country":"US","iso_region":"US-PA","municipality":"Martins Creek","scheduled_service":"no","gps_code":"PA15","local_code":"PA15"},"geometry":{"type":"Point","coordinates":[-75.141403,40.775002]}},{"id":"28204","type":"Feature","properties":{"ident":"CBG9","type":"seaplane_base","name":"Courtenay Airpark Seaplane Base","continent":"NA","iso_country":"CA","iso_region":"CA-BC","scheduled_service":"no","gps_code":"CBG9","local_code":"CBG9","wikipedia_link":"https://en.wikipedia.org/wiki/Courtenay_Airpark_Water_Aerodrome"},"geometry":{"type":"Point","coordinates":[-124.981003,49.6814]}},{"id":"45469","type":"Feature","properties":{"ident":"7MA2","type":"seaplane_base","name":"Craig Cove Seaplane Base","elevation_ft":"53","continent":"NA","iso_country":"US","iso_region":"US-MA","municipality":"East Freetown","scheduled_service":"no","gps_code":"7MA2","local_code":"7MA2"},"geometry":{"type":"Point","coordinates":[-70.947222,41.780556]}},{"id":"16712","type":"Feature","properties":{"ident":"CGA","type":"seaplane_base","name":"Craig Seaplane Base","continent":"NA","iso_country":"US","iso_region":"US-AK","municipality":"Craig","scheduled_service":"yes","gps_code":"CGA","iata_code":"CGA","local_code":"CGA","wikipedia_link":"https://en.wikipedia.org/wiki/Craig_Seaplane_Base"},"geometry":{"type":"Point","coordinates":[-133.147995,55.478802]}},{"id":"25861","type":"Feature","properties":{"ident":"WN66","type":"seaplane_base","name":"Cranberry International Seaplane Base","elevation_ft":"1605","continent":"NA","iso_country":"US","iso_region":"US-WI","municipality":"Eagle River","scheduled_service":"no","gps_code":"WN66","local_code":"WN66"},"geometry":{"type":"Point","coordinates":[-89.451202,45.851299]}},{"id":"315836","type":"Feature","properties":{"ident":"CA-0550","type":"seaplane_base","name":"Cree Lake (Crystal Lodge) Water Aerodrome","elevation_ft":"1593","continent":"NA","iso_country":"CA","iso_region":"CA-SK","municipality":"Crystal Lodge","scheduled_service":"no","gps_code":"CRE4","local_code":"CRE4","home_link":"http://www.creelake.com/map-and-flight.html","wikipedia_link":"https://en.wikipedia.org/wiki/Cree_Lake_(Crystal_Lodge)_Water_Aerodrome","keywords":"RE4"},"geometry":{"type":"Point","coordinates":[-106.7528,57.4616]}},{"id":"21937","type":"Feature","properties":{"ident":"ME01","type":"seaplane_base","name":"Crescent Lake Seaplane Base","elevation_ft":"278","continent":"NA","iso_country":"US","iso_region":"US-ME","municipality":"East Raymond","scheduled_service":"no","gps_code":"ME01","local_code":"ME01"},"geometry":{"type":"Point","coordinates":[-70.462601,43.957001]}},{"id":"12412","type":"Feature","properties":{"ident":"5IN8","type":"seaplane_base","name":"Crooked Lake Seaplane Base","elevation_ft":"989","continent":"NA","iso_country":"US","iso_region":"US-IN","municipality":"Angola","scheduled_service":"no","local_code":"I58","keywords":"5IN8, Q58"},"geometry":{"type":"Point","coordinates":[-85.041395,41.672401]}},{"id":"309465","type":"Feature","properties":{"ident":"SJF","type":"seaplane_base","name":"Cruz Bay Seaplane Base","elevation_ft":"0","continent":"NA","iso_country":"VI","iso_region":"VI-U-A","municipality":"Saint John Island","scheduled_service":"no","iata_code":"SJF"},"geometry":{"type":"Point","coordinates":[-64.796,18.3315]}},{"id":"22117","type":"Feature","properties":{"ident":"MN09","type":"seaplane_base","name":"Crystal Lake Seaplane Base","elevation_ft":"935","continent":"NA","iso_country":"US","iso_region":"US-MN","municipality":"Burnsville","scheduled_service":"no","gps_code":"MN09","local_code":"MN09","keywords":"Apple Valley"},"geometry":{"type":"Point","coordinates":[-93.266899,44.722198]}},{"id":"45867","type":"Feature","properties":{"ident":"48VT","type":"seaplane_base","name":"Cub Cove Seaplane Base","elevation_ft":"95","continent":"NA","iso_country":"US","iso_region":"US-VT","municipality":"Colchester","scheduled_service":"no","gps_code":"48VT","local_code":"48VT"},"geometry":{"type":"Point","coordinates":[-73.231497,44.553547]}},{"id":"509419","type":"Feature","properties":{"ident":"CCB7","type":"seaplane_base","name":"Cumberland Bay Water Aerodrome","elevation_ft":"350","continent":"NA","iso_country":"CA","iso_region":"CA-NB","municipality":"Bracebridge","scheduled_service":"no","gps_code":"CCB7","local_code":"CCB7","wikipedia_link":"https://en.wikipedia.org/wiki/Cumberland_Bay_Water_Aerodrome"},"geometry":{"type":"Point","coordinates":[-65.9062,46.0063]}},{"id":"8842","type":"Feature","properties":{"ident":"21M","type":"seaplane_base","name":"Currier's Seaplane Base","elevation_ft":"1028","continent":"NA","iso_country":"US","iso_region":"US-ME","municipality":"Greenville Junction","scheduled_service":"no","gps_code":"21M","local_code":"21M"},"geometry":{"type":"Point","coordinates":[-69.619499,45.462502]}},{"id":"28205","type":"Feature","properties":{"ident":"CJT7","type":"seaplane_base","name":"Cushing Lake Seaplane Base","elevation_ft":"1500","continent":"NA","iso_country":"CA","iso_region":"CA-ON","scheduled_service":"no","gps_code":"CJT7","local_code":"CJT7"},"geometry":{"type":"Point","coordinates":[-90.508598,48.944199]}},{"id":"347702","type":"Feature","properties":{"ident":"US-5169","type":"seaplane_base","name":"Cutfoot Sioux Seaplane Base","elevation_ft":"1297","continent":"NA","iso_country":"US","iso_region":"US-MN","municipality":"Deer River","scheduled_service":"no","gps_code":"06MN","local_code":"06MN"},"geometry":{"type":"Point","coordinates":[-94.086439,47.516522]}},{"id":"13364","type":"Feature","properties":{"ident":"6MA9","type":"seaplane_base","name":"Cuttyhunk Harbor Seaplane Base","elevation_ft":"0","continent":"NA","iso_country":"US","iso_region":"US-MA","municipality":"Cuttyhunk","scheduled_service":"no","gps_code":"6MA9","local_code":"6MA9"},"geometry":{"type":"Point","coordinates":[-70.927298,41.423199]}},{"id":"17085","type":"Feature","properties":{"ident":"D72","type":"seaplane_base","name":"D&C Fire Lake Flying Club Seaplane Base","elevation_ft":"295","continent":"NA","iso_country":"US","iso_region":"US-AK","municipality":"Eagle River","scheduled_service":"no","gps_code":"D72","local_code":"D72"},"geometry":{"type":"Point","coordinates":[-149.546005,61.352501]}},{"id":"509596","type":"Feature","properties":{"ident":"US-7833","type":"seaplane_base","name":"Dallas Lake Seaplane Base","elevation_ft":"900","continent":"NA","iso_country":"US","iso_region":"US-IN","municipality":"LaGrange","scheduled_service":"no","gps_code":"I01","local_code":"I01"},"geometry":{"type":"Point","coordinates":[-85.424183,41.550158]}},{"id":"312783","type":"Feature","properties":{"ident":"DBU","type":"seaplane_base","name":"Dambulu Oya Tank Seaplane Base","elevation_ft":"535","continent":"AS","iso_country":"LK","iso_region":"LK-2","municipality":"Dambulla","scheduled_service":"no","iata_code":"DBU","keywords":"Ibbankatuwa Tank Waterdrome"},"geometry":{"type":"Point","coordinates":[80.6304,7.8604]}},{"id":"526675","type":"Feature","properties":{"ident":"US-8468","type":"seaplane_base","name":"Dandridge Seaplane Base","elevation_ft":"962","continent":"NA","iso_country":"US","iso_region":"US-TN","municipality":"Dandridge","scheduled_service":"no","gps_code":"TN47","local_code":"TN47"},"geometry":{"type":"Point","coordinates":[-83.391573,36.019608]}},{"id":"317274","type":"Feature","properties":{"ident":"DGM","type":"seaplane_base","name":"Dandugama Seaplane Base","elevation_ft":"0","continent":"AS","iso_country":"LK","iso_region":"LK-1","municipality":"Colombo","scheduled_service":"no","iata_code":"DGM"},"geometry":{"type":"Point","coordinates":[79.8721,7.1079]}},{"id":"22487","type":"Feature","properties":{"ident":"MT92","type":"seaplane_base","name":"Dave's Landing Seaplane Base","elevation_ft":"2395","continent":"NA","iso_country":"US","iso_region":"US-MT","municipality":"Thompson Falls","scheduled_service":"no","gps_code":"MT92","local_code":"MT92"},"geometry":{"type":"Point","coordinates":[-115.336998,47.590302]}},{"id":"28206","type":"Feature","properties":{"ident":"CEG7","type":"seaplane_base","name":"Dawson City Seaplane Base","elevation_ft":"1050","continent":"NA","iso_country":"CA","iso_region":"CA-YT","municipality":"Dawson City","scheduled_service":"no","wikipedia_link":"https://en.wikipedia.org/wiki/Dawson_City_Water_Aerodrome","keywords":"EG7, CEG7"},"geometry":{"type":"Point","coordinates":[-139.432999,64.066704]}},{"id":"15058","type":"Feature","properties":{"ident":"8NA1","type":"seaplane_base","name":"Deep River Seaplane Base","elevation_ft":"1420","continent":"NA","iso_country":"US","iso_region":"US-ND","municipality":"Upham","scheduled_service":"no","gps_code":"8NA1","local_code":"8NA1"},"geometry":{"type":"Point","coordinates":[-100.782997,48.622799]}},{"id":"353917","type":"Feature","properties":{"ident":"US-6793","type":"seaplane_base","name":"Deep Water Cove Seaplane Base","elevation_ft":"315","continent":"NA","iso_country":"US","iso_region":"US-TX","municipality":"Corsicana","scheduled_service":"no","gps_code":"TS70","local_code":"TS70"},"geometry":{"type":"Point","coordinates":[-96.216936,31.9874]}},{"id":"300321","type":"Feature","properties":{"ident":"DHB","type":"seaplane_base","name":"Deer Harbor SPB","elevation_ft":"0","continent":"NA","iso_country":"US","iso_region":"US-WA","municipality":"Deer Harbor","scheduled_service":"yes","gps_code":"88WA","iata_code":"DHB","local_code":"88WA","wikipedia_link":"https://en.wikipedia.org/wiki/Deer_Harbor_Sea_Plane_Base","keywords":"42W"},"geometry":{"type":"Point","coordinates":[-123.002778,48.616667]}},{"id":"28209","type":"Feature","properties":{"ident":"CJZ7","type":"seaplane_base","name":"Deer Lake/Keyamawun Seaplane Base","elevation_ft":"1017","continent":"NA","iso_country":"CA","iso_region":"CA-ON","scheduled_service":"no","gps_code":"CJZ7","local_code":"CJZ7"},"geometry":{"type":"Point","coordinates":[-94.416702,52.666698]}},{"id":"24172","type":"Feature","properties":{"ident":"PN65","type":"seaplane_base","name":"Deer Lakes Seaplane Base","elevation_ft":"745","continent":"NA","iso_country":"US","iso_region":"US-PA","municipality":"Natrona Hgts","scheduled_service":"no","gps_code":"PN65","local_code":"PN65"},"geometry":{"type":"Point","coordinates":[-79.693604,40.639198]}},{"id":"28210","type":"Feature","properties":{"ident":"CEN7","type":"seaplane_base","name":"Deliné Seaplane Base","elevation_ft":"512","continent":"NA","iso_country":"CA","iso_region":"CA-NT","municipality":"Deliné","scheduled_service":"no","gps_code":"CEN7","local_code":"CEN7","wikipedia_link":"https://en.wikipedia.org/wiki/D%C3%A9line_Water_Aerodrome","keywords":"EN7, Fort Franklin Water Aerodrome"},"geometry":{"type":"Point","coordinates":[-123.417,65.183299]}},{"id":"14159","type":"Feature","properties":{"ident":"7IN8","type":"seaplane_base","name":"Dewart Lake Seaplane Base","elevation_ft":"865","continent":"NA","iso_country":"US","iso_region":"US-IN","municipality":"Warsaw","scheduled_service":"no","local_code":"99D","keywords":"7IN8"},"geometry":{"type":"Point","coordinates":[-85.772778,41.371946]}},{"id":"7748","type":"Feature","properties":{"ident":"11WN","type":"seaplane_base","name":"Diedrich Seaplane Base","elevation_ft":"774","continent":"NA","iso_country":"US","iso_region":"US-WI","municipality":"Lodi","scheduled_service":"no","gps_code":"11WN","local_code":"11WN"},"geometry":{"type":"Point","coordinates":[-89.571198,43.354198]}},{"id":"21783","type":"Feature","properties":{"ident":"MA40","type":"seaplane_base","name":"Diesel Dogs Seaplane Base","elevation_ft":"325","continent":"NA","iso_country":"US","iso_region":"US-MA","municipality":"Gardner","scheduled_service":"no","gps_code":"MA40","local_code":"MA40"},"geometry":{"type":"Point","coordinates":[-71.968399,42.5434]}},{"id":"6946","type":"Feature","properties":{"ident":"07NH","type":"seaplane_base","name":"Diving Rock Seaplane Base","elevation_ft":"1404","continent":"NA","iso_country":"US","iso_region":"US-NH","municipality":"Washington","scheduled_service":"no","gps_code":"07NH","local_code":"07NH"},"geometry":{"type":"Point","coordinates":[-72.063904,43.175598]}},{"id":"318125","type":"Feature","properties":{"ident":"DWO","type":"seaplane_base","name":"Diyawanna Oya Seaplane Base","elevation_ft":"10","continent":"AS","iso_country":"LK","iso_region":"LK-1","municipality":"Sri Jayawardenepura Kotte","scheduled_service":"yes","iata_code":"DWO","keywords":"Waters Edge"},"geometry":{"type":"Point","coordinates":[79.909,6.906585]}},{"id":"320832","type":"Feature","properties":{"ident":"CDL6","type":"seaplane_base","name":"Doctor's Lake West Water Aerodrome","elevation_ft":"13","continent":"NA","iso_country":"CA","iso_region":"CA-NS","municipality":"Lakeside","scheduled_service":"no","gps_code":"CDL6","local_code":"CDL6","wikipedia_link":"https://en.wikipedia.org/wiki/Doctor%27s_Lake_West_Water_Aerodrome"},"geometry":{"type":"Point","coordinates":[-66.1028,43.8836]}},{"id":"12860","type":"Feature","properties":{"ident":"62FD","type":"seaplane_base","name":"Doctors Lake Seaplane Base","continent":"NA","iso_country":"US","iso_region":"US-FL","municipality":"Orange Park","scheduled_service":"no","gps_code":"62FD","local_code":"62FD"},"geometry":{"type":"Point","coordinates":[-81.744202,30.125299]}},{"id":"320831","type":"Feature","properties":{"ident":"CDL5","type":"seaplane_base","name":"Doctor’s Lake East Water Aerodrome","elevation_ft":"13","continent":"NA","iso_country":"CA","iso_region":"CA-NS","municipality":"Hebron","scheduled_service":"no","gps_code":"CDL5","local_code":"CDL5","wikipedia_link":"https://en.wikipedia.org/wiki/Doctor%27s_Lake_East_Water_Aerodrome"},"geometry":{"type":"Point","coordinates":[-66.0975,43.8817]}},{"id":"28211","type":"Feature","properties":{"ident":"CNK5","type":"seaplane_base","name":"Dorset/Kawagama Lake (Old Mill Marina) Seaplane Base","elevation_ft":"1165","continent":"NA","iso_country":"CA","iso_region":"CA-ON","scheduled_service":"no","gps_code":"CNK5","local_code":"CNK5"},"geometry":{"type":"Point","coordinates":[-78.808296,45.266701]}},{"id":"321912","type":"Feature","properties":{"ident":"CDK3","type":"seaplane_base","name":"Dorset/Kawagama Lake (South) Seaplane Base","elevation_ft":"1165","continent":"NA","iso_country":"CA","iso_region":"CA-ON","municipality":"Dorset","scheduled_service":"no","gps_code":"CDK3","local_code":"CDK3","wikipedia_link":"https://en.wikipedia.org/wiki/Dorset/Kawagama_Lake_(South)_Water_Aerodrome"},"geometry":{"type":"Point","coordinates":[-78.7922,45.2638]}},{"id":"21958","type":"Feature","properties":{"ident":"ME27","type":"seaplane_base","name":"Double A Seaplane Base","elevation_ft":"115","continent":"NA","iso_country":"US","iso_region":"US-ME","municipality":"Glenburn","scheduled_service":"no","gps_code":"ME27","local_code":"ME27"},"geometry":{"type":"Point","coordinates":[-68.802299,44.900902]}},{"id":"21977","type":"Feature","properties":{"ident":"ME51","type":"seaplane_base","name":"Douglass Seaplane Base","elevation_ft":"270","continent":"NA","iso_country":"US","iso_region":"US-ME","municipality":"Standish","scheduled_service":"no","gps_code":"ME51","local_code":"ME51"},"geometry":{"type":"Point","coordinates":[-70.610603,43.737]}},{"id":"313161","type":"Feature","properties":{"ident":"AA12","type":"seaplane_base","name":"Dove Island Lodge Seaplane Base","elevation_ft":"0","continent":"NA","iso_country":"US","iso_region":"US-AK","municipality":"Sitka","scheduled_service":"no","gps_code":"AA12","local_code":"AA12"},"geometry":{"type":"Point","coordinates":[-135.295556,57.040833]}},{"id":"343543","type":"Feature","properties":{"ident":"MV-0006","type":"seaplane_base","name":"Dreamland Maldives Seaplane Base","continent":"AS","iso_country":"MV","iso_region":"MV-20","municipality":"Hirundhoo","scheduled_service":"no","keywords":"Hirundhoo, Hirundu"},"geometry":{"type":"Point","coordinates":[73.15481,5.21786]}},{"id":"301252","type":"Feature","properties":{"ident":"D22","type":"seaplane_base","name":"Drummond Island / Yacht Haven SPB","elevation_ft":"581","continent":"NA","iso_country":"US","iso_region":"US-MI","scheduled_service":"no","gps_code":"D22"},"geometry":{"type":"Point","coordinates":[-83.752513,46.024794]}},{"id":"28212","type":"Feature","properties":{"ident":"CSA7","type":"seaplane_base","name":"Drummondville Seaplane Base","elevation_ft":"320","continent":"NA","iso_country":"CA","iso_region":"CA-QC","municipality":"Drummondville","scheduled_service":"no","gps_code":"CSA7","local_code":"CSA7","wikipedia_link":"https://en.wikipedia.org/wiki/Drummondville_Water_Aerodrome","keywords":"SA7"},"geometry":{"type":"Point","coordinates":[-72.389395,45.854401]}},{"id":"21999","type":"Feature","properties":{"ident":"ME80","type":"seaplane_base","name":"Dry Pond Seaplane Base","elevation_ft":"309","continent":"NA","iso_country":"US","iso_region":"US-ME","municipality":"Gray","scheduled_service":"no","gps_code":"ME80","local_code":"ME80"},"geometry":{"type":"Point","coordinates":[-70.3564,43.933899]}},{"id":"335116","type":"Feature","properties":{"ident":"US-1493","type":"seaplane_base","name":"Dry Tortugas Seaplane Base","continent":"NA","iso_country":"US","iso_region":"US-FL","municipality":"Key West","scheduled_service":"no","home_link":"https://keywestseaplanecharters.com/"},"geometry":{"type":"Point","coordinates":[-82.871925,24.626836]}},{"id":"28213","type":"Feature","properties":{"ident":"CJD8","type":"seaplane_base","name":"Dryden Seaplane Base","elevation_ft":"1208","continent":"NA","iso_country":"CA","iso_region":"CA-ON","municipality":"Dryden","scheduled_service":"no","gps_code":"CJD8","local_code":"CJD8","wikipedia_link":"https://en.wikipedia.org/wiki/Dryden_Water_Aerodrome","keywords":"JD8"},"geometry":{"type":"Point","coordinates":[-92.830315,49.762876]}},{"id":"300319","type":"Feature","properties":{"ident":"DCG","type":"seaplane_base","name":"Dubai Creek SPB","continent":"AS","iso_country":"AE","iso_region":"AE-DU","municipality":"Dubai","scheduled_service":"no","iata_code":"DCG"},"geometry":{"type":"Point","coordinates":[55.331389,25.242222]}},{"id":"44655","type":"Feature","properties":{"ident":"RU-0188","type":"seaplane_base","name":"Dubna Seaplane Base","continent":"EU","iso_country":"RU","iso_region":"RU-MOS","municipality":"Dubna","scheduled_service":"no","keywords":"Гидроаэродром Дубна"},"geometry":{"type":"Point","coordinates":[37.055,56.715]}},{"id":"508583","type":"Feature","properties":{"ident":"CDS5","type":"seaplane_base","name":"Dunsford Seaplane Base","elevation_ft":"812","continent":"NA","iso_country":"CA","iso_region":"CA-ON","scheduled_service":"no","gps_code":"CDS5","local_code":"CDS5"},"geometry":{"type":"Point","coordinates":[-78.618,44.502]}},{"id":"315621","type":"Feature","properties":{"ident":"DBK","type":"seaplane_base","name":"Dutch Bay SPB","elevation_ft":"0","continent":"AS","iso_country":"LK","iso_region":"LK-6","municipality":"Kalpitiya Island","scheduled_service":"no","iata_code":"DBK"},"geometry":{"type":"Point","coordinates":[79.756,8.273]}},{"id":"14960","type":"Feature","properties":{"ident":"8IL7","type":"seaplane_base","name":"Dutch Creek Seaplane Base","elevation_ft":"737","continent":"NA","iso_country":"US","iso_region":"US-IL","municipality":"Mc Henry","scheduled_service":"no","gps_code":"8IL7","local_code":"8IL7"},"geometry":{"type":"Point","coordinates":[-88.247002,42.371101]}},{"id":"349274","type":"Feature","properties":{"ident":"US-5626","type":"seaplane_base","name":"E-5 Tank Battery Seaplane Base","continent":"NA","iso_country":"US","iso_region":"US-LA","municipality":"Venice","scheduled_service":"no"},"geometry":{"type":"Point","coordinates":[-89.36027,28.98399]}},{"id":"12453","type":"Feature","properties":{"ident":"5LA6","type":"seaplane_base","name":"E-8 Tank Battery Seaplane Base","continent":"NA","iso_country":"US","iso_region":"US-LA","municipality":"Venice","scheduled_service":"no","gps_code":"5LA6","local_code":"5LA6"},"geometry":{"type":"Point","coordinates":[-89.387802,28.950199]}},{"id":"23442","type":"Feature","properties":{"ident":"NY61","type":"seaplane_base","name":"Eagle Nest Seaplane Base","elevation_ft":"1790","continent":"NA","iso_country":"US","iso_region":"US-NY","municipality":"Blue Mountain Lake","scheduled_service":"no","gps_code":"NY61","local_code":"NY61"},"geometry":{"type":"Point","coordinates":[-74.495399,43.8298]}},{"id":"326974","type":"Feature","properties":{"ident":"US-0843","type":"seaplane_base","name":"Eagles Nest 4 Seaplane Base","elevation_ft":"1496","continent":"NA","iso_country":"US","iso_region":"US-MN","municipality":"Ely","scheduled_service":"no","gps_code":"73MN","local_code":"73MN"},"geometry":{"type":"Point","coordinates":[-92.061058,47.830927]}},{"id":"14237","type":"Feature","properties":{"ident":"7MN2","type":"seaplane_base","name":"Eagles Nest Seaplane Base","elevation_ft":"1490","continent":"NA","iso_country":"US","iso_region":"US-MN","municipality":"Tower","scheduled_service":"no","gps_code":"7MN2","local_code":"7MN2"},"geometry":{"type":"Point","coordinates":[-92.099701,47.828499]}},{"id":"28214","type":"Feature","properties":{"ident":"CJE8","type":"seaplane_base","name":"Ear Falls Seaplane Base","elevation_ft":"1171","continent":"NA","iso_country":"CA","iso_region":"CA-ON","scheduled_service":"no","gps_code":"CJE8","local_code":"CJE8","wikipedia_link":"https://en.wikipedia.org/wiki/Ear_Falls_Water_Aerodrome"},"geometry":{"type":"Point","coordinates":[-93.166702,50.583302]}},{"id":"349098","type":"Feature","properties":{"ident":"CA-0765","type":"seaplane_base","name":"Earls Cove Seaplane Base","continent":"NA","iso_country":"CA","iso_region":"CA-BC","municipality":"Madeira Park","scheduled_service":"no"},"geometry":{"type":"Point","coordinates":[-124.00871,49.75353]}},{"id":"12360","type":"Feature","properties":{"ident":"5G3","type":"seaplane_base","name":"East Dakota Flying Club Seaplane Base","elevation_ft":"1600","continent":"NA","iso_country":"US","iso_region":"US-SD","municipality":"Madison","scheduled_service":"no","gps_code":"5G3"},"geometry":{"type":"Point","coordinates":[-97.0298,43.965199]}},{"id":"26024","type":"Feature","properties":{"ident":"WV41","type":"seaplane_base","name":"East Liverpool Seaplane Base","elevation_ft":"665","continent":"NA","iso_country":"US","iso_region":"US-WV","municipality":"East Liverpool - Chester","scheduled_service":"no","gps_code":"WV41","local_code":"WV41"},"geometry":{"type":"Point","coordinates":[-80.524803,40.6292]}},