{"type":"FeatureCollection","features":[{"id":"35326","type":"Feature","properties":{"ident":"TAPT","type":"small_airport","name":"Coco Point Lodge Airstrip","elevation_ft":"15","continent":"NA","iso_country":"AG","iso_region":"AG-10","municipality":"Coco Point","scheduled_service":"no","gps_code":"TAPT"},"geometry":{"type":"Point","coordinates":[-61.765301,17.555599]}},{"id":"35328","type":"Feature","properties":{"ident":"TAPH","type":"medium_airport","name":"Codrington Airport","elevation_ft":"15","continent":"NA","iso_country":"AG","iso_region":"AG-10","municipality":"Codrington","scheduled_service":"yes","gps_code":"TAPH","iata_code":"BBQ","wikipedia_link":"https://en.wikipedia.org/wiki/Codrington_Airport"},"geometry":{"type":"Point","coordinates":[-61.828602,17.635799]}},{"id":"6359","type":"Feature","properties":{"ident":"TAPA","type":"medium_airport","name":"V C Bird International Airport","elevation_ft":"62","continent":"NA","iso_country":"AG","iso_region":"AG-03","municipality":"Osbourn","scheduled_service":"yes","gps_code":"TAPA","iata_code":"ANU","wikipedia_link":"https://en.wikipedia.org/wiki/VC_Bird_International_Airport","keywords":"St. John's"},"geometry":{"type":"Point","coordinates":[-61.792702,17.1367]}},{"id":"505807","type":"Feature","properties":{"ident":"AG-0003","type":"heliport","name":"Orange Valley Heliport","elevation_ft":"13","continent":"NA","iso_country":"AG","iso_region":"AG-05","municipality":"Urlings","scheduled_service":"no"},"geometry":{"type":"Point","coordinates":[-61.89073,17.04823]}},{"id":"505798","type":"Feature","properties":{"ident":"AG-0002","type":"heliport","name":"Fort Road Heliport","elevation_ft":"13","continent":"NA","iso_country":"AG","iso_region":"AG-04","municipality":"St John's","scheduled_service":"no","keywords":"CalvinAir Helicopters, Caribbean Helicopters"},"geometry":{"type":"Point","coordinates":[-61.857314,17.134275]}}]}