{"type":"FeatureCollection","features":[{"id":"29717","type":"Feature","properties":{"ident":"YBMO","type":"small_airport","name":"(Duplicate)Bombala Airport","elevation_ft":"2415","continent":"OC","iso_country":"AU","iso_region":"AU-NSW","scheduled_service":"no","gps_code":"YBMO"},"geometry":{"type":"Point","coordinates":[0.0149,-0.036]}},{"id":"27418","type":"Feature","properties":{"ident":"YBTD","type":"small_airport","name":"(Duplicate)Brighton Downs Airport","continent":"OC","iso_country":"AU","iso_region":"AU-QLD","scheduled_service":"no"},"geometry":{"type":"Point","coordinates":[0.014,-0.013]}},{"id":"352838","type":"Feature","properties":{"ident":"AU-0420","type":"small_airport","name":"2480 Mandalay-Purnanga-Glendara Rd airstrip","continent":"OC","iso_country":"AU","iso_region":"AU-NSW","municipality":"Wilcannia","scheduled_service":"no"},"geometry":{"type":"Point","coordinates":[143.347616,-30.584736]}},{"id":"350493","type":"Feature","properties":{"ident":"AU-0228","type":"small_airport","name":"2nd Crookwell Airfield","continent":"OC","iso_country":"AU","iso_region":"AU-NSW","municipality":"Crookwell","scheduled_service":"no"},"geometry":{"type":"Point","coordinates":[149.462128,-34.493893]}},{"id":"348492","type":"Feature","properties":{"ident":"YABG","type":"small_airport","name":"Abbieglassie Airstrip","elevation_ft":"869","continent":"OC","iso_country":"AU","iso_region":"AU-NT","municipality":"Abbieglassie","scheduled_service":"no","gps_code":"YABG"},"geometry":{"type":"Point","coordinates":[147.577989,-27.248368]}},{"id":"354532","type":"Feature","properties":{"ident":"YABD","type":"small_airport","name":"Aberdeen Airport","elevation_ft":"971","continent":"OC","iso_country":"AU","iso_region":"AU-QLD","municipality":"Aberdeen","scheduled_service":"no","gps_code":"YABD"},"geometry":{"type":"Point","coordinates":[150.641656,-28.06763]}},{"id":"348490","type":"Feature","properties":{"ident":"YABF","type":"small_airport","name":"Aberfoyle Airport","elevation_ft":"900","continent":"OC","iso_country":"AU","iso_region":"AU-QLD","municipality":"Torrens Creek","scheduled_service":"no","gps_code":"YABF"},"geometry":{"type":"Point","coordinates":[145.266111,-21.670556]}},{"id":"27311","type":"Feature","properties":{"ident":"YABI","type":"small_airport","name":"Abingdon Downs Airport","elevation_ft":"573","continent":"OC","iso_country":"AU","iso_region":"AU-QLD","scheduled_service":"no","gps_code":"YABI","iata_code":"ABG","wikipedia_link":"https://en.wikipedia.org/wiki/Abingdon_Airport"},"geometry":{"type":"Point","coordinates":[143.183531,-17.608814]}},{"id":"354534","type":"Feature","properties":{"ident":"YABR","type":"small_airport","name":"Abra Mine Camp Airport","elevation_ft":"1725","continent":"OC","iso_country":"AU","iso_region":"AU-WA","municipality":"Peak Hill","scheduled_service":"no","gps_code":"YABR","home_link":"http://peak-hill-wa.place-advisor.com/abra-mine-camp/"},"geometry":{"type":"Point","coordinates":[118.648029,-24.628727]}},{"id":"38213","type":"Feature","properties":{"ident":"AU-0014","type":"small_airport","name":"Abrolhos East Wallabi Island Airport","continent":"OC","iso_country":"AU","iso_region":"AU-WA","municipality":"Abrolhos","scheduled_service":"no","local_code":"A15"},"geometry":{"type":"Point","coordinates":[113.735583,-28.43785]}},{"id":"45166","type":"Feature","properties":{"ident":"AU-0039","type":"small_airport","name":"Abrolhos Island","continent":"OC","iso_country":"AU","iso_region":"AU-WA","scheduled_service":"no"},"geometry":{"type":"Point","coordinates":[113.689184,-28.475406]}},{"id":"45164","type":"Feature","properties":{"ident":"AU-0038","type":"small_airport","name":"Abrolhos North Island","elevation_ft":"1","continent":"OC","iso_country":"AU","iso_region":"AU-WA","scheduled_service":"no","gps_code":"YNTI"},"geometry":{"type":"Point","coordinates":[113.5958,-28.299817]}},{"id":"45165","type":"Feature","properties":{"ident":"YRAT","type":"small_airport","name":"Abrolhos Rat Island","elevation_ft":"16","continent":"OC","iso_country":"AU","iso_region":"AU-WA","scheduled_service":"no","gps_code":"YRAT"},"geometry":{"type":"Point","coordinates":[113.7845,-28.7197]}},{"id":"27314","type":"Feature","properties":{"ident":"YACS","type":"small_airport","name":"Acacia Downs Airport","continent":"OC","iso_country":"AU","iso_region":"AU-NSW","scheduled_service":"no","gps_code":"YACS"},"geometry":{"type":"Point","coordinates":[141.899994,-31.4167]}},{"id":"351756","type":"Feature","properties":{"ident":"AU-0298","type":"small_airport","name":"Ace Aerodrome Starke Field","elevation_ft":"276","continent":"OC","iso_country":"AU","iso_region":"AU-QLD","municipality":"Woodstock","scheduled_service":"no"},"geometry":{"type":"Point","coordinates":[146.779948,-19.585231]}},{"id":"29644","type":"Feature","properties":{"ident":"YADY","type":"small_airport","name":"Adaminaby Airport","elevation_ft":"3346","continent":"OC","iso_country":"AU","iso_region":"AU-NSW","municipality":"Adaminaby","scheduled_service":"no","gps_code":"YADY"},"geometry":{"type":"Point","coordinates":[148.796005,-35.997799]}},{"id":"348505","type":"Feature","properties":{"ident":"YADA","type":"small_airport","name":"Adavale Airfield","elevation_ft":"814","continent":"OC","iso_country":"AU","iso_region":"AU-QLD","municipality":"Adavale","scheduled_service":"no","gps_code":"YADA"},"geometry":{"type":"Point","coordinates":[144.569827,-25.894945]}},{"id":"27096","type":"Feature","properties":{"ident":"YPAD","type":"large_airport","name":"Adelaide International Airport","elevation_ft":"20","continent":"OC","iso_country":"AU","iso_region":"AU-SA","municipality":"Adelaide","scheduled_service":"yes","gps_code":"YPAD","iata_code":"ADL","wikipedia_link":"https://en.wikipedia.org/wiki/Adelaide_International_Airport"},"geometry":{"type":"Point","coordinates":[138.533393,-34.947512]}},{"id":"355158","type":"Feature","properties":{"ident":"YAIW","type":"heliport","name":"Adelaide International Raceway Helicopter Landing Site","elevation_ft":"43","continent":"OC","iso_country":"AU","iso_region":"AU-SA","municipality":"Waterloo Corner","scheduled_service":"no","gps_code":"YAIW"},"geometry":{"type":"Point","coordinates":[138.565,-34.696667]}},{"id":"27118","type":"Feature","properties":{"ident":"YPPF","type":"small_airport","name":"Adelaide Parafield Airport","elevation_ft":"57","continent":"OC","iso_country":"AU","iso_region":"AU-SA","municipality":"Adelaide","scheduled_service":"no","gps_code":"YPPF","home_link":"http://www.adelaideairport.com.au/corporate-and-community/adelaide-airport-limited/airports","wikipedia_link":"https://en.wikipedia.org/wiki/Parafield_Airport"},"geometry":{"type":"Point","coordinates":[138.632996,-34.793301]}},{"id":"352841","type":"Feature","properties":{"ident":"AU-0422","type":"small_airport","name":"Adelaide River Airfield","continent":"OC","iso_country":"AU","iso_region":"AU-NT","municipality":"Adelaide River","scheduled_service":"no"},"geometry":{"type":"Point","coordinates":[131.137481,-13.232564]}},{"id":"309832","type":"Feature","properties":{"ident":"AU-0067","type":"heliport","name":"Adelaide River Helicopter Landing Site","elevation_ft":"185","continent":"OC","iso_country":"AU","iso_region":"AU-NT","municipality":"Adelaide River","scheduled_service":"no","local_code":"OZHAB"},"geometry":{"type":"Point","coordinates":[131.10796,-13.2362]}},{"id":"529156","type":"Feature","properties":{"ident":"YADL","type":"small_airport","name":"Adele Island Airstrip","elevation_ft":"16","continent":"OC","iso_country":"AU","iso_region":"AU-WA","municipality":"Adele Island","scheduled_service":"no","gps_code":"YADL"},"geometry":{"type":"Point","coordinates":[123.154035,-15.516161]}},{"id":"27322","type":"Feature","properties":{"ident":"YALG","type":"small_airport","name":"Adels Grove Airport","continent":"OC","iso_country":"AU","iso_region":"AU-QLD","scheduled_service":"no","gps_code":"YALG"},"geometry":{"type":"Point","coordinates":[138.527727,-18.694729]}},{"id":"355157","type":"Feature","properties":{"ident":"YAIN","type":"heliport","name":"Agincourt North Helicopter Landing Site","elevation_ft":"0","continent":"OC","iso_country":"AU","iso_region":"AU-QLD","municipality":"Agincourt Reef","scheduled_service":"no","gps_code":"YAIN"},"geometry":{"type":"Point","coordinates":[145.820144,-15.981015]}},{"id":"354554","type":"Feature","properties":{"ident":"YAIS","type":"heliport","name":"Agincourt South Helicopter Landing Site","continent":"OC","iso_country":"AU","iso_region":"AU-QLD","municipality":"Agincourt Reef","scheduled_service":"no","gps_code":"YAIS"},"geometry":{"type":"Point","coordinates":[145.834708,-16.035616]}},{"id":"27351","type":"Feature","properties":{"ident":"YAWT","type":"small_airport","name":"Agnes Water private Airport","elevation_ft":"60","continent":"OC","iso_country":"AU","iso_region":"AU-QLD","municipality":"Agnes Water","scheduled_service":"no","gps_code":"YAWT","keywords":"owner charges landing fees"},"geometry":{"type":"Point","coordinates":[151.8925,-24.20224]}},{"id":"309831","type":"Feature","properties":{"ident":"AU-0066","type":"heliport","name":"Agnes Water SES Grounds HLS","elevation_ft":"33","continent":"OC","iso_country":"AU","iso_region":"AU-QLD","municipality":"Agnes Water","scheduled_service":"no","local_code":"OZHAC","keywords":"1770, Seventeen Seventy Heliport"},"geometry":{"type":"Point","coordinates":[151.8826,-24.1828]}},{"id":"30622","type":"Feature","properties":{"ident":"AU-AGW","type":"small_airport","name":"Agnew Airport","elevation_ft":"160","continent":"OC","iso_country":"AU","iso_region":"AU-QLD","municipality":"Agnew","scheduled_service":"no","gps_code":"YAGN","iata_code":"AGW","wikipedia_link":"https://en.wikipedia.org/wiki/Agnew_Airport"},"geometry":{"type":"Point","coordinates":[142.149369,-12.1456]}},{"id":"333856","type":"Feature","properties":{"ident":"AU-0112","type":"small_airport","name":"Aileron Airstrip","elevation_ft":"2186","continent":"OC","iso_country":"AU","iso_region":"AU-NT","municipality":"Anmatjere","scheduled_service":"no","gps_code":"YALR"},"geometry":{"type":"Point","coordinates":[133.347244,-22.652908]}},{"id":"351242","type":"Feature","properties":{"ident":"AU-0252","type":"small_airport","name":"airlie private strip","continent":"OC","iso_country":"AU","iso_region":"AU-NSW","municipality":"airlie","scheduled_service":"no"},"geometry":{"type":"Point","coordinates":[149.544997,-33.594282]}},{"id":"26888","type":"Feature","properties":{"ident":"YABA","type":"medium_airport","name":"Albany Airport","elevation_ft":"233","continent":"OC","iso_country":"AU","iso_region":"AU-WA","municipality":"Albany","scheduled_service":"yes","gps_code":"YABA","iata_code":"ALH","wikipedia_link":"https://en.wikipedia.org/wiki/Albany_Airport_(Australia)","keywords":"ABA, YPAL"},"geometry":{"type":"Point","coordinates":[117.808998,-34.943298]}},{"id":"429772","type":"Feature","properties":{"ident":"AU-0497","type":"small_airport","name":"Albeni Station Airport","elevation_ft":"1276","continent":"OC","iso_country":"AU","iso_region":"AU-QLD","municipality":"Mantuan Downs","scheduled_service":"no"},"geometry":{"type":"Point","coordinates":[147.080176,-24.575544]}},{"id":"38225","type":"Feature","properties":{"ident":"YALH","type":"small_airport","name":"Albilbah Airport","continent":"OC","iso_country":"AU","iso_region":"AU-QLD","scheduled_service":"no","gps_code":"YALH"},"geometry":{"type":"Point","coordinates":[144.290861,-24.712305]}},{"id":"27312","type":"Feature","properties":{"ident":"YABS","type":"small_airport","name":"Albion Downs Airport","continent":"OC","iso_country":"AU","iso_region":"AU-WA","scheduled_service":"no","gps_code":"YABS"},"geometry":{"type":"Point","coordinates":[120.383003,-27.2833]}},{"id":"533218","type":"Feature","properties":{"ident":"AU-0649","type":"small_airport","name":"Albro Station Airstrip","elevation_ft":"848","continent":"OC","iso_country":"AU","iso_region":"AU-QLD","municipality":"Laglan","scheduled_service":"no"},"geometry":{"type":"Point","coordinates":[146.566501,-22.709174]}},{"id":"27044","type":"Feature","properties":{"ident":"YMAY","type":"medium_airport","name":"Albury Airport","elevation_ft":"539","continent":"OC","iso_country":"AU","iso_region":"AU-NSW","municipality":"Albury","scheduled_service":"yes","gps_code":"YMAY","iata_code":"ABX","wikipedia_link":"https://en.wikipedia.org/wiki/Albury_Airport"},"geometry":{"type":"Point","coordinates":[146.959148,-36.066758]}},{"id":"309184","type":"Feature","properties":{"ident":"YXAL","type":"heliport","name":"Albury Base Hospital Helipad","elevation_ft":"588","continent":"OC","iso_country":"AU","iso_region":"AU-NSW","municipality":"Albury","scheduled_service":"no","gps_code":"YXAL","local_code":"YXAL"},"geometry":{"type":"Point","coordinates":[146.938565,-36.079212]}},{"id":"38224","type":"Feature","properties":{"ident":"YALC","type":"small_airport","name":"Alcoota Station Airport","continent":"OC","iso_country":"AU","iso_region":"AU-NT","scheduled_service":"no","gps_code":"YALC"},"geometry":{"type":"Point","coordinates":[134.449997,-22.8333]}},{"id":"333857","type":"Feature","properties":{"ident":"AU-0116","type":"small_airport","name":"Alcoota Station Airport","elevation_ft":"1994","continent":"OC","iso_country":"AU","iso_region":"AU-NT","municipality":"Anmatjere","scheduled_service":"no"},"geometry":{"type":"Point","coordinates":[134.4036,-22.801963]}},{"id":"27324","type":"Feature","properties":{"ident":"YALY","type":"small_airport","name":"Alderley Airport","continent":"OC","iso_country":"AU","iso_region":"AU-QLD","scheduled_service":"no","gps_code":"YALY"},"geometry":{"type":"Point","coordinates":[139.632996,-22.483299]}},{"id":"354541","type":"Feature","properties":{"ident":"YADR","type":"small_airport","name":"Aldersyde Airstrip","elevation_ft":"1001","continent":"OC","iso_country":"AU","iso_region":"AU-QLD","municipality":"Miles","scheduled_service":"no","gps_code":"YADR"},"geometry":{"type":"Point","coordinates":[150.194392,-26.663222]}},{"id":"27316","type":"Feature","properties":{"ident":"YADG","type":"small_airport","name":"Aldinga Airport","elevation_ft":"110","continent":"OC","iso_country":"AU","iso_region":"AU-SA","municipality":"Aldinga","scheduled_service":"no","gps_code":"YADG","home_link":"https://www.aldingaaviation.com.au/","wikipedia_link":"https://en.wikipedia.org/wiki/Aldinga_Airfield"},"geometry":{"type":"Point","coordinates":[138.49421,-35.288753]}},{"id":"353629","type":"Feature","properties":{"ident":"AU-0436","type":"small_airport","name":"Aldinga private airstrip","continent":"OC","iso_country":"AU","iso_region":"AU-SA","municipality":"Aldinga","scheduled_service":"no"},"geometry":{"type":"Point","coordinates":[138.477345,-35.29393]}},{"id":"506698","type":"Feature","properties":{"ident":"YAXA","type":"heliport","name":"Alexandra Hospital Heliport","elevation_ft":"787","continent":"OC","iso_country":"AU","iso_region":"AU-VIC","municipality":"Alexandra","scheduled_service":"no","gps_code":"YAXA"},"geometry":{"type":"Point","coordinates":[145.717455,-37.195448]}},{"id":"27323","type":"Feature","properties":{"ident":"YALX","type":"small_airport","name":"Alexandria Homestead Airport","continent":"OC","iso_country":"AU","iso_region":"AU-NT","scheduled_service":"no","gps_code":"YALX","iata_code":"AXL"},"geometry":{"type":"Point","coordinates":[136.710007,-19.0602]}},{"id":"309207","type":"Feature","properties":{"ident":"YAFD","type":"heliport","name":"Alfred Hospital Helipad","elevation_ft":"80","continent":"OC","iso_country":"AU","iso_region":"AU-SA","municipality":"Melbourne","scheduled_service":"no","gps_code":"YAFD","local_code":"YAFD"},"geometry":{"type":"Point","coordinates":[144.9813,-37.84526]}},{"id":"354538","type":"Feature","properties":{"ident":"YACD","type":"small_airport","name":"Alice Downs Station Airport","elevation_ft":"991","continent":"OC","iso_country":"AU","iso_region":"AU-QLD","municipality":"Alice Downs","scheduled_service":"no","gps_code":"YACD"},"geometry":{"type":"Point","coordinates":[145.488553,-24.269521]}},{"id":"26900","type":"Feature","properties":{"ident":"YBAS","type":"medium_airport","name":"Alice Springs Airport","elevation_ft":"1789","continent":"OC","iso_country":"AU","iso_region":"AU-NT","municipality":"Alice Springs","scheduled_service":"yes","gps_code":"YBAS","iata_code":"ASP","home_link":"http://www.alicespringsairport.com.au/","wikipedia_link":"https://en.wikipedia.org/wiki/Alice_Springs_Airport"},"geometry":{"type":"Point","coordinates":[133.903427,-23.806588]}},{"id":"38226","type":"Feature","properties":{"ident":"YALM","type":"small_airport","name":"Allambie Airport","continent":"OC","iso_country":"AU","iso_region":"AU-NT","scheduled_service":"no","gps_code":"YALM"},"geometry":{"type":"Point","coordinates":[134.402927,-24.265335]}},{"id":"38227","type":"Feature","properties":{"ident":"YALN","type":"small_airport","name":"Allandy Airport","continent":"OC","iso_country":"AU","iso_region":"AU-NSW","municipality":"Packsaddle","scheduled_service":"no","gps_code":"YALN"},"geometry":{"type":"Point","coordinates":[142.625198,-30.38835]}},{"id":"509741","type":"Feature","properties":{"ident":"AU-0611","type":"small_airport","name":"Almaden (Spring Valley) Airstrip","elevation_ft":"1736","continent":"OC","iso_country":"AU","iso_region":"AU-QLD","municipality":"Almaden","scheduled_service":"no"},"geometry":{"type":"Point","coordinates":[144.633777,-17.35028]}},{"id":"506700","type":"Feature","properties":{"ident":"YXBY","type":"heliport","name":"Alonnah Medical HLS","elevation_ft":"26","continent":"OC","iso_country":"AU","iso_region":"AU-TAS","municipality":"Bruny Island","scheduled_service":"no","gps_code":"YXBY"},"geometry":{"type":"Point","coordinates":[147.245,-43.316667]}},{"id":"507525","type":"Feature","properties":{"ident":"AU-0548","type":"small_airport","name":"Alpha Airport","elevation_ft":"1255","continent":"OC","iso_country":"AU","iso_region":"AU-QLD","municipality":"Alpha","scheduled_service":"no","gps_code":"YAPH","iata_code":"ABH","wikipedia_link":"https://en.wikipedia.org/wiki/Alpha_Airport"},"geometry":{"type":"Point","coordinates":[146.582668,-23.652849]}},{"id":"348486","type":"Feature","properties":{"ident":"YALP","type":"small_airport","name":"Alpurrurulam Airport","elevation_ft":"651","continent":"OC","iso_country":"AU","iso_region":"AU-NT","municipality":"Alpurrurulam","scheduled_service":"no","gps_code":"YALP"},"geometry":{"type":"Point","coordinates":[137.832949,-20.984932]}},{"id":"30666","type":"Feature","properties":{"ident":"AU-AYD","type":"small_airport","name":"Alroy Downs Airport","elevation_ft":"711","continent":"OC","iso_country":"AU","iso_region":"AU-NT","municipality":"Alroy Downs","scheduled_service":"no","gps_code":"YALD","iata_code":"AYD"},"geometry":{"type":"Point","coordinates":[136.078995,-19.2908]}},{"id":"529148","type":"Feature","properties":{"ident":"YALT","type":"small_airport","name":"Althorpe Island Airstrip","elevation_ft":"278","continent":"OC","iso_country":"AU","iso_region":"AU-SA","municipality":"Althorpe Island","scheduled_service":"no","gps_code":"YALT"},"geometry":{"type":"Point","coordinates":[136.86164,-35.370791]}},{"id":"38207","type":"Feature","properties":{"ident":"AU-0008","type":"heliport","name":"Althorpe Lighthouse","elevation_ft":"314","continent":"OC","iso_country":"AU","iso_region":"AU-SA","municipality":"Althorpe Islands","scheduled_service":"no","local_code":"A07"},"geometry":{"type":"Point","coordinates":[136.86033,-35.371536]}},{"id":"38222","type":"Feature","properties":{"ident":"YADS","type":"small_airport","name":"Alton Downs Airport","continent":"OC","iso_country":"AU","iso_region":"AU-SA","scheduled_service":"no","gps_code":"YADS","iata_code":"AWN","wikipedia_link":"https://en.wikipedia.org/wiki/Alton_Downs_Airport"},"geometry":{"type":"Point","coordinates":[139.259906,-26.488959]}},{"id":"27328","type":"Feature","properties":{"ident":"YAMT","type":"small_airport","name":"Amata Airport","elevation_ft":"695","continent":"OC","iso_country":"AU","iso_region":"AU-SA","scheduled_service":"no","gps_code":"YAMT","iata_code":"AMT","wikipedia_link":"https://en.wikipedia.org/wiki/Amata_Airport"},"geometry":{"type":"Point","coordinates":[131.202732,-26.097363]}},{"id":"354533","type":"Feature","properties":{"ident":"YABL","type":"small_airport","name":"Ambalindum Airport","elevation_ft":"1966","continent":"OC","iso_country":"AU","iso_region":"AU-NT","municipality":"Ambalindum","scheduled_service":"no","gps_code":"YABL"},"geometry":{"type":"Point","coordinates":[134.732434,-23.35187]}},{"id":"38220","type":"Feature","properties":{"ident":"YABU","type":"small_airport","name":"Amburla Airport","continent":"OC","iso_country":"AU","iso_region":"AU-NT","municipality":"Burt Plain","scheduled_service":"no","gps_code":"YABU"},"geometry":{"type":"Point","coordinates":[133.172332,-23.339897]}},{"id":"309833","type":"Feature","properties":{"ident":"AU-0068","type":"heliport","name":"Amity Heliport","elevation_ft":"19","continent":"OC","iso_country":"AU","iso_region":"AU-QLD","municipality":"Amity","scheduled_service":"no","local_code":"AMCO"},"geometry":{"type":"Point","coordinates":[153.44,-27.4031]}},{"id":"38229","type":"Feature","properties":{"ident":"YAMM","type":"small_airport","name":"Ammaroo Airport","continent":"OC","iso_country":"AU","iso_region":"AU-NT","scheduled_service":"no","gps_code":"YAMM","iata_code":"AMX"},"geometry":{"type":"Point","coordinates":[135.242004,-21.7383]}},{"id":"27345","type":"Feature","properties":{"ident":"YATR","type":"small_airport","name":"Amphitheatre Airport","continent":"OC","iso_country":"AU","iso_region":"AU-VIC","scheduled_service":"no","gps_code":"YATR"},"geometry":{"type":"Point","coordinates":[143.399994,-37.1833]}},{"id":"38228","type":"Feature","properties":{"ident":"YAMJ","type":"small_airport","name":"Ampilatwatja Airport","elevation_ft":"1290","continent":"OC","iso_country":"AU","iso_region":"AU-NT","municipality":"Ampilatwatja","scheduled_service":"no","gps_code":"YAMJ"},"geometry":{"type":"Point","coordinates":[135.23097,-21.654955]}},{"id":"27317","type":"Feature","properties":{"ident":"YADO","type":"small_airport","name":"Andado Airport","elevation_ft":"549","continent":"OC","iso_country":"AU","iso_region":"AU-NT","municipality":"Ghan","scheduled_service":"no","gps_code":"YADO"},"geometry":{"type":"Point","coordinates":[135.290794,-25.407772]}},{"id":"27326","type":"Feature","properties":{"ident":"YAMK","type":"small_airport","name":"Andamooka Airport","elevation_ft":"76","continent":"OC","iso_country":"AU","iso_region":"AU-SA","scheduled_service":"no","gps_code":"YAMK","iata_code":"ADO","wikipedia_link":"https://en.wikipedia.org/wiki/Andamooka_Airport"},"geometry":{"type":"Point","coordinates":[137.136993,-30.438299]}},{"id":"38230","type":"Feature","properties":{"ident":"YANJ","type":"small_airport","name":"Angatja Airport","continent":"OC","iso_country":"AU","iso_region":"AU-SA","scheduled_service":"no","gps_code":"YANJ"},"geometry":{"type":"Point","coordinates":[130.399994,-26.1]}},{"id":"354552","type":"Feature","properties":{"ident":"YAGP","type":"heliport","name":"Angel Platform Oil Rig Helipad","elevation_ft":"100","continent":"OC","iso_country":"AU","iso_region":"AU-WA","scheduled_service":"no","gps_code":"YAGP"},"geometry":{"type":"Point","coordinates":[116.598056,-19.498611]}},{"id":"312361","type":"Feature","properties":{"ident":"ANZ","type":"small_airport","name":"Angus Downs Airport","elevation_ft":"1724","continent":"OC","iso_country":"AU","iso_region":"AU-NT","municipality":"Angus Downs Station","scheduled_service":"no","gps_code":"YADN","iata_code":"ANZ"},"geometry":{"type":"Point","coordinates":[132.2748,-25.0325]}},{"id":"334096","type":"Feature","properties":{"ident":"AU-0163","type":"heliport","name":"Angus Place Colliery Heliport","elevation_ft":"2996","continent":"OC","iso_country":"AU","iso_region":"AU-NSW","municipality":"Lidsdale","scheduled_service":"no","local_code":"OZHDI"},"geometry":{"type":"Point","coordinates":[150.098981,-33.352098]}},{"id":"27330","type":"Feature","properties":{"ident":"YANK","type":"small_airport","name":"Anna Creek Airport","elevation_ft":"300","continent":"OC","iso_country":"AU","iso_region":"AU-SA","scheduled_service":"no","gps_code":"YANK"},"geometry":{"type":"Point","coordinates":[136.170795,-28.89678]}},{"id":"27334","type":"Feature","properties":{"ident":"YAPA","type":"small_airport","name":"Anna Plains Airport","continent":"OC","iso_country":"AU","iso_region":"AU-WA","scheduled_service":"no","gps_code":"YAPA"},"geometry":{"type":"Point","coordinates":[121.516998,-19.266701]}},{"id":"354090","type":"Feature","properties":{"ident":"YADE","type":"small_airport","name":"Annandale Airstrip","elevation_ft":"853","continent":"OC","iso_country":"AU","iso_region":"AU-QLD","municipality":"Coppabella","scheduled_service":"no","gps_code":"YADE"},"geometry":{"type":"Point","coordinates":[148.284423,-21.943105]}},{"id":"38231","type":"Feature","properties":{"ident":"YANN","type":"small_airport","name":"Anningie Airport","continent":"OC","iso_country":"AU","iso_region":"AU-NT","scheduled_service":"no","gps_code":"YANN"},"geometry":{"type":"Point","coordinates":[133.125,-21.831699]}},{"id":"27332","type":"Feature","properties":{"ident":"YANW","type":"small_airport","name":"Annitowa Airport","elevation_ft":"901","continent":"OC","iso_country":"AU","iso_region":"AU-NT","scheduled_service":"no","gps_code":"YANW"},"geometry":{"type":"Point","coordinates":[136.451139,-21.200017]}},{"id":"27329","type":"Feature","properties":{"ident":"YAND","type":"small_airport","name":"Answer Downs Airport","continent":"OC","iso_country":"AU","iso_region":"AU-QLD","scheduled_service":"no","gps_code":"YAND"},"geometry":{"type":"Point","coordinates":[140.983002,-21.6667]}},{"id":"27331","type":"Feature","properties":{"ident":"YANL","type":"small_airport","name":"Anthony Lagoon Airport","continent":"OC","iso_country":"AU","iso_region":"AU-NT","scheduled_service":"no","gps_code":"YANL","iata_code":"AYL"},"geometry":{"type":"Point","coordinates":[135.535069,-18.018079]}},{"id":"27335","type":"Feature","properties":{"ident":"YAPO","type":"small_airport","name":"Apollo Bay Airport","continent":"OC","iso_country":"AU","iso_region":"AU-VIC","scheduled_service":"no","gps_code":"YAPO","wikipedia_link":"https://en.wikipedia.org/wiki/Apollo_Bay_Airport"},"geometry":{"type":"Point","coordinates":[143.661175,-38.77493]}},{"id":"309834","type":"Feature","properties":{"ident":"AU-0069","type":"heliport","name":"Appin Colliery Helipad","elevation_ft":"832","continent":"OC","iso_country":"AU","iso_region":"AU-NSW","municipality":"Appin","scheduled_service":"no","local_code":"OZHAE","keywords":"APPC"},"geometry":{"type":"Point","coordinates":[150.7914,-34.2098]}},{"id":"334072","type":"Feature","properties":{"ident":"AU-0145","type":"heliport","name":"Appin West Colliery Heliport","elevation_ft":"623","continent":"OC","iso_country":"AU","iso_region":"AU-NSW","municipality":"Douglas Park","scheduled_service":"no","local_code":"OZHAF"},"geometry":{"type":"Point","coordinates":[150.717167,-34.2185]}},{"id":"27325","type":"Feature","properties":{"ident":"YAMC","type":"small_airport","name":"Aramac Airport","elevation_ft":"232","continent":"OC","iso_country":"AU","iso_region":"AU-QLD","scheduled_service":"no","gps_code":"YAMC","iata_code":"AXC","wikipedia_link":"https://en.wikipedia.org/wiki/Aramac_Airport"},"geometry":{"type":"Point","coordinates":[145.249504,-22.95788]}},{"id":"38232","type":"Feature","properties":{"ident":"YARP","type":"small_airport","name":"Arapunya Airport","continent":"OC","iso_country":"AU","iso_region":"AU-NT","scheduled_service":"no","gps_code":"YARP"},"geometry":{"type":"Point","coordinates":[135.699997,-22.3167]}},{"id":"26891","type":"Feature","properties":{"ident":"YARA","type":"medium_airport","name":"Ararat Airport","elevation_ft":"1008","continent":"OC","iso_country":"AU","iso_region":"AU-VIC","municipality":"Ararat","scheduled_service":"no","gps_code":"YARA","iata_code":"ARY","wikipedia_link":"https://en.wikipedia.org/wiki/Ararat_Airport"},"geometry":{"type":"Point","coordinates":[142.988688,-37.309978]}},{"id":"517133","type":"Feature","properties":{"ident":"YAUL","type":"small_airport","name":"Aratula Airstrip","elevation_ft":"465","continent":"OC","iso_country":"AU","iso_region":"AU-QLD","scheduled_service":"no","gps_code":"YAUL"},"geometry":{"type":"Point","coordinates":[152.56377,-27.97776]}},{"id":"27313","type":"Feature","properties":{"ident":"YACI","type":"small_airport","name":"Arcadia Airport","continent":"OC","iso_country":"AU","iso_region":"AU-QLD","scheduled_service":"no","gps_code":"YACI"},"geometry":{"type":"Point","coordinates":[148.668365,-25.210916]}},{"id":"507888","type":"Feature","properties":{"ident":"AU-0564","type":"small_airport","name":"Archer River  airstrip","continent":"OC","iso_country":"AU","iso_region":"AU-QLD","municipality":"Archer River","scheduled_service":"no"},"geometry":{"type":"Point","coordinates":[142.928867,-13.436333]}},{"id":"314885","type":"Feature","properties":{"ident":"YXGY","type":"heliport","name":"Archery Park Helipad","elevation_ft":"176","continent":"OC","iso_country":"AU","iso_region":"AU-QLD","municipality":"Gympie","scheduled_service":"no","gps_code":"YXGY","local_code":"YXGY"},"geometry":{"type":"Point","coordinates":[152.6527,-26.1886]}},{"id":"38223","type":"Feature","properties":{"ident":"YAKG","type":"small_airport","name":"Arckaringa Airport","continent":"OC","iso_country":"AU","iso_region":"AU-SA","scheduled_service":"no","gps_code":"YAKG"},"geometry":{"type":"Point","coordinates":[134.744995,-27.946699]}},{"id":"354543","type":"Feature","properties":{"ident":"YADU","type":"small_airport","name":"Ardgour Airstrip","elevation_ft":"1657","continent":"OC","iso_country":"AU","iso_region":"AU-NSW","scheduled_service":"no","gps_code":"YADU"},"geometry":{"type":"Point","coordinates":[150.040476,-31.652468]}},{"id":"27339","type":"Feature","properties":{"ident":"YARL","type":"small_airport","name":"Ardlethan Airport","continent":"OC","iso_country":"AU","iso_region":"AU-NSW","scheduled_service":"no","gps_code":"YARL"},"geometry":{"type":"Point","coordinates":[146.85884,-34.411265]}},{"id":"27333","type":"Feature","properties":{"ident":"YAOR","type":"small_airport","name":"Ardmore Airport","continent":"OC","iso_country":"AU","iso_region":"AU-QLD","scheduled_service":"no","gps_code":"YAOR"},"geometry":{"type":"Point","coordinates":[139.182999,-21.65]}},{"id":"27341","type":"Feature","properties":{"ident":"YARS","type":"small_airport","name":"Ardrossan Airport","elevation_ft":"92","continent":"OC","iso_country":"AU","iso_region":"AU-SA","scheduled_service":"no","gps_code":"YARS"},"geometry":{"type":"Point","coordinates":[137.888292,-34.447189]}},{"id":"27340","type":"Feature","properties":{"ident":"YARN","type":"small_airport","name":"Areyonga Airport","continent":"OC","iso_country":"AU","iso_region":"AU-NT","municipality":"Mereenie","scheduled_service":"no","gps_code":"YARN"},"geometry":{"type":"Point","coordinates":[132.271228,-24.091565]}},{"id":"27336","type":"Feature","properties":{"ident":"YARD","type":"small_airport","name":"Argadargada Airport","continent":"OC","iso_country":"AU","iso_region":"AU-NT","scheduled_service":"no","gps_code":"YARD"},"geometry":{"type":"Point","coordinates":[136.677994,-21.676701]}},{"id":"26892","type":"Feature","properties":{"ident":"YARG","type":"small_airport","name":"Argyle Airport","elevation_ft":"522","continent":"OC","iso_country":"AU","iso_region":"AU-WA","scheduled_service":"yes","gps_code":"YARG","iata_code":"GYL","wikipedia_link":"https://en.wikipedia.org/wiki/Argyle_Airport"},"geometry":{"type":"Point","coordinates":[128.451004,-16.6369]}},{"id":"354544","type":"Feature","properties":{"ident":"YAGL","type":"small_airport","name":"Argyle Airstrip","continent":"OC","iso_country":"AU","iso_region":"AU-QLD","municipality":"Kingsthorpe","scheduled_service":"no","gps_code":"YAGL"},"geometry":{"type":"Point","coordinates":[151.796036,-27.481395]}},{"id":"314491","type":"Feature","properties":{"ident":"AGY","type":"small_airport","name":"Argyle Downs Airport","elevation_ft":"407","continent":"OC","iso_country":"AU","iso_region":"AU-WA","municipality":"Argyle Downs","scheduled_service":"no","iata_code":"AGY","wikipedia_link":"https://en.wikipedia.org/wiki/Argyle_Downs_Airport","keywords":"AGY"},"geometry":{"type":"Point","coordinates":[128.922485,-16.508604]}},{"id":"27337","type":"Feature","properties":{"ident":"YARI","type":"small_airport","name":"Arizona 1 Airport","continent":"OC","iso_country":"AU","iso_region":"AU-QLD","scheduled_service":"no","gps_code":"YARI"},"geometry":{"type":"Point","coordinates":[141.567001,-21.6667]}},{"id":"27338","type":"Feature","properties":{"ident":"YARK","type":"small_airport","name":"Arkaroola Airport","continent":"OC","iso_country":"AU","iso_region":"AU-SA","scheduled_service":"no","gps_code":"YARK"},"geometry":{"type":"Point","coordinates":[139.345993,-30.4067]}},{"id":"309185","type":"Feature","properties":{"ident":"YXAH","type":"heliport","name":"Armidale - Lambert Park HLS","elevation_ft":"3246","continent":"OC","iso_country":"AU","iso_region":"AU-NSW","municipality":"Armidale","scheduled_service":"no","gps_code":"YXAH","local_code":"YXAH"},"geometry":{"type":"Point","coordinates":[151.6552,-30.5113]}},{"id":"26893","type":"Feature","properties":{"ident":"YARM","type":"medium_airport","name":"Armidale Airport","elevation_ft":"3556","continent":"OC","iso_country":"AU","iso_region":"AU-NSW","municipality":"Armidale","scheduled_service":"yes","gps_code":"YARM","iata_code":"ARM","wikipedia_link":"https://en.wikipedia.org/wiki/Armidale_Airport"},"geometry":{"type":"Point","coordinates":[151.617004,-30.528099]}},{"id":"27327","type":"Feature","properties":{"ident":"YAML","type":"small_airport","name":"Armraynald Airport","continent":"OC","iso_country":"AU","iso_region":"AU-QLD","scheduled_service":"no","gps_code":"YAML"},"geometry":{"type":"Point","coordinates":[139.759794,-17.954826]}},{"id":"27342","type":"Feature","properties":{"ident":"YARY","type":"small_airport","name":"Arrabury Airport","elevation_ft":"334","continent":"OC","iso_country":"AU","iso_region":"AU-QLD","municipality":"Tanbar","scheduled_service":"no","gps_code":"YARY","iata_code":"AAB","wikipedia_link":"https://en.wikipedia.org/wiki/Arrabury_Airport"},"geometry":{"type":"Point","coordinates":[141.048718,-26.69639]}},{"id":"351705","type":"Feature","properties":{"ident":"AU-0271","type":"small_airport","name":"Arrabury Homestead","continent":"OC","iso_country":"AU","iso_region":"AU-QLD","municipality":"Arrabury Homestead","scheduled_service":"no"},"geometry":{"type":"Point","coordinates":[141.027031,-26.758793]}},{"id":"348327","type":"Feature","properties":{"ident":"AU-0202","type":"small_airport","name":"Arrow Pearling Base Airport","elevation_ft":"16","continent":"OC","iso_country":"AU","iso_region":"AU-WA","municipality":"Dampier Peninsula","scheduled_service":"no"},"geometry":{"type":"Point","coordinates":[122.49758,-16.947598]}},{"id":"27315","type":"Feature","properties":{"ident":"YADD","type":"small_airport","name":"Arubiddy Airport","continent":"OC","iso_country":"AU","iso_region":"AU-WA","scheduled_service":"no","gps_code":"YADD"},"geometry":{"type":"Point","coordinates":[125.919725,-31.813752]}},{"id":"27320","type":"Feature","properties":{"ident":"YAHD","type":"small_airport","name":"Ashburton Downs Airport","continent":"OC","iso_country":"AU","iso_region":"AU-WA","scheduled_service":"no","gps_code":"YAHD"},"geometry":{"type":"Point","coordinates":[117.025573,-23.380787]}},{"id":"27343","type":"Feature","properties":{"ident":"YASF","type":"small_airport","name":"Ashford Airport","continent":"OC","iso_country":"AU","iso_region":"AU-NSW","scheduled_service":"no","gps_code":"YASF"},"geometry":{"type":"Point","coordinates":[151.056207,-29.317096]}},{"id":"27344","type":"Feature","properties":{"ident":"YATN","type":"small_airport","name":"Atherton Airport","elevation_ft":"2450","continent":"OC","iso_country":"AU","iso_region":"AU-QLD","municipality":"Atherton","scheduled_service":"no","gps_code":"YATN","home_link":"http://athertonairport.com.au/"},"geometry":{"type":"Point","coordinates":[145.514999,-17.2617]}},{"id":"345623","type":"Feature","properties":{"ident":"YXAT","type":"heliport","name":"Atherton District Memorial Hospital Heliport","elevation_ft":"2575","continent":"OC","iso_country":"AU","iso_region":"AU-QLD","municipality":"Atherton","scheduled_service":"no","gps_code":"YXAT"},"geometry":{"type":"Point","coordinates":[145.483661,-17.265888]}},{"id":"38234","type":"Feature","properties":{"ident":"YATY","type":"small_airport","name":"Atley Airport","continent":"OC","iso_country":"AU","iso_region":"AU-WA","scheduled_service":"no","gps_code":"YATY"},"geometry":{"type":"Point","coordinates":[119.25,-28.2167]}},{"id":"507852","type":"Feature","properties":{"ident":"AU-0553","type":"small_airport","name":"Attica State Forest Airstrip","continent":"OC","iso_country":"AU","iso_region":"AU-QLD","municipality":"Attica State Forest","scheduled_service":"no"},"geometry":{"type":"Point","coordinates":[147.381276,-25.244083]}},{"id":"351808","type":"Feature","properties":{"ident":"AU-0319","type":"small_airport","name":"Attunga Private airstrp","continent":"OC","iso_country":"AU","iso_region":"AU-NSW","municipality":"Attunga","scheduled_service":"no"},"geometry":{"type":"Point","coordinates":[150.801727,-30.92789]}},{"id":"38233","type":"Feature","properties":{"ident":"YATL","type":"small_airport","name":"Atula Airport","elevation_ft":"915","continent":"OC","iso_country":"AU","iso_region":"AU-NT","municipality":"Anatye","scheduled_service":"no","gps_code":"YATL"},"geometry":{"type":"Point","coordinates":[136.388955,-23.255344]}},{"id":"334097","type":"Feature","properties":{"ident":"YXAU","type":"heliport","name":"Auburn Medical (Wyatt Park) Helicopter Landing Site","elevation_ft":"36","continent":"OC","iso_country":"AU","iso_region":"AU-NSW","municipality":"Auburn","scheduled_service":"no","gps_code":"YXAU","local_code":"YXAU"},"geometry":{"type":"Point","coordinates":[151.040833,-33.858333]}},{"id":"38235","type":"Feature","properties":{"ident":"YAUA","type":"small_airport","name":"Augathella Airport","continent":"OC","iso_country":"AU","iso_region":"AU-QLD","scheduled_service":"no","gps_code":"YAUA"},"geometry":{"type":"Point","coordinates":[146.587006,-25.754999]}},{"id":"27319","type":"Feature","properties":{"ident":"YAGD","type":"small_airport","name":"Augustus Downs Airport","elevation_ft":"46","continent":"OC","iso_country":"AU","iso_region":"AU-QLD","scheduled_service":"no","gps_code":"YAGD","iata_code":"AUD"},"geometry":{"type":"Point","coordinates":[139.878006,-18.514999]}},{"id":"26894","type":"Feature","properties":{"ident":"YAUR","type":"small_airport","name":"Aurukun Airport","elevation_ft":"31","continent":"OC","iso_country":"AU","iso_region":"AU-QLD","municipality":"Aurukun","scheduled_service":"yes","gps_code":"YAUR","iata_code":"AUU","wikipedia_link":"https://en.wikipedia.org/wiki/Aurukun_Airport"},"geometry":{"type":"Point","coordinates":[141.720028,-13.354019]}},{"id":"334073","type":"Feature","properties":{"ident":"AU-0146","type":"heliport","name":"Aussies - Austral Bricks Helicopter landing Site","elevation_ft":"190","continent":"OC","iso_country":"AU","iso_region":"AU-NSW","municipality":"Horsley Park","scheduled_service":"no","local_code":"OZHAG"},"geometry":{"type":"Point","coordinates":[150.811172,-33.829553]}},{"id":"27347","type":"Feature","properties":{"ident":"YAUS","type":"small_airport","name":"Austral Downs Airport","continent":"OC","iso_country":"AU","iso_region":"AU-NT","scheduled_service":"no","gps_code":"YAUS","iata_code":"AWP"},"geometry":{"type":"Point","coordinates":[137.75,-20.5]}},{"id":"506641","type":"Feature","properties":{"ident":"YAOD","type":"heliport","name":"Australian Age of Dinosaurs Helicopter Landing Site","elevation_ft":"899","continent":"OC","iso_country":"AU","iso_region":"AU-QLD","municipality":"Australian Age of Dinosaurs Museum","scheduled_service":"no","gps_code":"YAOD"},"geometry":{"type":"Point","coordinates":[143.1825,-22.48]}},{"id":"27348","type":"Feature","properties":{"ident":"YAUV","type":"small_airport","name":"Auvergne Airport","continent":"OC","iso_country":"AU","iso_region":"AU-NT","scheduled_service":"no","gps_code":"YAUV","iata_code":"AVG"},"geometry":{"type":"Point","coordinates":[130,-15.7]}},{"id":"27043","type":"Feature","properties":{"ident":"YMAV","type":"medium_airport","name":"Avalon Airport","elevation_ft":"35","continent":"OC","iso_country":"AU","iso_region":"AU-VIC","municipality":"Lara","scheduled_service":"yes","gps_code":"YMAV","iata_code":"AVV","home_link":"https://www.avalonairport.com.au/","wikipedia_link":"https://en.wikipedia.org/wiki/Avalon_Airport","keywords":"Lara, Geelong"},"geometry":{"type":"Point","coordinates":[144.468994,-38.039398]}},{"id":"38218","type":"Feature","properties":{"ident":"AU-0019","type":"small_airport","name":"Avoca Airport","elevation_ft":"700","continent":"OC","iso_country":"AU","iso_region":"AU-TAS","municipality":"Avoca","scheduled_service":"no"},"geometry":{"type":"Point","coordinates":[147.719406,-41.7817]}},{"id":"27349","type":"Feature","properties":{"ident":"YAVD","type":"small_airport","name":"Avon Downs Airport","continent":"OC","iso_country":"AU","iso_region":"AU-NT","scheduled_service":"no","gps_code":"YAVD"},"geometry":{"type":"Point","coordinates":[137.516998,-20.0333]}},{"id":"27350","type":"Feature","properties":{"ident":"YAVM","type":"small_airport","name":"Avonmore Airport","continent":"OC","iso_country":"AU","iso_region":"AU-VIC","scheduled_service":"no","gps_code":"YAVM"},"geometry":{"type":"Point","coordinates":[144.550003,-36.5667]}},{"id":"26895","type":"Feature","properties":{"ident":"YAYE","type":"medium_airport","name":"Ayers Rock Connellan Airport","elevation_ft":"1626","continent":"OC","iso_country":"AU","iso_region":"AU-NT","municipality":"Yulara","scheduled_service":"yes","gps_code":"YAYE","iata_code":"AYQ","wikipedia_link":"https://en.wikipedia.org/wiki/Ayers_Rock_Airport","keywords":"Ayers Rock,Uluru"},"geometry":{"type":"Point","coordinates":[130.97703,-25.185913]}},{"id":"26896","type":"Feature","properties":{"ident":"YAYR","type":"small_airport","name":"Ayr Airport","elevation_ft":"41","continent":"OC","iso_country":"AU","iso_region":"AU-QLD","municipality":"Ayr","scheduled_service":"no","gps_code":"YAYR","iata_code":"AYR"},"geometry":{"type":"Point","coordinates":[147.324495,-19.595832]}},{"id":"309835","type":"Feature","properties":{"ident":"AU-0070","type":"heliport","name":"Baal Bone Colliery Helipad","elevation_ft":"2840","continent":"OC","iso_country":"AU","iso_region":"AU-NSW","municipality":"Lithgow","scheduled_service":"no","local_code":"OZHDW"},"geometry":{"type":"Point","coordinates":[150.05846,-33.26958]}},{"id":"27417","type":"Feature","properties":{"ident":"YBSS","type":"small_airport","name":"Bacchus Marsh Airport","elevation_ft":"520","continent":"OC","iso_country":"AU","iso_region":"AU-VIC","municipality":"Bacchus Marsh","scheduled_service":"no","gps_code":"YBSS","wikipedia_link":"https://en.wikipedia.org/wiki/Bacchus_Marsh_Airfield"},"geometry":{"type":"Point","coordinates":[144.421667,-37.733333]}},{"id":"521416","type":"Feature","properties":{"ident":"AU-0631","type":"heliport","name":"Bacchus Marsh and Melton Regional Hospital Heliport","elevation_ft":"351","continent":"OC","iso_country":"AU","iso_region":"AU-VIC","municipality":"Bacchus Marsh","scheduled_service":"no"},"geometry":{"type":"Point","coordinates":[144.434386,-37.678335]}},{"id":"27548","type":"Feature","properties":{"ident":"YELS","type":"small_airport","name":"Baddaginnie (Earlston) Airport","continent":"OC","iso_country":"AU","iso_region":"AU-VIC","municipality":"Baddaginnie","scheduled_service":"no","gps_code":"YELS"},"geometry":{"type":"Point","coordinates":[145.805061,-36.551196]}},{"id":"354342","type":"Feature","properties":{"ident":"AU-0451","type":"small_airport","name":"Badger Island Airport","elevation_ft":"41","continent":"OC","iso_country":"AU","iso_region":"AU-TAS","municipality":"Badger Island","scheduled_service":"no","gps_code":"YBDI"},"geometry":{"type":"Point","coordinates":[147.88957,-40.318729]}},{"id":"27355","type":"Feature","properties":{"ident":"YBAU","type":"small_airport","name":"Badu Island Airport","elevation_ft":"14","continent":"OC","iso_country":"AU","iso_region":"AU-QLD","municipality":"Badu Island","scheduled_service":"yes","gps_code":"YBAU","iata_code":"BDD","wikipedia_link":"https://en.wikipedia.org/wiki/Badu_Island_Airport"},"geometry":{"type":"Point","coordinates":[142.173665,-10.14955]}},{"id":"38396","type":"Feature","properties":{"ident":"YIKL","type":"small_airport","name":"Baikal Airport","continent":"OC","iso_country":"AU","iso_region":"AU-NT","scheduled_service":"no","gps_code":"YIKL"},"geometry":{"type":"Point","coordinates":[136.162994,-22.7633]}},{"id":"26921","type":"Feature","properties":{"ident":"YBNS","type":"medium_airport","name":"Bairnsdale Airport","elevation_ft":"165","continent":"OC","iso_country":"AU","iso_region":"AU-VIC","municipality":"Bairnsdale","scheduled_service":"no","gps_code":"YBNS","iata_code":"BSJ","home_link":"https://www.eastgippsland.vic.gov.au/aerodromes/bairnsdale-airport","wikipedia_link":"https://en.wikipedia.org/wiki/Bairnsdale_Airport"},"geometry":{"type":"Point","coordinates":[147.569379,-37.887539]}},{"id":"29680","type":"Feature","properties":{"ident":"YASS","type":"small_airport","name":"Bakblok Airport","elevation_ft":"1624","continent":"OC","iso_country":"AU","iso_region":"AU-NSW","scheduled_service":"no","gps_code":"YASS"},"geometry":{"type":"Point","coordinates":[149.014999,-34.8867]}},{"id":"27424","type":"Feature","properties":{"ident":"YBVA","type":"small_airport","name":"Balaklava Airport","continent":"OC","iso_country":"AU","iso_region":"AU-SA","scheduled_service":"no","gps_code":"YBVA"},"geometry":{"type":"Point","coordinates":[138.339801,-34.090958]}},{"id":"333858","type":"Feature","properties":{"ident":"YBII","type":"small_airport","name":"Balbirini Airfield","elevation_ft":"254","continent":"OC","iso_country":"AU","iso_region":"AU-NT","scheduled_service":"no","gps_code":"YBII"},"geometry":{"type":"Point","coordinates":[135.736915,-16.72373]}},{"id":"27388","type":"Feature","properties":{"ident":"YBLC","type":"small_airport","name":"Balcanoona Airport","elevation_ft":"144","continent":"OC","iso_country":"AU","iso_region":"AU-SA","scheduled_service":"no","gps_code":"YBLC","iata_code":"LCN","wikipedia_link":"https://en.wikipedia.org/wiki/Balcanoona_Airport"},"geometry":{"type":"Point","coordinates":[139.337006,-30.535]}},{"id":"506897","type":"Feature","properties":{"ident":"YBLI","type":"small_airport","name":"Bald Hills Airport","elevation_ft":"4042","continent":"OC","iso_country":"AU","iso_region":"AU-NSW","municipality":"Hernani","scheduled_service":"no","gps_code":"YBLI"},"geometry":{"type":"Point","coordinates":[152.458323,-30.330653]}},{"id":"27373","type":"Feature","properties":{"ident":"YBFR","type":"small_airport","name":"Balfour Airport","continent":"OC","iso_country":"AU","iso_region":"AU-TAS","scheduled_service":"no","gps_code":"YBFR"},"geometry":{"type":"Point","coordinates":[144.886065,-41.259033]}},{"id":"27374","type":"Feature","properties":{"ident":"YBGI","type":"small_airport","name":"Balgair Airport","continent":"OC","iso_country":"AU","iso_region":"AU-WA","scheduled_service":"no","gps_code":"YBGI"},"geometry":{"type":"Point","coordinates":[125.667,-31.0667]}},{"id":"27375","type":"Feature","properties":{"ident":"YBGO","type":"small_airport","name":"Balgo Hill Airport","elevation_ft":"1440","continent":"OC","iso_country":"AU","iso_region":"AU-WA","municipality":"Balgo","scheduled_service":"no","gps_code":"YBGO","iata_code":"BQW","wikipedia_link":"https://en.wikipedia.org/wiki/Balgo_Hill_Airport"},"geometry":{"type":"Point","coordinates":[127.973,-20.1483]}},{"id":"27354","type":"Feature","properties":{"ident":"YBAL","type":"small_airport","name":"Balladonia Airport","continent":"OC","iso_country":"AU","iso_region":"AU-WA","scheduled_service":"no","gps_code":"YBAL"},"geometry":{"type":"Point","coordinates":[123.614945,-32.346793]}},{"id":"26916","type":"Feature","properties":{"ident":"YBLT","type":"small_airport","name":"Ballarat Airport","elevation_ft":"1433","continent":"OC","iso_country":"AU","iso_region":"AU-VIC","scheduled_service":"no","gps_code":"YBLT","wikipedia_link":"https://en.wikipedia.org/wiki/Ballarat_Airport"},"geometry":{"type":"Point","coordinates":[143.791,-37.5117]}},{"id":"506699","type":"Feature","properties":{"ident":"YXBT","type":"small_airport","name":"Ballarat Health Service Helipad","elevation_ft":"1516","continent":"OC","iso_country":"AU","iso_region":"AU-VIC","municipality":"Ballarat","scheduled_service":"no","gps_code":"YXBT"},"geometry":{"type":"Point","coordinates":[143.845685,-37.559121]}},{"id":"27036","type":"Feature","properties":{"ident":"YLLE","type":"small_airport","name":"Ballera Airport","elevation_ft":"385","continent":"OC","iso_country":"AU","iso_region":"AU-QLD","scheduled_service":"no","gps_code":"YLLE","iata_code":"BBL","wikipedia_link":"https://en.wikipedia.org/wiki/Ballera_Airport"},"geometry":{"type":"Point","coordinates":[141.809458,-27.405633]}},{"id":"27384","type":"Feature","properties":{"ident":"YBIU","type":"small_airport","name":"Ballidu Airport","continent":"OC","iso_country":"AU","iso_region":"AU-WA","scheduled_service":"no","gps_code":"YBIU"},"geometry":{"type":"Point","coordinates":[116.779999,-30.5933]}},{"id":"309186","type":"Feature","properties":{"ident":"YXBA","type":"heliport","name":"Ballina - Kingsford Smith Park Helipad","elevation_ft":"17","continent":"OC","iso_country":"AU","iso_region":"AU-NSW","municipality":"Ballina","scheduled_service":"no","gps_code":"YXBA","local_code":"YXBA"},"geometry":{"type":"Point","coordinates":[153.5713,-28.8692]}},{"id":"26920","type":"Feature","properties":{"ident":"YBNA","type":"medium_airport","name":"Ballina Byron Gateway Airport","elevation_ft":"7","continent":"OC","iso_country":"AU","iso_region":"AU-NSW","municipality":"Ballina","scheduled_service":"yes","gps_code":"YBNA","iata_code":"BNK","wikipedia_link":"https://en.wikipedia.org/wiki/Ballina_Airport"},"geometry":{"type":"Point","coordinates":[153.561471,-28.833236]}},{"id":"352823","type":"Feature","properties":{"ident":"AU-0409","type":"small_airport","name":"Ballycastle homestead airstrip","continent":"OC","iso_country":"AU","iso_region":"AU-NSW","municipality":"Ballycastle homestead","scheduled_service":"no"},"geometry":{"type":"Point","coordinates":[145.058815,-30.186026]}},{"id":"333860","type":"Feature","properties":{"ident":"AU-0117","type":"small_airport","name":"Balma Airfield","elevation_ft":"37","continent":"OC","iso_country":"AU","iso_region":"AU-NT","scheduled_service":"no"},"geometry":{"type":"Point","coordinates":[135.848699,-13.247423]}},{"id":"26928","type":"Feature","properties":{"ident":"YBRN","type":"medium_airport","name":"Balranald Airport","elevation_ft":"210","continent":"OC","iso_country":"AU","iso_region":"AU-NSW","scheduled_service":"no","gps_code":"YBRN","iata_code":"BZD","home_link":"https://balranald.nsw.gov.au/infrastructure/balranald-aerodrome/","wikipedia_link":"https://en.wikipedia.org/wiki/Balranald_Airport"},"geometry":{"type":"Point","coordinates":[143.577114,-34.624834]}},{"id":"27396","type":"Feature","properties":{"ident":"YBMM","type":"small_airport","name":"Bamawm Airport","continent":"OC","iso_country":"AU","iso_region":"AU-VIC","scheduled_service":"no","gps_code":"YBMM"},"geometry":{"type":"Point","coordinates":[144.632996,-36.25]}},{"id":"38238","type":"Feature","properties":{"ident":"YBBC","type":"small_airport","name":"Bamboo Creek Airport","continent":"OC","iso_country":"AU","iso_region":"AU-WA","municipality":"Bamboo Creek Gold Mine","scheduled_service":"no","gps_code":"YBBC"},"geometry":{"type":"Point","coordinates":[120.165001,-20.944599]}},{"id":"27397","type":"Feature","properties":{"ident":"YBMY","type":"small_airport","name":"Bamyili Airport","elevation_ft":"215","continent":"OC","iso_country":"AU","iso_region":"AU-NT","scheduled_service":"no","gps_code":"YBMY"},"geometry":{"type":"Point","coordinates":[132.882996,-14.52]}},{"id":"333861","type":"Feature","properties":{"ident":"AU-0118","type":"small_airport","name":"Ban Ban Airfield","elevation_ft":"394","continent":"OC","iso_country":"AU","iso_region":"AU-NT","municipality":"Ban Ban Springs","scheduled_service":"no"},"geometry":{"type":"Point","coordinates":[131.495318,-13.376886]}},{"id":"30808","type":"Feature","properties":{"ident":"AU-BYX","type":"small_airport","name":"Baniyala Airport","elevation_ft":"20","continent":"OC","iso_country":"AU","iso_region":"AU-NT","municipality":"Baniyala","scheduled_service":"no","gps_code":"YBNI","iata_code":"BYX"},"geometry":{"type":"Point","coordinates":[136.227005,-13.1981]}},{"id":"27386","type":"Feature","properties":{"ident":"YBJW","type":"small_airport","name":"Banjawarn Airport","continent":"OC","iso_country":"AU","iso_region":"AU-WA","scheduled_service":"no","gps_code":"YBJW"},"geometry":{"type":"Point","coordinates":[121.599998,-27.6667]}},{"id":"333862","type":"Feature","properties":{"ident":"AU-0119","type":"small_airport","name":"Banka Banka Airstrip","elevation_ft":"969","continent":"OC","iso_country":"AU","iso_region":"AU-NT","municipality":"Tablelands","scheduled_service":"no"},"geometry":{"type":"Point","coordinates":[134.039619,-18.79853]}},{"id":"334118","type":"Feature","properties":{"ident":"AU-0164","type":"heliport","name":"Bankstown - City Sports Complex HLS","elevation_ft":"82","continent":"OC","iso_country":"AU","iso_region":"AU-NSW","municipality":"Bankstown","scheduled_service":"no","local_code":"OZHAQ"},"geometry":{"type":"Point","coordinates":[151.023045,-33.926981]}},{"id":"27398","type":"Feature","properties":{"ident":"YBNC","type":"small_airport","name":"Bannockburn Airport","continent":"OC","iso_country":"AU","iso_region":"AU-QLD","scheduled_service":"no","gps_code":"YBNC"},"geometry":{"type":"Point","coordinates":[145.082993,-21.799999]}},{"id":"27352","type":"Feature","properties":{"ident":"YBAD","type":"small_airport","name":"Baradine Airport","continent":"OC","iso_country":"AU","iso_region":"AU-NSW","scheduled_service":"no","gps_code":"YBAD"},"geometry":{"type":"Point","coordinates":[149.091995,-30.955]}},{"id":"334074","type":"Feature","properties":{"ident":"AU-0147","type":"heliport","name":"Baradine Oval Helicopter landing Site,","elevation_ft":"986","continent":"OC","iso_country":"AU","iso_region":"AU-NSW","municipality":"Baradine","scheduled_service":"no","local_code":"OZHAH"},"geometry":{"type":"Point","coordinates":[149.065167,-30.951667]}},{"id":"298805","type":"Feature","properties":{"ident":"YBAB","type":"small_airport","name":"Baralaba","elevation_ft":"340","continent":"OC","iso_country":"AU","iso_region":"AU-QLD","municipality":"Baralaba","scheduled_service":"no","gps_code":"YBAB"},"geometry":{"type":"Point","coordinates":[149.843166,-24.19357]}},{"id":"26899","type":"Feature","properties":{"ident":"YBAR","type":"medium_airport","name":"Barcaldine Airport","elevation_ft":"878","continent":"OC","iso_country":"AU","iso_region":"AU-QLD","municipality":"Barcaldine","scheduled_service":"yes","gps_code":"YBAR","iata_code":"BCI","wikipedia_link":"https://en.wikipedia.org/wiki/Barcaldine_Airport"},"geometry":{"type":"Point","coordinates":[145.302086,-23.566268]}},{"id":"26930","type":"Feature","properties":{"ident":"YBRY","type":"small_airport","name":"Barimunya Airport","elevation_ft":"2082","continent":"OC","iso_country":"AU","iso_region":"AU-WA","scheduled_service":"no","gps_code":"YBRY","iata_code":"BYP","wikipedia_link":"https://en.wikipedia.org/wiki/Barimunya_Airport"},"geometry":{"type":"Point","coordinates":[119.166,-22.673901]}},{"id":"27356","type":"Feature","properties":{"ident":"YBAW","type":"small_airport","name":"Barkly Downs Airport","elevation_ft":"810","continent":"OC","iso_country":"AU","iso_region":"AU-QLD","scheduled_service":"no","gps_code":"YBAW","iata_code":"BKP"},"geometry":{"type":"Point","coordinates":[138.474722,-20.495833]}},{"id":"38250","type":"Feature","properties":{"ident":"YBKS","type":"small_airport","name":"Barkly Wayside Inn Airport","continent":"OC","iso_country":"AU","iso_region":"AU-NT","scheduled_service":"no","gps_code":"YBKS"},"geometry":{"type":"Point","coordinates":[135.819,-19.7092]}},{"id":"38253","type":"Feature","properties":{"ident":"YBMR","type":"small_airport","name":"Barmera Airport","continent":"OC","iso_country":"AU","iso_region":"AU-SA","scheduled_service":"no","gps_code":"YBMR"},"geometry":{"type":"Point","coordinates":[140.476792,-34.23469]}},{"id":"27357","type":"Feature","properties":{"ident":"YBBA","type":"small_airport","name":"Barraba Airport","continent":"OC","iso_country":"AU","iso_region":"AU-NSW","scheduled_service":"no","gps_code":"YBBA"},"geometry":{"type":"Point","coordinates":[150.597678,-30.393709]}},{"id":"506645","type":"Feature","properties":{"ident":"YUTA","type":"heliport","name":"Barracouta Platform Helipad","elevation_ft":"100","continent":"OC","iso_country":"AU","iso_region":"AU-VIC","scheduled_service":"no","gps_code":"YUTA"},"geometry":{"type":"Point","coordinates":[147.676063,-38.296874]}},{"id":"38244","type":"Feature","properties":{"ident":"YBDX","type":"small_airport","name":"Barradale Airport","continent":"OC","iso_country":"AU","iso_region":"AU-WA","scheduled_service":"no","gps_code":"YBDX"},"geometry":{"type":"Point","coordinates":[114.962997,-22.8633]}},{"id":"352716","type":"Feature","properties":{"ident":"AU-0388","type":"small_airport","name":"Barraroo Airstrip","continent":"OC","iso_country":"AU","iso_region":"AU-NSW","municipality":"Barraroo","scheduled_service":"no"},"geometry":{"type":"Point","coordinates":[142.982026,-32.117535]}},{"id":"351753","type":"Feature","properties":{"ident":"AU-0295","type":"small_airport","name":"Barrkira Airport","continent":"OC","iso_country":"AU","iso_region":"AU-NT","municipality":"Barrkira","scheduled_service":"no"},"geometry":{"type":"Point","coordinates":[136.469199,-12.008604]}},{"id":"38256","type":"Feature","properties":{"ident":"YBRC","type":"small_airport","name":"Barrow Creek Airport","continent":"OC","iso_country":"AU","iso_region":"AU-NT","scheduled_service":"no","gps_code":"YBRC"},"geometry":{"type":"Point","coordinates":[133.871959,-21.542202]}},{"id":"26940","type":"Feature","properties":{"ident":"YBWX","type":"small_airport","name":"Barrow Island Airport","elevation_ft":"26","continent":"OC","iso_country":"AU","iso_region":"AU-WA","scheduled_service":"no","gps_code":"YBWX","iata_code":"BWB","wikipedia_link":"https://en.wikipedia.org/wiki/Barrow_Island_Airport"},"geometry":{"type":"Point","coordinates":[115.405998,-20.864401]}},{"id":"38257","type":"Feature","properties":{"ident":"YBTN","type":"small_airport","name":"Barton Siding Airport","continent":"OC","iso_country":"AU","iso_region":"AU-SA","scheduled_service":"no","gps_code":"YBTN"},"geometry":{"type":"Point","coordinates":[132.675254,-30.524589]}},{"id":"27413","type":"Feature","properties":{"ident":"YBRS","type":"small_airport","name":"Barwon Heads Airport","elevation_ft":"50","continent":"OC","iso_country":"AU","iso_region":"AU-VIC","municipality":"Connewarre","scheduled_service":"no","gps_code":"YBRS","home_link":"https://barwonheadsairport.com.au/","wikipedia_link":"https://en.wikipedia.org/wiki/Barwon_Heads_Airport"},"geometry":{"type":"Point","coordinates":[144.427895,-38.256145]}},{"id":"309363","type":"Feature","properties":{"ident":"YBYL","type":"small_airport","name":"Baryulgil Airstrip","elevation_ft":"422","continent":"OC","iso_country":"AU","iso_region":"AU-NSW","municipality":"Baryulgil","scheduled_service":"no","gps_code":"YBYL"},"geometry":{"type":"Point","coordinates":[152.61611,-29.21829]}},{"id":"38259","type":"Feature","properties":{"ident":"YBTV","type":"small_airport","name":"Batavia Downs Airport","continent":"OC","iso_country":"AU","iso_region":"AU-QLD","scheduled_service":"no","gps_code":"YBTV","iata_code":"BVW","wikipedia_link":"https://en.wikipedia.org/wiki/Batavia_Downs_Airport"},"geometry":{"type":"Point","coordinates":[142.675003,-12.6592]}},{"id":"27363","type":"Feature","properties":{"ident":"YBCR","type":"small_airport","name":"Batchelor Airport","continent":"OC","iso_country":"AU","iso_region":"AU-NT","scheduled_service":"no","gps_code":"YBCR","wikipedia_link":"https://en.wikipedia.org/wiki/Batchelor_Airfield"},"geometry":{"type":"Point","coordinates":[131.028804,-13.05663]}},{"id":"335456","type":"Feature","properties":{"ident":"AU-0168","type":"heliport","name":"Batemans Bay ALT Hanging Rock HLS","elevation_ft":"39","continent":"OC","iso_country":"AU","iso_region":"AU-NSW","municipality":"Batemans Bay","scheduled_service":"no","local_code":"OZHJV"},"geometry":{"type":"Point","coordinates":[150.1955,-35.721]}},{"id":"309190","type":"Feature","properties":{"ident":"YXBM","type":"heliport","name":"Batemans Bay Helipad","elevation_ft":"3","continent":"OC","iso_country":"AU","iso_region":"AU-NSW","municipality":"Batemans Bay","scheduled_service":"no","gps_code":"YXBM","local_code":"YXBM"},"geometry":{"type":"Point","coordinates":[150.1872,-35.71301]}},{"id":"335457","type":"Feature","properties":{"ident":"AU-0169","type":"heliport","name":"Batemans Bay Mackay Park HLS","elevation_ft":"46","continent":"OC","iso_country":"AU","iso_region":"AU-NSW","municipality":"Batemans Bay","scheduled_service":"no","local_code":"OZHJU"},"geometry":{"type":"Point","coordinates":[150.172621,-35.708915]}},{"id":"26932","type":"Feature","properties":{"ident":"YBTH","type":"medium_airport","name":"Bathurst Airport","elevation_ft":"2435","continent":"OC","iso_country":"AU","iso_region":"AU-NSW","municipality":"Bathurst","scheduled_service":"yes","gps_code":"YBTH","iata_code":"BHS","wikipedia_link":"https://en.wikipedia.org/wiki/Bathurst_Airport_(New_South_Wales)"},"geometry":{"type":"Point","coordinates":[149.651161,-33.406817]}},{"id":"27379","type":"Feature","properties":{"ident":"YBHB","type":"small_airport","name":"Bathurst Harbour Airport","continent":"OC","iso_country":"AU","iso_region":"AU-TAS","municipality":"Southwest","scheduled_service":"no","gps_code":"YBHB","keywords":"Melaleuca"},"geometry":{"type":"Point","coordinates":[146.162131,-43.421336]}},{"id":"335461","type":"Feature","properties":{"ident":"AU-0170","type":"heliport","name":"Bathurst Hospital Alternate (Victoria Park) Helipad","elevation_ft":"2160","continent":"OC","iso_country":"AU","iso_region":"AU-NSW","municipality":"Bathurst","scheduled_service":"no","local_code":"OZHJF"},"geometry":{"type":"Point","coordinates":[149.574115,-33.407196]}},{"id":"335459","type":"Feature","properties":{"ident":"YXBH","type":"heliport","name":"Bathurst Hospital Helipad","elevation_ft":"2240","continent":"OC","iso_country":"AU","iso_region":"AU-NSW","municipality":"Bathurst","scheduled_service":"no","gps_code":"YXBH"},"geometry":{"type":"Point","coordinates":[149.571884,-33.40587]}},{"id":"26933","type":"Feature","properties":{"ident":"YBTI","type":"medium_airport","name":"Bathurst Island Airport","elevation_ft":"67","continent":"OC","iso_country":"AU","iso_region":"AU-NT","municipality":"Wurrumiyanga","scheduled_service":"no","gps_code":"YBTI","iata_code":"BRT","wikipedia_link":"https://en.wikipedia.org/wiki/Bathurst_Island_Airport"},"geometry":{"type":"Point","coordinates":[130.615774,-11.764966]}},{"id":"354833","type":"Feature","properties":{"ident":"AU-0462","type":"heliport","name":"Batlow Showground Helicopter Landing Site","elevation_ft":"2500","continent":"OC","iso_country":"AU","iso_region":"AU-NSW","municipality":"Batlow","scheduled_service":"no","local_code":"OZHKN"},"geometry":{"type":"Point","coordinates":[148.153639,-35.520002]}},{"id":"38258","type":"Feature","properties":{"ident":"YBTS","type":"small_airport","name":"Battery Downs Airport","continent":"OC","iso_country":"AU","iso_region":"AU-QLD","scheduled_service":"no","gps_code":"YBTS"},"geometry":{"type":"Point","coordinates":[145.850006,-19.4333]}},{"id":"508154","type":"Feature","properties":{"ident":"AU-0587","type":"small_airport","name":"Battle Mountain Airport","continent":"OC","iso_country":"AU","iso_region":"AU-WA","municipality":"Kumarina WA 6642","scheduled_service":"no"},"geometry":{"type":"Point","coordinates":[119.609098,-25.202068]}},{"id":"27353","type":"Feature","properties":{"ident":"YBAH","type":"small_airport","name":"Bauhinia Downs Airport","continent":"OC","iso_country":"AU","iso_region":"AU-NT","scheduled_service":"no","gps_code":"YBAH"},"geometry":{"type":"Point","coordinates":[135.466995,-16.133301]}},{"id":"334077","type":"Feature","properties":{"ident":"AU-0150","type":"heliport","name":"Baulkham Hills Private Hospital Helicopter Landing Site","elevation_ft":"317","continent":"OC","iso_country":"AU","iso_region":"AU-NSW","municipality":"Baulkham Hills","scheduled_service":"no","local_code":"OZHAN"},"geometry":{"type":"Point","coordinates":[150.990617,-33.744812]}},{"id":"333863","type":"Feature","properties":{"ident":"AU-0120","type":"small_airport","name":"Baygurrtji Airfield","continent":"OC","iso_country":"AU","iso_region":"AU-NT","scheduled_service":"no"},"geometry":{"type":"Point","coordinates":[135.817344,-13.146384]}},{"id":"38270","type":"Feature","properties":{"ident":"YBYW","type":"small_airport","name":"Bayswater Airport","continent":"OC","iso_country":"AU","iso_region":"AU-QLD","scheduled_service":"no","gps_code":"YBYW"},"geometry":{"type":"Point","coordinates":[145.582993,-25.450001]}},{"id":"38245","type":"Feature","properties":{"ident":"YBEC","type":"small_airport","name":"Beacon Airport","continent":"OC","iso_country":"AU","iso_region":"AU-WA","scheduled_service":"no","gps_code":"YBEC"},"geometry":{"type":"Point","coordinates":[117.879932,-30.474864]}},{"id":"38248","type":"Feature","properties":{"ident":"YBGB","type":"small_airport","name":"Beagle Bay Airport","elevation_ft":"124","continent":"OC","iso_country":"AU","iso_region":"AU-WA","municipality":"Dampier Peninsula","scheduled_service":"no","gps_code":"YBGB","iata_code":"BEE"},"geometry":{"type":"Point","coordinates":[122.6464,-17.0165]}},{"id":"505127","type":"Feature","properties":{"ident":"AU-0514","type":"small_airport","name":"Beagle Bay Airport","continent":"OC","iso_country":"AU","iso_region":"AU-QLD","municipality":"Mission River","scheduled_service":"no"},"geometry":{"type":"Point","coordinates":[141.69836,-12.904048]}},{"id":"309215","type":"Feature","properties":{"ident":"YXBS","type":"heliport","name":"Beaudesert Hospital Helipad","elevation_ft":"265","continent":"OC","iso_country":"AU","iso_region":"AU-QLD","municipality":"Beaudesert","scheduled_service":"no","gps_code":"YXBS","local_code":"YXBS"},"geometry":{"type":"Point","coordinates":[153.002345,-27.98571]}},{"id":"298810","type":"Feature","properties":{"ident":"YBFT","type":"small_airport","name":"Beaufort","elevation_ft":"1300","continent":"OC","iso_country":"AU","iso_region":"AU-VIC","scheduled_service":"no","gps_code":"YBFT"},"geometry":{"type":"Point","coordinates":[143.43,-37.495]}},{"id":"38246","type":"Feature","properties":{"ident":"YBEF","type":"small_airport","name":"Beaufort Airport","continent":"OC","iso_country":"AU","iso_region":"AU-VIC","scheduled_service":"no","gps_code":"YBEF"},"geometry":{"type":"Point","coordinates":[143.25,-37.450001]}},{"id":"38242","type":"Feature","properties":{"ident":"YBDF","type":"small_airport","name":"Bedford Downs Airport","elevation_ft":"1750","continent":"OC","iso_country":"AU","iso_region":"AU-WA","scheduled_service":"no","gps_code":"YBDF","iata_code":"BDW"},"geometry":{"type":"Point","coordinates":[127.462997,-17.286699]}},{"id":"26910","type":"Feature","properties":{"ident":"YBIE","type":"medium_airport","name":"Bedourie Airport","elevation_ft":"300","continent":"OC","iso_country":"AU","iso_region":"AU-QLD","scheduled_service":"yes","gps_code":"YBIE","iata_code":"BEU","wikipedia_link":"https://en.wikipedia.org/wiki/Bedourie_Airport"},"geometry":{"type":"Point","coordinates":[139.460007,-24.3461]}},{"id":"508311","type":"Feature","properties":{"ident":"AU-0594","type":"small_airport","name":"Beeantha station airstrip","continent":"OC","iso_country":"AU","iso_region":"AU-QLD","municipality":"Beeantha","scheduled_service":"no"},"geometry":{"type":"Point","coordinates":[142.19965,-20.307442]}},{"id":"38247","type":"Feature","properties":{"ident":"YBEW","type":"small_airport","name":"Beechworth Airstrip","continent":"OC","iso_country":"AU","iso_region":"AU-NSW","scheduled_service":"no","gps_code":"YBEW"},"geometry":{"type":"Point","coordinates":[144.645553,-31.916678]}},{"id":"27361","type":"Feature","properties":{"ident":"YBCH","type":"small_airport","name":"Beechworth Airstrip","elevation_ft":"2000","continent":"OC","iso_country":"AU","iso_region":"AU-VIC","municipality":"Beechworth","scheduled_service":"no","gps_code":"YBCH"},"geometry":{"type":"Point","coordinates":[146.696389,-36.393333]}},{"id":"354555","type":"Feature","properties":{"ident":"YAIR","type":"small_airport","name":"Beela Airstrip","elevation_ft":"664","continent":"OC","iso_country":"AU","iso_region":"AU-NSW","municipality":"Moree","scheduled_service":"no","gps_code":"YAIR"},"geometry":{"type":"Point","coordinates":[149.869974,-29.396309]}},{"id":"334044","type":"Feature","properties":{"ident":"YXBV","type":"heliport","name":"Bega Hospital Heliport","elevation_ft":"68","continent":"OC","iso_country":"AU","iso_region":"AU-NSW","municipality":"Bega","scheduled_service":"no","gps_code":"YXBV","local_code":"YXBV"},"geometry":{"type":"Point","coordinates":[149.858596,-36.687887]}},{"id":"27543","type":"Feature","properties":{"ident":"YELE","type":"small_airport","name":"Belele Airport","continent":"OC","iso_country":"AU","iso_region":"AU-WA","scheduled_service":"no","gps_code":"YELE"},"geometry":{"type":"Point","coordinates":[118.039175,-26.367431]}},{"id":"27390","type":"Feature","properties":{"ident":"YBLH","type":"small_airport","name":"Bellalie Airport","continent":"OC","iso_country":"AU","iso_region":"AU-QLD","scheduled_service":"no","gps_code":"YBLH"},"geometry":{"type":"Point","coordinates":[142.958236,-27.011318]}},{"id":"352831","type":"Feature","properties":{"ident":"AU-0417","type":"small_airport","name":"Bellbrae private airstrip","continent":"OC","iso_country":"AU","iso_region":"AU-VIC","municipality":"BellBrae","scheduled_service":"no"},"geometry":{"type":"Point","coordinates":[144.236209,-38.32697]}},{"id":"298808","type":"Feature","properties":{"ident":"YBEB","type":"small_airport","name":"Bellburn Airstrip","elevation_ft":"810","continent":"OC","iso_country":"AU","iso_region":"AU-WA","municipality":"Pumululu National Park","scheduled_service":"no","gps_code":"YBEB","iata_code":"BXF","keywords":"Bungle Bungles"},"geometry":{"type":"Point","coordinates":[128.305,-17.545]}},{"id":"27392","type":"Feature","properties":{"ident":"YBLU","type":"small_airport","name":"Bellevue Airport","elevation_ft":"1555","continent":"OC","iso_country":"AU","iso_region":"AU-WA","scheduled_service":"no","gps_code":"YBLU","wikipedia_link":"https://en.wikipedia.org/wiki/Bellevue_Airport"},"geometry":{"type":"Point","coordinates":[120.594435,-27.612302]}},{"id":"505130","type":"Feature","properties":{"ident":"AU-0516","type":"small_airport","name":"Bellevue Airport","continent":"OC","iso_country":"AU","iso_region":"AU-QLD","municipality":"Bellevue","scheduled_service":"no"},"geometry":{"type":"Point","coordinates":[144.18378,-16.51297]}},{"id":"334045","type":"Feature","properties":{"ident":"YXEG","type":"heliport","name":"Bellingen Medical - Connell Park HLS","elevation_ft":"40","continent":"OC","iso_country":"AU","iso_region":"AU-NSW","municipality":"Bellingen","scheduled_service":"no","gps_code":"YXEG","local_code":"YXEG"},"geometry":{"type":"Point","coordinates":[152.901771,-30.453613]}},{"id":"526764","type":"Feature","properties":{"ident":"YAMO","type":"small_airport","name":"Belyando Airstrip","elevation_ft":"689","continent":"OC","iso_country":"AU","iso_region":"AU-QLD","municipality":"Moray Downs","scheduled_service":"no","gps_code":"YAMO"},"geometry":{"type":"Point","coordinates":[146.633333,-21.943611]}},{"id":"350550","type":"Feature","properties":{"ident":"AU-0249","type":"heliport","name":"Belyuen Oval Helicopter Landing Site","continent":"OC","iso_country":"AU","iso_region":"AU-NT","municipality":"Delissaville","scheduled_service":"no","local_code":"OZHKH"},"geometry":{"type":"Point","coordinates":[130.699786,-12.536592]}},{"id":"26914","type":"Feature","properties":{"ident":"YBLA","type":"medium_airport","name":"Benalla Airport","elevation_ft":"569","continent":"OC","iso_country":"AU","iso_region":"AU-VIC","scheduled_service":"no","gps_code":"YBLA","iata_code":"BLN","wikipedia_link":"https://en.wikipedia.org/wiki/Benalla_Airport"},"geometry":{"type":"Point","coordinates":[146.007004,-36.551899]}},{"id":"27410","type":"Feature","properties":{"ident":"YBRA","type":"small_airport","name":"Benambra Airport","elevation_ft":"2200","continent":"OC","iso_country":"AU","iso_region":"AU-VIC","scheduled_service":"no","gps_code":"YBRA","keywords":"Victorian Aerial Fire Bases"},"geometry":{"type":"Point","coordinates":[147.699144,-36.966867]}},{"id":"27360","type":"Feature","properties":{"ident":"YBCB","type":"small_airport","name":"Bencubbin Airport","continent":"OC","iso_country":"AU","iso_region":"AU-WA","scheduled_service":"no","gps_code":"YBCB"},"geometry":{"type":"Point","coordinates":[117.867165,-30.821446]}},{"id":"350218","type":"Feature","properties":{"ident":"YBND","type":"small_airport","name":"Bendick Murrell Airstrip","elevation_ft":"1194","continent":"OC","iso_country":"AU","iso_region":"AU-NSW","municipality":"Bendick Murrell","scheduled_service":"no","gps_code":"YBND"},"geometry":{"type":"Point","coordinates":[148.471944,-34.174167]}},{"id":"26906","type":"Feature","properties":{"ident":"YBDG","type":"small_airport","name":"Bendigo Airport","elevation_ft":"705","continent":"OC","iso_country":"AU","iso_region":"AU-VIC","scheduled_service":"yes","gps_code":"YBDG","iata_code":"BXG","home_link":"https://www.bendigo.vic.gov.au/Services/Bendigo-Airport","wikipedia_link":"https://en.wikipedia.org/wiki/Bendigo_Airport_(Australia)"},"geometry":{"type":"Point","coordinates":[144.330002,-36.739399]}},{"id":"526438","type":"Feature","properties":{"ident":"YBEG","type":"small_airport","name":"Bening Field Airport","elevation_ft":"1014","continent":"OC","iso_country":"AU","iso_region":"AU-QLD","scheduled_service":"no","gps_code":"YBEG"},"geometry":{"type":"Point","coordinates":[146.293671,-19.653334]}},{"id":"38254","type":"Feature","properties":{"ident":"YBNM","type":"small_airport","name":"Benmara Airport","continent":"OC","iso_country":"AU","iso_region":"AU-NT","scheduled_service":"no","gps_code":"YBNM"},"geometry":{"type":"Point","coordinates":[136.897717,-17.918759]}},{"id":"43967","type":"Feature","properties":{"ident":"YBTK","type":"small_airport","name":"Bentinck Island Airport","elevation_ft":"45","continent":"OC","iso_country":"AU","iso_region":"AU-QLD","scheduled_service":"no","gps_code":"YBTK"},"geometry":{"type":"Point","coordinates":[139.565781,-17.086702]}},{"id":"334046","type":"Feature","properties":{"ident":"YBMG","type":"heliport","name":"Bermagui - Dickinson Oval HLS","elevation_ft":"10","continent":"OC","iso_country":"AU","iso_region":"AU-NSW","municipality":"Bermagui","scheduled_service":"no","gps_code":"YBMG","local_code":"YBMG"},"geometry":{"type":"Point","coordinates":[150.076167,-36.4265]}},{"id":"351433","type":"Feature","properties":{"ident":"AU-0260","type":"small_airport","name":"Berrigan Airstrip","continent":"OC","iso_country":"AU","iso_region":"AU-NSW","municipality":"Berrigan","scheduled_service":"no"},"geometry":{"type":"Point","coordinates":[145.814753,-35.684209]}},{"id":"27369","type":"Feature","properties":{"ident":"YBEO","type":"small_airport","name":"Betoota Airport","elevation_ft":"91","continent":"OC","iso_country":"AU","iso_region":"AU-QLD","scheduled_service":"no","gps_code":"YBEO","iata_code":"BTX"},"geometry":{"type":"Point","coordinates":[140.738339,-25.694791]}},{"id":"38212","type":"Feature","properties":{"ident":"AU-0013","type":"small_airport","name":"Between Lakes Private Airstrip","continent":"OC","iso_country":"AU","iso_region":"AU-WA","scheduled_service":"no"},"geometry":{"type":"Point","coordinates":[115.639999,-32.849998]}},{"id":"27371","type":"Feature","properties":{"ident":"YBEU","type":"small_airport","name":"Beulah 1 Airport","continent":"OC","iso_country":"AU","iso_region":"AU-VIC","scheduled_service":"no","gps_code":"YBEU"},"geometry":{"type":"Point","coordinates":[142.417007,-35.950001]}},{"id":"27372","type":"Feature","properties":{"ident":"YBEV","type":"small_airport","name":"Beverley Airport","continent":"OC","iso_country":"AU","iso_region":"AU-WA","scheduled_service":"no","gps_code":"YBEV"},"geometry":{"type":"Point","coordinates":[116.949997,-32.133301]}},{"id":"27367","type":"Feature","properties":{"ident":"YBEE","type":"small_airport","name":"Beverley Airport","elevation_ft":"116","continent":"OC","iso_country":"AU","iso_region":"AU-SA","scheduled_service":"no","gps_code":"YBEE"},"geometry":{"type":"Point","coordinates":[139.557999,-30.186701]}},{"id":"27432","type":"Feature","properties":{"ident":"YBYS","type":"small_airport","name":"Beverley Springs Airport","elevation_ft":"385","continent":"OC","iso_country":"AU","iso_region":"AU-WA","municipality":"Wunaamin Miliwundi Ranges","scheduled_service":"no","gps_code":"YBYS","iata_code":"BVZ","keywords":"Charnley River Station"},"geometry":{"type":"Point","coordinates":[125.439105,-16.732756]}},{"id":"30680","type":"Feature","properties":{"ident":"YBBE","type":"small_airport","name":"Big Bell Airport","elevation_ft":"1404","continent":"OC","iso_country":"AU","iso_region":"AU-WA","municipality":"Big Bell","scheduled_service":"no","gps_code":"YBBE","keywords":"BBE"},"geometry":{"type":"Point","coordinates":[117.671771,-27.328351]}},{"id":"27383","type":"Feature","properties":{"ident":"YBIN","type":"small_airport","name":"Biggenden Airport","continent":"OC","iso_country":"AU","iso_region":"AU-QLD","scheduled_service":"no","gps_code":"YBIN"},"geometry":{"type":"Point","coordinates":[152.046329,-25.521259]}},{"id":"309216","type":"Feature","properties":{"ident":"YXBI","type":"heliport","name":"Biggenden Hospital Helipad","elevation_ft":"391","continent":"OC","iso_country":"AU","iso_region":"AU-QLD","municipality":"Biggenden","scheduled_service":"no","gps_code":"YXBI","local_code":"YXBI"},"geometry":{"type":"Point","coordinates":[152.050651,-25.506941]}},{"id":"27358","type":"Feature","properties":{"ident":"YBBL","type":"small_airport","name":"Billabalong Airport","continent":"OC","iso_country":"AU","iso_region":"AU-WA","scheduled_service":"no","gps_code":"YBBL"},"geometry":{"type":"Point","coordinates":[115.834423,-27.417679]}},{"id":"38251","type":"Feature","properties":{"ident":"YBLB","type":"small_airport","name":"Billabong Road House Airport","continent":"OC","iso_country":"AU","iso_region":"AU-WA","scheduled_service":"no","gps_code":"YBLB"},"geometry":{"type":"Point","coordinates":[114.616997,-26.8167]}},{"id":"38249","type":"Feature","properties":{"ident":"YBIL","type":"small_airport","name":"Billiluna Airport","elevation_ft":"1000","continent":"OC","iso_country":"AU","iso_region":"AU-WA","scheduled_service":"no","gps_code":"YBIL","iata_code":"BIW"},"geometry":{"type":"Point","coordinates":[127.667,-19.5667]}},{"id":"429878","type":"Feature","properties":{"ident":"YXGT","type":"heliport","name":"Billy Dunne Oval HLS","elevation_ft":"1490","continent":"OC","iso_country":"AU","iso_region":"AU-NSW","municipality":"Gulgong","scheduled_service":"no","gps_code":"YXGT"},"geometry":{"type":"Point","coordinates":[149.538431,-32.35815]}},{"id":"344097","type":"Feature","properties":{"ident":"YBLE","type":"small_airport","name":"Biloela Airport","elevation_ft":"643","continent":"OC","iso_country":"AU","iso_region":"AU-QLD","municipality":"Biloela","scheduled_service":"no","gps_code":"YBLE","iata_code":"ZBL","wikipedia_link":"https://en.wikipedia.org/wiki/Biloela_Airport"},"geometry":{"type":"Point","coordinates":[150.509627,-24.320816]}},{"id":"334079","type":"Feature","properties":{"ident":"AU-0151","type":"heliport","name":"Biloela Sports Field Helicopter Landing Site","elevation_ft":"630","continent":"OC","iso_country":"AU","iso_region":"AU-QLD","municipality":"Biloela","scheduled_service":"no","local_code":"OZHAO"},"geometry":{"type":"Point","coordinates":[150.512041,-24.393576]}},{"id":"508301","type":"Feature","properties":{"ident":"AU-0590","type":"small_airport","name":"Bimbijy station airstrip","continent":"OC","iso_country":"AU","iso_region":"AU-WA","municipality":"Bimbijy WA 6472","scheduled_service":"no"},"geometry":{"type":"Point","coordinates":[118.049941,-29.696329]}},{"id":"517309","type":"Feature","properties":{"ident":"AU-0624","type":"small_airport","name":"Bimpero Airport","elevation_ft":"322","continent":"OC","iso_country":"AU","iso_region":"AU-NSW","municipality":"Wanaaring","scheduled_service":"no"},"geometry":{"type":"Point","coordinates":[144.11918,-30.29369]}},{"id":"298812","type":"Feature","properties":{"ident":"YBID","type":"small_airport","name":"Binda","elevation_ft":"2450","continent":"OC","iso_country":"AU","iso_region":"AU-NSW","scheduled_service":"no","gps_code":"YBID"},"geometry":{"type":"Point","coordinates":[149.357668,-34.30256]}},{"id":"352705","type":"Feature","properties":{"ident":"AU-0381","type":"small_airport","name":"Bindara Airstrip","continent":"OC","iso_country":"AU","iso_region":"AU-NSW","municipality":"Menindee","scheduled_service":"no"},"geometry":{"type":"Point","coordinates":[142.355986,-32.736805]}},{"id":"29707","type":"Feature","properties":{"ident":"YBHL","type":"small_airport","name":"Bindoon Hill Airstrip","elevation_ft":"935","continent":"OC","iso_country":"AU","iso_region":"AU-WA","municipality":"Bindoon","scheduled_service":"no","gps_code":"YBHL","keywords":"Catholic Agricultural College Bindoon Airstrip, YBOO"},"geometry":{"type":"Point","coordinates":[116.188004,-31.3403]}},{"id":"27381","type":"Feature","properties":{"ident":"YBIA","type":"small_airport","name":"Bingara Airport","elevation_ft":"970","continent":"OC","iso_country":"AU","iso_region":"AU-NSW","scheduled_service":"no","gps_code":"YBIA"},"geometry":{"type":"Point","coordinates":[150.534351,-29.815165]}},{"id":"334047","type":"Feature","properties":{"ident":"YXIG","type":"heliport","name":"Bingara Hospital Heliport","elevation_ft":"1020","continent":"OC","iso_country":"AU","iso_region":"AU-NSW","municipality":"Bingara","scheduled_service":"no","gps_code":"YXIG","local_code":"YXIG"},"geometry":{"type":"Point","coordinates":[150.579563,-29.86407]}},{"id":"27378","type":"Feature","properties":{"ident":"YBGY","type":"small_airport","name":"Biniguy Airport","elevation_ft":"785","continent":"OC","iso_country":"AU","iso_region":"AU-NSW","scheduled_service":"no","gps_code":"YBGY"},"geometry":{"type":"Point","coordinates":[150.192001,-29.504999]}},{"id":"333864","type":"Feature","properties":{"ident":"AU-0122","type":"small_airport","name":"Birany Birany Airfield","elevation_ft":"51","continent":"OC","iso_country":"AU","iso_region":"AU-NT","scheduled_service":"no"},"geometry":{"type":"Point","coordinates":[136.471556,-12.816959]}},{"id":"26911","type":"Feature","properties":{"ident":"YBIR","type":"small_airport","name":"Birchip Airport","elevation_ft":"340","continent":"OC","iso_country":"AU","iso_region":"AU-VIC","scheduled_service":"no","gps_code":"YBIR","wikipedia_link":"https://en.wikipedia.org/wiki/Birchip_Airport"},"geometry":{"type":"Point","coordinates":[142.917007,-35.999699]}},{"id":"26907","type":"Feature","properties":{"ident":"YBDV","type":"medium_airport","name":"Birdsville Airport","elevation_ft":"159","continent":"OC","iso_country":"AU","iso_region":"AU-QLD","scheduled_service":"yes","gps_code":"YBDV","iata_code":"BVI","wikipedia_link":"https://en.wikipedia.org/wiki/Birdsville_Airport"},"geometry":{"type":"Point","coordinates":[139.348007,-25.897499]}},{"id":"27366","type":"Feature","properties":{"ident":"YBDU","type":"small_airport","name":"Birrindudu Airport","continent":"OC","iso_country":"AU","iso_region":"AU-NT","scheduled_service":"no","gps_code":"YBDU"},"geometry":{"type":"Point","coordinates":[129.437592,-18.384522]}},{"id":"38243","type":"Feature","properties":{"ident":"YBDS","type":"small_airport","name":"Birthday Siding Airport","continent":"OC","iso_country":"AU","iso_region":"AU-SA","municipality":"Tarcoola","scheduled_service":"no","gps_code":"YBDS"},"geometry":{"type":"Point","coordinates":[134.528275,-30.288867]}},{"id":"27385","type":"Feature","properties":{"ident":"YBIZ","type":"small_airport","name":"Bizant Airport","elevation_ft":"65","continent":"OC","iso_country":"AU","iso_region":"AU-QLD","municipality":"Lakefield National Park","scheduled_service":"no","gps_code":"YBIZ","iata_code":"BZP"},"geometry":{"type":"Point","coordinates":[144.119444,-14.740278]}},{"id":"26903","type":"Feature","properties":{"ident":"YBCK","type":"medium_airport","name":"Blackall Airport","elevation_ft":"928","continent":"OC","iso_country":"AU","iso_region":"AU-QLD","municipality":"Blackall","scheduled_service":"yes","gps_code":"YBCK","iata_code":"BKQ","wikipedia_link":"https://en.wikipedia.org/wiki/Blackall_Airport"},"geometry":{"type":"Point","coordinates":[145.429716,-24.431678]}},{"id":"334075","type":"Feature","properties":{"ident":"AU-0148","type":"heliport","name":"Blackbutt Helicopter Landing Site","elevation_ft":"1471","continent":"OC","iso_country":"AU","iso_region":"AU-QLD","municipality":"Blackbutt","scheduled_service":"no","local_code":"OZHAI"},"geometry":{"type":"Point","coordinates":[152.104758,-26.889483]}},{"id":"309601","type":"Feature","properties":{"ident":"AU-0062","type":"heliport","name":"Blackheath - NPWS Helipad","elevation_ft":"3316","continent":"OC","iso_country":"AU","iso_region":"AU-NSW","municipality":"Blackheath - NPWS","scheduled_service":"no","local_code":"OZHAL","keywords":"BHT"},"geometry":{"type":"Point","coordinates":[150.306706,-33.628062]}},{"id":"27416","type":"Feature","properties":{"ident":"YBSR","type":"small_airport","name":"Blackstone Airport","continent":"OC","iso_country":"AU","iso_region":"AU-WA","scheduled_service":"no","gps_code":"YBSR"},"geometry":{"type":"Point","coordinates":[128.287994,-25.9867]}},{"id":"38264","type":"Feature","properties":{"ident":"YBVL","type":"small_airport","name":"Blackville Airport","continent":"OC","iso_country":"AU","iso_region":"AU-NSW","scheduled_service":"no","gps_code":"YBVL"},"geometry":{"type":"Point","coordinates":[150.174522,-31.58649]}},{"id":"26935","type":"Feature","properties":{"ident":"YBTR","type":"medium_airport","name":"Blackwater Airport","elevation_ft":"657","continent":"OC","iso_country":"AU","iso_region":"AU-QLD","scheduled_service":"yes","gps_code":"YBTR","iata_code":"BLT","wikipedia_link":"https://en.wikipedia.org/wiki/Blackwater_Airport"},"geometry":{"type":"Point","coordinates":[148.807007,-23.6031]}},{"id":"309217","type":"Feature","properties":{"ident":"AU-0059","type":"heliport","name":"Blackwater Hospital Helipad","elevation_ft":"550","continent":"OC","iso_country":"AU","iso_region":"AU-QLD","municipality":"Blackwater","scheduled_service":"no","gps_code":"YXKW"},"geometry":{"type":"Point","coordinates":[148.877985,-23.571308]}},{"id":"430725","type":"Feature","properties":{"ident":"AU-0507","type":"small_airport","name":"Blaxland Range Airstrip","elevation_ft":"1473","continent":"OC","iso_country":"AU","iso_region":"AU-WA","municipality":"Lake Wells","scheduled_service":"no"},"geometry":{"type":"Point","coordinates":[123.30387,-27.26044]}},{"id":"334048","type":"Feature","properties":{"ident":"YXAY","type":"heliport","name":"Blayney Medical Helicopter Landing Site","elevation_ft":"2887","continent":"OC","iso_country":"AU","iso_region":"AU-NSW","municipality":"Blayney","scheduled_service":"no","gps_code":"YXAY","local_code":"YXAY"},"geometry":{"type":"Point","coordinates":[149.249167,-33.534833]}},{"id":"506909","type":"Feature","properties":{"ident":"AU-0526","type":"heliport","name":"Blayney MPS Alternate HLS","elevation_ft":"2986","continent":"OC","iso_country":"AU","iso_region":"AU-QLD","municipality":"Blayney","scheduled_service":"no","local_code":"OZHBI"},"geometry":{"type":"Point","coordinates":[149.249184,-33.536154]}},{"id":"517053","type":"Feature","properties":{"ident":"YBHN","type":"small_airport","name":"Blenheim Airstrip","elevation_ft":"513","continent":"OC","iso_country":"AU","iso_region":"AU-QLD","scheduled_service":"no","gps_code":"YBHN"},"geometry":{"type":"Point","coordinates":[152.307673,-27.653725]}},{"id":"29711","type":"Feature","properties":{"ident":"YBLM","type":"small_airport","name":"Blinman Airport","elevation_ft":"1991","continent":"OC","iso_country":"AU","iso_region":"AU-SA","scheduled_service":"no","gps_code":"YBLM"},"geometry":{"type":"Point","coordinates":[138.725998,-31.118601]}},{"id":"27393","type":"Feature","properties":{"ident":"YBMD","type":"small_airport","name":"Bloomfield River Airport","continent":"OC","iso_country":"AU","iso_region":"AU-QLD","scheduled_service":"no","gps_code":"YBMD","iata_code":"BFC"},"geometry":{"type":"Point","coordinates":[145.330002,-15.8736]}},{"id":"309559","type":"Feature","properties":{"ident":"YXKM","type":"heliport","name":"Blue Mountains Hospital Helipad","elevation_ft":"3333","continent":"OC","iso_country":"AU","iso_region":"AU-NSW","municipality":"Katoomba","scheduled_service":"no","gps_code":"YXKM","local_code":"YXKM"},"geometry":{"type":"Point","coordinates":[150.322369,-33.705262]}},{"id":"351815","type":"Feature","properties":{"ident":"AU-0321","type":"small_airport","name":"Bluewater park Airstrip","elevation_ft":"110","continent":"OC","iso_country":"AU","iso_region":"AU-QLD","municipality":"Bluewater park Airstrip","scheduled_service":"no","gps_code":"YBLP","wikipedia_link":"https://en.wikipedia.org/wiki/Bluewater_Airport"},"geometry":{"type":"Point","coordinates":[146.49475,-19.187341]}},{"id":"27408","type":"Feature","properties":{"ident":"YBOT","type":"small_airport","name":"Boatman Airport","continent":"OC","iso_country":"AU","iso_region":"AU-QLD","scheduled_service":"no","gps_code":"YBOT"},"geometry":{"type":"Point","coordinates":[146.901841,-27.269279]}},{"id":"27402","type":"Feature","properties":{"ident":"YBOD","type":"small_airport","name":"Bodalla Airport","continent":"OC","iso_country":"AU","iso_region":"AU-QLD","scheduled_service":"no","gps_code":"YBOD"},"geometry":{"type":"Point","coordinates":[143.382996,-26.299999]}},{"id":"315747","type":"Feature","properties":{"ident":"AU-0105","type":"small_airport","name":"Boggabilla Airstrip","elevation_ft":"740","continent":"OC","iso_country":"AU","iso_region":"AU-NSW","municipality":"Goondiwindi","scheduled_service":"no","local_code":"BGAC","keywords":"AIRCAIR"},"geometry":{"type":"Point","coordinates":[150.344505,-28.649343]}},{"id":"511427","type":"Feature","properties":{"ident":"AU-0614","type":"small_airport","name":"Boggabilla Airstrip (AIRCAIR)","elevation_ft":"700","continent":"OC","iso_country":"AU","iso_region":"AU-QLD","municipality":"Goondiwindi","scheduled_service":"no"},"geometry":{"type":"Point","coordinates":[150.332049,-28.617194]}},{"id":"315746","type":"Feature","properties":{"ident":"AU-0104","type":"heliport","name":"Boggabilla Fuel Depot Landing Site","elevation_ft":"736","continent":"OC","iso_country":"AU","iso_region":"AU-NSW","municipality":"Goondiwindi","scheduled_service":"no","local_code":"OZHAR","keywords":"BGBA"},"geometry":{"type":"Point","coordinates":[150.352,-28.6089]}},{"id":"27403","type":"Feature","properties":{"ident":"YBOG","type":"small_airport","name":"Boggabri Airport","continent":"OC","iso_country":"AU","iso_region":"AU-NSW","scheduled_service":"no","gps_code":"YBOG"},"geometry":{"type":"Point","coordinates":[150.050003,-30.7167]}},{"id":"334076","type":"Feature","properties":{"ident":"AU-0149","type":"heliport","name":"Boggabri Coal Homestead Helipad","elevation_ft":"897","continent":"OC","iso_country":"AU","iso_region":"AU-NSW","municipality":"Boggabri","scheduled_service":"no","local_code":"OZHAK"},"geometry":{"type":"Point","coordinates":[150.141199,-30.631302]}},{"id":"334049","type":"Feature","properties":{"ident":"AU-0132","type":"heliport","name":"Boggabri Hospital Heliport","elevation_ft":"900","continent":"OC","iso_country":"AU","iso_region":"AU-NSW","municipality":"Boggabri","scheduled_service":"no"},"geometry":{"type":"Point","coordinates":[150.039698,-30.710741]}},{"id":"29715","type":"Feature","properties":{"ident":"YBOI","type":"small_airport","name":"Boigu Island Airport","elevation_ft":"23","continent":"OC","iso_country":"AU","iso_region":"AU-QLD","municipality":"Boigu Island","scheduled_service":"yes","gps_code":"YBOI","iata_code":"GIC","wikipedia_link":"https://en.wikipedia.org/wiki/Boigu_Island_Airport"},"geometry":{"type":"Point","coordinates":[142.218002,-9.23278]}},{"id":"27389","type":"Feature","properties":{"ident":"YBLG","type":"small_airport","name":"Bollards Lagoon Airport","continent":"OC","iso_country":"AU","iso_region":"AU-SA","scheduled_service":"no","gps_code":"YBLG"},"geometry":{"type":"Point","coordinates":[140.857666,-28.981855]}},{"id":"27391","type":"Feature","properties":{"ident":"YBLL","type":"small_airport","name":"Bollon Airport","elevation_ft":"182","continent":"OC","iso_country":"AU","iso_region":"AU-QLD","scheduled_service":"no","gps_code":"YBLL","iata_code":"BLS"},"geometry":{"type":"Point","coordinates":[147.481799,-28.051247]}},{"id":"27427","type":"Feature","properties":{"ident":"YBWR","type":"small_airport","name":"Bolwarra Airport","continent":"OC","iso_country":"AU","iso_region":"AU-QLD","scheduled_service":"no","gps_code":"YBWR","iata_code":"BCK"},"geometry":{"type":"Point","coordinates":[144.169006,-17.3883]}},{"id":"27405","type":"Feature","properties":{"ident":"YBOM","type":"small_airport","name":"Bombala Airport","elevation_ft":"2415","continent":"OC","iso_country":"AU","iso_region":"AU-NSW","scheduled_service":"no","gps_code":"YBOM"},"geometry":{"type":"Point","coordinates":[149.182007,-36.904999]}},{"id":"334050","type":"Feature","properties":{"ident":"YXOM","type":"heliport","name":"Bombala Medical Helicopter Landing Site","elevation_ft":"2350","continent":"OC","iso_country":"AU","iso_region":"AU-NSW","municipality":"Bombala","scheduled_service":"no","gps_code":"YXOM","local_code":"YXOM"},"geometry":{"type":"Point","coordinates":[149.241333,-36.913833]}},{"id":"38240","type":"Feature","properties":{"ident":"YBBO","type":"small_airport","name":"Bon Bon Airport","continent":"OC","iso_country":"AU","iso_region":"AU-SA","municipality":"Bon Bon","scheduled_service":"no","gps_code":"YBBO"},"geometry":{"type":"Point","coordinates":[135.479996,-30.4067]}},{"id":"334051","type":"Feature","properties":{"ident":"AU-0133","type":"heliport","name":"Bonalbo - Cricket oval HLS","elevation_ft":"620","continent":"OC","iso_country":"AU","iso_region":"AU-NSW","municipality":"Bonalbo","scheduled_service":"no","local_code":"OZHFY"},"geometry":{"type":"Point","coordinates":[152.625167,-28.738]}},{"id":"27415","type":"Feature","properties":{"ident":"YBSP","type":"small_airport","name":"Bond Springs Airport","continent":"OC","iso_country":"AU","iso_region":"AU-NT","municipality":"Burt Plain","scheduled_service":"no","gps_code":"YBSP","keywords":"Alice Springs Gliding Club"},"geometry":{"type":"Point","coordinates":[133.849525,-23.516695]}},{"id":"38269","type":"Feature","properties":{"ident":"YBYD","type":"small_airport","name":"Bonney Downs Station Airport","continent":"OC","iso_country":"AU","iso_region":"AU-WA","scheduled_service":"no","gps_code":"YBYD"},"geometry":{"type":"Point","coordinates":[119.883003,-22.266701]}},{"id":"352709","type":"Feature","properties":{"ident":"AU-0385","type":"small_airport","name":"Bono Station Airport","continent":"OC","iso_country":"AU","iso_region":"AU-NSW","municipality":"Menindee","scheduled_service":"no"},"geometry":{"type":"Point","coordinates":[142.402085,-32.565419]}},{"id":"42790","type":"Feature","properties":{"ident":"AU-0027","type":"small_airport","name":"Boobyalla Airfield","elevation_ft":"50","continent":"OC","iso_country":"AU","iso_region":"AU-TAS","scheduled_service":"no"},"geometry":{"type":"Point","coordinates":[147.864716,-40.899166]}},{"id":"38241","type":"Feature","properties":{"ident":"YBCL","type":"small_airport","name":"Boolcarrol Station Airport","continent":"OC","iso_country":"AU","iso_region":"AU-NSW","scheduled_service":"no","gps_code":"YBCL"},"geometry":{"type":"Point","coordinates":[149.373278,-30.035418]}},{"id":"27401","type":"Feature","properties":{"ident":"YBOC","type":"small_airport","name":"Booleroo Centre Airport","elevation_ft":"418","continent":"OC","iso_country":"AU","iso_region":"AU-SA","scheduled_service":"no","gps_code":"YBOC"},"geometry":{"type":"Point","coordinates":[138.366382,-32.88989]}},{"id":"298811","type":"Feature","properties":{"ident":"YBGD","type":"small_airport","name":"Boolgeeda","elevation_ft":"1871","continent":"OC","iso_country":"AU","iso_region":"AU-WA","scheduled_service":"no","gps_code":"YBGD","iata_code":"OCM","wikipedia_link":"https://en.wikipedia.org/wiki/Boolgeeda_Airport"},"geometry":{"type":"Point","coordinates":[117.275,-22.54]}},{"id":"27394","type":"Feature","properties":{"ident":"YBMI","type":"small_airport","name":"Boomi Airport","elevation_ft":"618","continent":"OC","iso_country":"AU","iso_region":"AU-NSW","scheduled_service":"no","gps_code":"YBMI"},"geometry":{"type":"Point","coordinates":[149.595181,-28.728373]}},{"id":"351803","type":"Feature","properties":{"ident":"AU-0314","type":"small_airport","name":"Boomi airport","continent":"OC","iso_country":"AU","iso_region":"AU-NSW","municipality":"Boomi","scheduled_service":"no"},"geometry":{"type":"Point","coordinates":[149.578506,-28.588784]}},{"id":"27400","type":"Feature","properties":{"ident":"YBOA","type":"small_airport","name":"Boonah Airport","elevation_ft":"318","continent":"OC","iso_country":"AU","iso_region":"AU-QLD","scheduled_service":"no","gps_code":"YBOA"},"geometry":{"type":"Point","coordinates":[152.676459,-28.017458]}},{"id":"511428","type":"Feature","properties":{"ident":"AU-0615","type":"heliport","name":"Boondooma Heliport","elevation_ft":"975","continent":"OC","iso_country":"AU","iso_region":"AU-QLD","municipality":"Lake Boondooma","scheduled_service":"no","local_code":"OZHJZ"},"geometry":{"type":"Point","coordinates":[151.449319,-26.104719]}},{"id":"334052","type":"Feature","properties":{"ident":"AU-0134","type":"heliport","name":"Boorowa Helicopter Landing Site","elevation_ft":"1620","continent":"OC","iso_country":"AU","iso_region":"AU-NSW","municipality":"Boorowa","scheduled_service":"no","local_code":"OZHAX"},"geometry":{"type":"Point","coordinates":[148.704667,-34.4435]}},{"id":"27359","type":"Feature","properties":{"ident":"YBBT","type":"small_airport","name":"Boort Airport","elevation_ft":"298","continent":"OC","iso_country":"AU","iso_region":"AU-VIC","municipality":"Wedderburn","scheduled_service":"no","gps_code":"YBBT"},