{"type":"FeatureCollection","features":[{"id":"32691","type":"Feature","properties":{"ident":"DFOY","type":"small_airport","name":"Aribinda Airport","elevation_ft":"1122","continent":"AF","iso_country":"BF","iso_region":"BF-SOM","municipality":"Aribinda","scheduled_service":"no","gps_code":"DFOY","iata_code":"XAR","wikipedia_link":"https://en.wikipedia.org/wiki/Aribinda_Airport"},"geometry":{"type":"Point","coordinates":[-0.883,14.217]}},{"id":"30651","type":"Feature","properties":{"ident":"DFER","type":"small_airport","name":"Arly Airport","elevation_ft":"761","continent":"AF","iso_country":"BF","iso_region":"BF-TAP","municipality":"Arly","scheduled_service":"no","gps_code":"DFER","iata_code":"ARL","wikipedia_link":"https://en.wikipedia.org/wiki/Arly_Airport"},"geometry":{"type":"Point","coordinates":[1.483,11.597]}},{"id":"30782","type":"Feature","properties":{"ident":"DFOB","type":"small_airport","name":"Banfora Airport","elevation_ft":"984","continent":"AF","iso_country":"BF","iso_region":"BF-COM","municipality":"Banfora","scheduled_service":"no","gps_code":"DFOB","iata_code":"BNR","wikipedia_link":"https://en.wikipedia.org/wiki/Banfora_Airport"},"geometry":{"type":"Point","coordinates":[-4.727726,10.688861]}},{"id":"30887","type":"Feature","properties":{"ident":"DFCB","type":"small_airport","name":"Barsalogho Airport","elevation_ft":"1083","continent":"AF","iso_country":"BF","iso_region":"BF-SMT","municipality":"Barsalogho","scheduled_service":"no","gps_code":"DFCB","wikipedia_link":"https://en.wikipedia.org/wiki/Barsalogho_Airport"},"geometry":{"type":"Point","coordinates":[-1.067,13.4]}},{"id":"30889","type":"Feature","properties":{"ident":"DFCE","type":"small_airport","name":"Batie Airport","elevation_ft":"984","continent":"AF","iso_country":"BF","iso_region":"BF-NOU","municipality":"Batie","scheduled_service":"no","gps_code":"DFCE"},"geometry":{"type":"Point","coordinates":[-2.917,9.883]}},{"id":"2089","type":"Feature","properties":{"ident":"DFOO","type":"medium_airport","name":"Bobo Dioulasso Airport","elevation_ft":"1511","continent":"AF","iso_country":"BF","iso_region":"BF-HOU","municipality":"Bobo Dioulasso","scheduled_service":"yes","gps_code":"DFOO","iata_code":"BOY","wikipedia_link":"https://en.wikipedia.org/wiki/Bobo_Dioulasso_Airport"},"geometry":{"type":"Point","coordinates":[-4.33097,11.1601]}},{"id":"32693","type":"Feature","properties":{"ident":"DFEB","type":"small_airport","name":"Bogande Airport","elevation_ft":"984","continent":"AF","iso_country":"BF","iso_region":"BF-GNA","municipality":"Bogande","scheduled_service":"no","gps_code":"DFEB","iata_code":"XBG","wikipedia_link":"https://en.wikipedia.org/wiki/Bogande_Airport"},"geometry":{"type":"Point","coordinates":[-0.167,12.983]}},{"id":"32694","type":"Feature","properties":{"ident":"DFEA","type":"small_airport","name":"Boulsa Airport","elevation_ft":"984","continent":"AF","iso_country":"BF","iso_region":"BF-NAM","municipality":"Boulsa","scheduled_service":"no","gps_code":"DFEA","iata_code":"XBO","wikipedia_link":"https://en.wikipedia.org/wiki/Boulsa_Airport"},"geometry":{"type":"Point","coordinates":[-0.567,12.65]}},{"id":"30903","type":"Feature","properties":{"ident":"DFOA","type":"small_airport","name":"Dano Airport","elevation_ft":"935","continent":"AF","iso_country":"BF","iso_region":"BF-IOB","municipality":"Dano","scheduled_service":"no","gps_code":"DFOA"},"geometry":{"type":"Point","coordinates":[-3.067,11.133]}},{"id":"30912","type":"Feature","properties":{"ident":"DFOD","type":"small_airport","name":"Dedougou Airport","elevation_ft":"984","continent":"AF","iso_country":"BF","iso_region":"BF-MOU","municipality":"Dedougou","scheduled_service":"no","gps_code":"DFOD","iata_code":"DGU","wikipedia_link":"https://en.wikipedia.org/wiki/D%C3%A9dougou_Airport"},"geometry":{"type":"Point","coordinates":[-3.49,12.459]}},{"id":"30919","type":"Feature","properties":{"ident":"DFED","type":"small_airport","name":"Diapaga Airport","elevation_ft":"951","continent":"AF","iso_country":"BF","iso_region":"BF-TAP","municipality":"Diapaga","scheduled_service":"no","gps_code":"DFED","iata_code":"DIP","wikipedia_link":"https://en.wikipedia.org/wiki/Diapaga_Airport"},"geometry":{"type":"Point","coordinates":[1.784631,12.060324]}},{"id":"30888","type":"Feature","properties":{"ident":"DFCD","type":"small_airport","name":"Didyr Airport","elevation_ft":"958","continent":"AF","iso_country":"BF","iso_region":"BF-SNG","municipality":"Didyr","scheduled_service":"no","gps_code":"DFCD","wikipedia_link":"https://en.wikipedia.org/wiki/Didyr_Airport"},"geometry":{"type":"Point","coordinates":[-2.617,12.55]}},{"id":"32695","type":"Feature","properties":{"ident":"DFOU","type":"small_airport","name":"Diebougou Airport","elevation_ft":"984","continent":"AF","iso_country":"BF","iso_region":"BF-BGR","municipality":"Diebougou","scheduled_service":"no","gps_code":"DFOU","iata_code":"XDE","wikipedia_link":"https://en.wikipedia.org/wiki/Di%C3%A9bougou_Airport"},"geometry":{"type":"Point","coordinates":[-3.25,10.95]}},{"id":"32696","type":"Feature","properties":{"ident":"DFCJ","type":"small_airport","name":"Djibo Airport","elevation_ft":"1001","continent":"AF","iso_country":"BF","iso_region":"BF-SOM","municipality":"Djibo","scheduled_service":"no","gps_code":"DFCJ","iata_code":"XDJ","wikipedia_link":"https://en.wikipedia.org/wiki/Djibo_Airport"},"geometry":{"type":"Point","coordinates":[-1.624722,14.125]}},{"id":"30937","type":"Feature","properties":{"ident":"DFEE","type":"small_airport","name":"Dori Airport","elevation_ft":"925","continent":"AF","iso_country":"BF","iso_region":"BF-SEN","municipality":"Dori","scheduled_service":"no","gps_code":"DFEE","iata_code":"DOR","wikipedia_link":"https://en.wikipedia.org/wiki/Dori_Airport"},"geometry":{"type":"Point","coordinates":[-0.068207,14.021638]}},{"id":"31193","type":"Feature","properties":{"ident":"DFEF","type":"small_airport","name":"Fada N'gourma Airport","elevation_ft":"1011","continent":"AF","iso_country":"BF","iso_region":"BF-GOU","municipality":"Fada N'gourma","scheduled_service":"no","gps_code":"DFEF","iata_code":"FNG","wikipedia_link":"https://en.wikipedia.org/wiki/Fada_N%27gourma_Airport"},"geometry":{"type":"Point","coordinates":[0.35,12.033]}},{"id":"32698","type":"Feature","properties":{"ident":"DFOG","type":"small_airport","name":"Gaoua Airport","elevation_ft":"1099","continent":"AF","iso_country":"BF","iso_region":"BF-PON","municipality":"Gaoua","scheduled_service":"no","gps_code":"DFOG","iata_code":"XGA","wikipedia_link":"https://en.wikipedia.org/wiki/Gaoua_Airport"},"geometry":{"type":"Point","coordinates":[-3.163454,10.384059]}},{"id":"32699","type":"Feature","properties":{"ident":"DFEG","type":"small_airport","name":"Gorom-Gorom Airport","elevation_ft":"935","continent":"AF","iso_country":"BF","iso_region":"BF-OUD","municipality":"Gorom-Gorom","scheduled_service":"no","gps_code":"DFEG","iata_code":"XGG"},"geometry":{"type":"Point","coordinates":[-0.233,14.45]}},{"id":"30897","type":"Feature","properties":{"ident":"DFCU","type":"small_airport","name":"Gourcy Airport","elevation_ft":"1050","continent":"AF","iso_country":"BF","iso_region":"BF-ZON","municipality":"Gourcy","scheduled_service":"no","gps_code":"DFCU"},"geometry":{"type":"Point","coordinates":[-2.367,13.2]}},{"id":"30905","type":"Feature","properties":{"ident":"DFOH","type":"small_airport","name":"Houndé Airport","elevation_ft":"1063","continent":"AF","iso_country":"BF","iso_region":"BF-TUI","municipality":"Houndé","scheduled_service":"no","gps_code":"DFOH","wikipedia_link":"https://en.wikipedia.org/wiki/Hound%C3%A9_Airport"},"geometry":{"type":"Point","coordinates":[-3.512817,11.491211]}},{"id":"32702","type":"Feature","properties":{"ident":"DFEL","type":"small_airport","name":"Kantchari Airport","elevation_ft":"879","continent":"AF","iso_country":"BF","iso_region":"BF-TAP","municipality":"Kantchari","scheduled_service":"no","gps_code":"DFEL","iata_code":"XKA","wikipedia_link":"https://en.wikipedia.org/wiki/Kantchari_Airport"},"geometry":{"type":"Point","coordinates":[1.492939,12.464046]}},{"id":"32704","type":"Feature","properties":{"ident":"DFCA","type":"small_airport","name":"Kaya Airport","elevation_ft":"984","continent":"AF","iso_country":"BF","iso_region":"BF-SMT","municipality":"Kaya","scheduled_service":"no","gps_code":"DFCA","iata_code":"XKY","wikipedia_link":"https://en.wikipedia.org/wiki/Kaya_Airport"},"geometry":{"type":"Point","coordinates":[-1.1,13.067]}},{"id":"30899","type":"Feature","properties":{"ident":"DFEC","type":"small_airport","name":"Komin-Yanga Airport","elevation_ft":"1116","continent":"AF","iso_country":"BF","iso_region":"BF-KOP","municipality":"Komin-Yanga","scheduled_service":"no","gps_code":"DFEC"},"geometry":{"type":"Point","coordinates":[0.15,11.7]}},{"id":"30890","type":"Feature","properties":{"ident":"DFCG","type":"small_airport","name":"Kongoussi Airport","elevation_ft":"1056","continent":"AF","iso_country":"BF","iso_region":"BF-BAM","municipality":"Kongoussi","scheduled_service":"no","gps_code":"DFCG"},"geometry":{"type":"Point","coordinates":[-1.533,13.317]}},{"id":"30892","type":"Feature","properties":{"ident":"DFCK","type":"small_airport","name":"Koudougou Airport","elevation_ft":"1001","continent":"AF","iso_country":"BF","iso_region":"BF-BLK","municipality":"Koudougou","scheduled_service":"no","gps_code":"DFCK"},"geometry":{"type":"Point","coordinates":[-2.4,12.267]}},{"id":"30900","type":"Feature","properties":{"ident":"DFEK","type":"small_airport","name":"Koupela Airport","elevation_ft":"902","continent":"AF","iso_country":"BF","iso_region":"BF-KOT","municipality":"Koupela","scheduled_service":"no","gps_code":"DFEK"},"geometry":{"type":"Point","coordinates":[-0.3,12.167]}},{"id":"32705","type":"Feature","properties":{"ident":"DFCL","type":"small_airport","name":"Leo Airport","elevation_ft":"1181","continent":"AF","iso_country":"BF","iso_region":"BF-SIS","municipality":"Leo","scheduled_service":"no","gps_code":"DFCL","iata_code":"XLU","wikipedia_link":"https://en.wikipedia.org/wiki/Leo_Airport"},"geometry":{"type":"Point","coordinates":[-2.1,11.1]}},{"id":"30893","type":"Feature","properties":{"ident":"DFCM","type":"small_airport","name":"Manga Airport","elevation_ft":"820","continent":"AF","iso_country":"BF","iso_region":"BF-ZOU","municipality":"Manga","scheduled_service":"no","gps_code":"DFCM"},"geometry":{"type":"Point","coordinates":[-1.042542,11.665351]}},{"id":"32710","type":"Feature","properties":{"ident":"DFON","type":"small_airport","name":"Nouna Airport","elevation_ft":"886","continent":"AF","iso_country":"BF","iso_region":"BF-KOS","municipality":"Nouna","scheduled_service":"no","gps_code":"DFON","iata_code":"XNU","wikipedia_link":"https://en.wikipedia.org/wiki/Nouna_Airport"},"geometry":{"type":"Point","coordinates":[-3.867,12.75]}},{"id":"30907","type":"Feature","properties":{"ident":"DFOR","type":"small_airport","name":"Orodara Airport","elevation_ft":"1706","continent":"AF","iso_country":"BF","iso_region":"BF-KEN","municipality":"Orodara","scheduled_service":"no","gps_code":"DFOR","wikipedia_link":"https://en.wikipedia.org/wiki/Orodara_Airport"},"geometry":{"type":"Point","coordinates":[-4.924793,10.986103]}},{"id":"2088","type":"Feature","properties":{"ident":"DFFD","type":"medium_airport","name":"Ouagadougou Airport","elevation_ft":"1037","continent":"AF","iso_country":"BF","iso_region":"BF-KAD","municipality":"Ouagadougou","scheduled_service":"yes","gps_code":"DFFD","iata_code":"OUA","wikipedia_link":"https://en.wikipedia.org/wiki/Ouagadougou_Airport"},"geometry":{"type":"Point","coordinates":[-1.51242,12.3532]}},{"id":"32132","type":"Feature","properties":{"ident":"DFCC","type":"small_airport","name":"Ouahigouya Airport","elevation_ft":"1089","continent":"AF","iso_country":"BF","iso_region":"BF-YAT","municipality":"Ouahigouya","scheduled_service":"no","gps_code":"DFCC","iata_code":"OUG","wikipedia_link":"https://en.wikipedia.org/wiki/Ouahigouya_Airport"},"geometry":{"type":"Point","coordinates":[-2.322067,13.655287]}},{"id":"30902","type":"Feature","properties":{"ident":"DFEY","type":"small_airport","name":"Ouargaye Airport","elevation_ft":"951","continent":"AF","iso_country":"BF","iso_region":"BF-KOP","municipality":"Ouargaye","scheduled_service":"no","gps_code":"DFEY"},"geometry":{"type":"Point","coordinates":[0.05,11.517]}},{"id":"32711","type":"Feature","properties":{"ident":"DFEP","type":"small_airport","name":"Pama Airport","elevation_ft":"699","continent":"AF","iso_country":"BF","iso_region":"BF-KMP","municipality":"Pama","scheduled_service":"no","gps_code":"DFEP","iata_code":"XPA","wikipedia_link":"https://en.wikipedia.org/wiki/Pama_Airport"},"geometry":{"type":"Point","coordinates":[0.7,11.25]}},{"id":"309346","type":"Feature","properties":{"ident":"BF-0001","type":"small_airport","name":"Peta Barabe Airfield","elevation_ft":"910","continent":"AF","iso_country":"BF","iso_region":"BF-OUD","municipality":"Essakane Gold Mine","scheduled_service":"no","gps_code":"DFEN","keywords":"I Am Gold, Essakane"},"geometry":{"type":"Point","coordinates":[0.086944,14.366389]}},{"id":"32179","type":"Feature","properties":{"ident":"DFCP","type":"small_airport","name":"Po Airport","elevation_ft":"1050","continent":"AF","iso_country":"BF","iso_region":"BF-NAO","municipality":"Po","scheduled_service":"no","gps_code":"DFCP","iata_code":"PUP","wikipedia_link":"https://en.wikipedia.org/wiki/P%C3%B4_Airport"},"geometry":{"type":"Point","coordinates":[-1.148472,11.179139]}},{"id":"30894","type":"Feature","properties":{"ident":"DFCR","type":"small_airport","name":"Poura Airport","elevation_ft":"853","continent":"AF","iso_country":"BF","iso_region":"BF-BAL","municipality":"Poura","scheduled_service":"no","gps_code":"DFCR","wikipedia_link":"https://en.wikipedia.org/wiki/Poura_Airport"},"geometry":{"type":"Point","coordinates":[-2.75,11.617]}},{"id":"30904","type":"Feature","properties":{"ident":"DFOF","type":"small_airport","name":"Safane Airport","elevation_ft":"1017","continent":"AF","iso_country":"BF","iso_region":"BF-MOU","municipality":"Safane","scheduled_service":"no","gps_code":"DFOF"},"geometry":{"type":"Point","coordinates":[-3.183,12.15]}},{"id":"32712","type":"Feature","properties":{"ident":"DFES","type":"small_airport","name":"Sebba Airport","elevation_ft":"886","continent":"AF","iso_country":"BF","iso_region":"BF-SEN","municipality":"Sebba","scheduled_service":"no","gps_code":"DFES","iata_code":"XSE"},"geometry":{"type":"Point","coordinates":[0.517,13.45]}},{"id":"30895","type":"Feature","properties":{"ident":"DFCS","type":"small_airport","name":"Seguenega Airport","elevation_ft":"1139","continent":"AF","iso_country":"BF","iso_region":"BF-YAT","municipality":"Seguenega","scheduled_service":"no","gps_code":"DFCS","wikipedia_link":"https://en.wikipedia.org/wiki/S%C3%A9gu%C3%A9n%C3%A9ga_Airport"},"geometry":{"type":"Point","coordinates":[-1.994359,13.440602]}},{"id":"30908","type":"Feature","properties":{"ident":"DFOS","type":"small_airport","name":"Sideradougou Airport","elevation_ft":"1047","continent":"AF","iso_country":"BF","iso_region":"BF-COM","municipality":"Sideradougou","scheduled_service":"no","gps_code":"DFOS"},"geometry":{"type":"Point","coordinates":[-4.267,10.667]}},{"id":"32465","type":"Feature","properties":{"ident":"DFEM","type":"small_airport","name":"Tambao Airport","elevation_ft":"820","continent":"AF","iso_country":"BF","iso_region":"BF-OUD","municipality":"Tambao","scheduled_service":"no","gps_code":"DFEM","iata_code":"TMQ","wikipedia_link":"https://en.wikipedia.org/wiki/Tambao_Airport"},"geometry":{"type":"Point","coordinates":[0.039492,14.790874]}},{"id":"30896","type":"Feature","properties":{"ident":"DFCT","type":"small_airport","name":"Tenado Airport","elevation_ft":"951","continent":"AF","iso_country":"BF","iso_region":"BF-SNG","municipality":"Tenado","scheduled_service":"no","gps_code":"DFCT"},"geometry":{"type":"Point","coordinates":[-2.583,12.2]}},{"id":"32432","type":"Feature","properties":{"ident":"DFET","type":"small_airport","name":"Tenkodogo Airport","elevation_ft":"1017","continent":"AF","iso_country":"BF","iso_region":"BF-BLG","municipality":"Tenkodogo","scheduled_service":"no","gps_code":"DFET","iata_code":"TEG","wikipedia_link":"https://en.wikipedia.org/wiki/Tenkodogo_Airport"},"geometry":{"type":"Point","coordinates":[-0.371377,11.801149]}},{"id":"30891","type":"Feature","properties":{"ident":"DFCI","type":"small_airport","name":"Titao Airport","elevation_ft":"1047","continent":"AF","iso_country":"BF","iso_region":"BF-LOR","municipality":"Titao","scheduled_service":"no","gps_code":"DFCI"},"geometry":{"type":"Point","coordinates":[-2.083,13.767]}},{"id":"32482","type":"Feature","properties":{"ident":"DFOT","type":"small_airport","name":"Tougan Airport","elevation_ft":"984","continent":"AF","iso_country":"BF","iso_region":"BF-SOR","municipality":"Tougan","scheduled_service":"no","gps_code":"DFOT","iata_code":"TUQ"},"geometry":{"type":"Point","coordinates":[-3.067,13.067]}},{"id":"30898","type":"Feature","properties":{"ident":"DFCY","type":"small_airport","name":"Yako Airport","elevation_ft":"984","continent":"AF","iso_country":"BF","iso_region":"BF-PAS","municipality":"Yako","scheduled_service":"no","gps_code":"DFCY"},"geometry":{"type":"Point","coordinates":[-2.283,12.95]}},{"id":"32715","type":"Feature","properties":{"ident":"DFEZ","type":"small_airport","name":"Zabré Airport","elevation_ft":"886","continent":"AF","iso_country":"BF","iso_region":"BF-BLG","municipality":"Zabré","scheduled_service":"no","gps_code":"DFEZ","iata_code":"XZA","wikipedia_link":"https://en.wikipedia.org/wiki/Zabr%C3%A9_Airport"},"geometry":{"type":"Point","coordinates":[-0.617,11.167]}},{"id":"30901","type":"Feature","properties":{"ident":"DFEO","type":"small_airport","name":"Zorgo Airport","elevation_ft":"978","continent":"AF","iso_country":"BF","iso_region":"BF-GAN","municipality":"Zorgo","scheduled_service":"no","gps_code":"DFEO"},"geometry":{"type":"Point","coordinates":[-0.620512,12.249065]}}]}