{"type":"FeatureCollection","features":[{"id":"320908","type":"Feature","properties":{"ident":"BG-0040","type":"small_airport","name":"Air Belozem Airstrip","elevation_ft":"515","continent":"EU","iso_country":"BG","iso_region":"BG-16","municipality":"Belozem","scheduled_service":"no","gps_code":"LBZM","home_link":"http://air.belozem.com/index.php"},"geometry":{"type":"Point","coordinates":[25.068086,42.216573]}},{"id":"315917","type":"Feature","properties":{"ident":"LBAM","type":"small_airport","name":"Alfa-Metal Airfield","elevation_ft":"2026","continent":"EU","iso_country":"BG","iso_region":"BG-07","municipality":"Gabrovo","scheduled_service":"no","icao_code":"LBAM","keywords":"Габрово, Alfa Metal"},"geometry":{"type":"Point","coordinates":[25.358928,42.948664]}},{"id":"516412","type":"Feature","properties":{"ident":"BG-0102","type":"small_airport","name":"Asenovgrad Airfield","elevation_ft":"922","continent":"EU","iso_country":"BG","iso_region":"BG-16","municipality":"Asenovgrad","scheduled_service":"no"},"geometry":{"type":"Point","coordinates":[24.9264,42.0099]}},{"id":"514426","type":"Feature","properties":{"ident":"BG-0097","type":"heliport","name":"Avis Medica Hospital Emergency Helipad","elevation_ft":"532","continent":"EU","iso_country":"BG","iso_region":"BG-15","municipality":"Pleven","scheduled_service":"no"},"geometry":{"type":"Point","coordinates":[24.63095,43.38605]}},{"id":"330281","type":"Feature","properties":{"ident":"BG-0067","type":"small_airport","name":"Aytos Airstrip","elevation_ft":"250","continent":"EU","iso_country":"BG","iso_region":"BG-02","municipality":"Aytos","scheduled_service":"no"},"geometry":{"type":"Point","coordinates":[27.254723,42.677296]}},{"id":"316401","type":"Feature","properties":{"ident":"LBBA","type":"small_airport","name":"Bahovitsa Airfield","elevation_ft":"1280","continent":"EU","iso_country":"BG","iso_region":"BG-11","municipality":"Bahovitsa","scheduled_service":"no","gps_code":"LBBA"},"geometry":{"type":"Point","coordinates":[24.655556,43.206111]}},{"id":"93","type":"Feature","properties":{"ident":"LBWB","type":"medium_airport","name":"Balchik Airfield","elevation_ft":"660","continent":"EU","iso_country":"BG","iso_region":"BG-08","municipality":"Balchik","scheduled_service":"no","gps_code":"LBWB","wikipedia_link":"https://en.wikipedia.org/wiki/Balchik_Airfield","keywords":"LB25"},"geometry":{"type":"Point","coordinates":[28.181299,43.423801]}},{"id":"316430","type":"Feature","properties":{"ident":"LBBZ","type":"small_airport","name":"Bazan Airstrip","elevation_ft":"579","continent":"EU","iso_country":"BG","iso_region":"BG-18","municipality":"Bazan","scheduled_service":"no","gps_code":"LBBZ"},"geometry":{"type":"Point","coordinates":[26.119696,43.728429]}},{"id":"330371","type":"Feature","properties":{"ident":"BG-0069","type":"small_airport","name":"Bedzhene Airstrip","continent":"EU","iso_country":"BG","iso_region":"BG-27","municipality":"Bedzhene","scheduled_service":"no"},"geometry":{"type":"Point","coordinates":[27.276943,43.447841]}},{"id":"315604","type":"Feature","properties":{"ident":"BG-0025","type":"small_airport","name":"Belchinski Bani Airstrip","continent":"EU","iso_country":"BG","iso_region":"BG-23","municipality":"Belchinski Bani","scheduled_service":"no","gps_code":"LBBB","wikipedia_link":"https://bg.wikipedia.org/wiki/%D0%9B%D0%B5%D1%82%D0%B8%D1%89%D0%B5_%D0%91%D0%B5%D0%BB%D1%87%D0%B8%D0%BD","keywords":"Air Sitis, Belchin"},"geometry":{"type":"Point","coordinates":[23.392854,42.374493]}},{"id":"554636","type":"Feature","properties":{"ident":"BG-0159","type":"small_airport","name":"Belitsa Airfield","elevation_ft":"420","continent":"EU","iso_country":"BG","iso_region":"BG-19","municipality":"Tutrakan","scheduled_service":"no"},"geometry":{"type":"Point","coordinates":[26.66035,43.94283]}},{"id":"345104","type":"Feature","properties":{"ident":"BG-0078","type":"small_airport","name":"Belozem SSA Airstrip","elevation_ft":"489","continent":"EU","iso_country":"BG","iso_region":"BG-16","municipality":"Belozem","scheduled_service":"no"},"geometry":{"type":"Point","coordinates":[25.05879,42.21439]}},{"id":"514168","type":"Feature","properties":{"ident":"BG-0095","type":"heliport","name":"Bendida Beach Heliport","elevation_ft":"240","continent":"EU","iso_country":"BG","iso_region":"BG-08","municipality":"Bozhurets","scheduled_service":"no"},"geometry":{"type":"Point","coordinates":[28.29096,43.4175]}},{"id":"111","type":"Feature","properties":{"ident":"BG-JAM","type":"medium_airport","name":"Bezmer Air Base","elevation_ft":"509","continent":"EU","iso_country":"BG","iso_region":"BG-28","municipality":"Bezmer","scheduled_service":"no","iata_code":"JAM","gps_code":"LBIA","wikipedia_link":"https://en.wikipedia.org/wiki/Bezmer_Airbase","keywords":"LB44"},"geometry":{"type":"Point","coordinates":[26.3522,42.454899]}},{"id":"315928","type":"Feature","properties":{"ident":"BG-0028","type":"small_airport","name":"Blagoevo Airfield","elevation_ft":"1185","continent":"EU","iso_country":"BG","iso_region":"BG-17","municipality":"Blagoevo","scheduled_service":"no","gps_code":"LBBL","wikipedia_link":"https://bg.wikipedia.org/wiki/%D0%9B%D0%B5%D1%82%D0%B8%D1%89%D0%B5_%D0%91%D0%BB%D0%B0%D0%B3%D0%BE%D0%B5%D0%B2%D0%BE"},"geometry":{"type":"Point","coordinates":[26.431655,43.455488]}},{"id":"43899","type":"Feature","properties":{"ident":"LBBO","type":"small_airport","name":"Bohot Airfield","elevation_ft":"1162","continent":"EU","iso_country":"BG","iso_region":"BG-15","municipality":"Bohot","scheduled_service":"no","gps_code":"LBBO","wikipedia_link":"https://en.wikipedia.org/wiki/Bohot_Airfield"},"geometry":{"type":"Point","coordinates":[24.691729,43.306875]}},{"id":"554638","type":"Feature","properties":{"ident":"BG-0160","type":"small_airport","name":"Borisovo Airfield","elevation_ft":"179","continent":"EU","iso_country":"BG","iso_region":"BG-18","municipality":"Slivo Pole","scheduled_service":"no"},"geometry":{"type":"Point","coordinates":[26.24698,43.92375]}},{"id":"328915","type":"Feature","properties":{"ident":"BG-0065","type":"small_airport","name":"Borovan Airstrip","continent":"EU","iso_country":"BG","iso_region":"BG-06","scheduled_service":"no"},"geometry":{"type":"Point","coordinates":[23.77037,43.426891]}},{"id":"320720","type":"Feature","properties":{"ident":"BG-0039","type":"small_airport","name":"Branichevo Airstrip","continent":"EU","iso_country":"BG","iso_region":"BG-27","municipality":"Branichevo","scheduled_service":"no"},"geometry":{"type":"Point","coordinates":[27.100207,43.666213]}},{"id":"328225","type":"Feature","properties":{"ident":"BG-0063","type":"small_airport","name":"Brenitsa Airstrip","continent":"EU","iso_country":"BG","iso_region":"BG-15","scheduled_service":"no"},"geometry":{"type":"Point","coordinates":[24.140371,43.441533]}},{"id":"316288","type":"Feature","properties":{"ident":"BG-0032","type":"small_airport","name":"Breznik Airfield","elevation_ft":"699","continent":"EU","iso_country":"BG","iso_region":"BG-14","municipality":"Pernik","scheduled_service":"no","gps_code":"LBBR","keywords":"Slakovtsi"},"geometry":{"type":"Point","coordinates":[22.896559,42.693305]}},{"id":"3974","type":"Feature","properties":{"ident":"LBBG","type":"large_airport","name":"Burgas Airport","elevation_ft":"135","continent":"EU","iso_country":"BG","iso_region":"BG-02","municipality":"Burgas","scheduled_service":"yes","icao_code":"LBBG","iata_code":"BOJ","gps_code":"LBBG","wikipedia_link":"https://en.wikipedia.org/wiki/Burgas_Airport","keywords":"Bourgas"},"geometry":{"type":"Point","coordinates":[27.515173,42.569917]}},{"id":"316381","type":"Feature","properties":{"ident":"LBBQ","type":"small_airport","name":"Byala Airfield","elevation_ft":"210","continent":"EU","iso_country":"BG","iso_region":"BG-18","municipality":"Byala","scheduled_service":"no","gps_code":"LBBQ"},"geometry":{"type":"Point","coordinates":[25.711613,43.463484]}},{"id":"329116","type":"Feature","properties":{"ident":"LBWC","type":"small_airport","name":"Chayka Naval Air Base","elevation_ft":"7","continent":"EU","iso_country":"BG","iso_region":"BG-03","municipality":"Tihina","scheduled_service":"no","gps_code":"LBWC"},"geometry":{"type":"Point","coordinates":[27.848255,43.188139]}},{"id":"316402","type":"Feature","properties":{"ident":"LBDA","type":"small_airport","name":"Daskal-Atanasovo Airfield","elevation_ft":"129","continent":"EU","iso_country":"BG","iso_region":"BG-24","municipality":"Daskal-Atanasovo","scheduled_service":"no","gps_code":"LBDA"},"geometry":{"type":"Point","coordinates":[25.893692,42.321322]}},{"id":"43908","type":"Feature","properties":{"ident":"LBDB","type":"small_airport","name":"Dolna Banya Airfield","elevation_ft":"1779","continent":"EU","iso_country":"BG","iso_region":"BG-23","municipality":"Dolna Banya","scheduled_service":"no","gps_code":"LBDB","home_link":"http://www.airportdb99.com/index.php/en/","wikipedia_link":"https://en.wikipedia.org/wiki/Dolna_Bania_Airfield"},"geometry":{"type":"Point","coordinates":[23.820417,42.308529]}},{"id":"108","type":"Feature","properties":{"ident":"LBPL","type":"medium_airport","name":"Dolna Mitropoliya Air Base","elevation_ft":"330","continent":"EU","iso_country":"BG","iso_region":"BG-15","municipality":"Dolna Mitropoliya","scheduled_service":"no","gps_code":"LBPL","wikipedia_link":"https://en.wikipedia.org/wiki/Dolna_Mitropoliya_Air_Base","keywords":"LB41"},"geometry":{"type":"Point","coordinates":[24.502423,43.451771]}},{"id":"316281","type":"Feature","properties":{"ident":"BG-0031","type":"small_airport","name":"Draganovtsi Airfield","continent":"EU","iso_country":"BG","iso_region":"BG-07","municipality":"Draganovtsi","scheduled_service":"no","gps_code":"LBDR","keywords":"Драгановци"},"geometry":{"type":"Point","coordinates":[25.169528,42.943042]}},{"id":"43905","type":"Feature","properties":{"ident":"BG-0013","type":"small_airport","name":"Dve Mogili Airfield","elevation_ft":"837","continent":"EU","iso_country":"BG","iso_region":"BG-18","municipality":"Dve Mogili","scheduled_service":"no","gps_code":"LBDM"},"geometry":{"type":"Point","coordinates":[25.890982,43.606655]}},{"id":"323737","type":"Feature","properties":{"ident":"BG-0046","type":"small_airport","name":"Dzhulyunitsa Airstrip","continent":"EU","iso_country":"BG","iso_region":"BG-18","municipality":"Dzhulyunitsa","scheduled_service":"no"},"geometry":{"type":"Point","coordinates":[25.614431,43.5858]}},{"id":"516462","type":"Feature","properties":{"ident":"BG-0117","type":"small_airport","name":"Ekzarh Yosif Airstrip","elevation_ft":"620","continent":"EU","iso_country":"BG","iso_region":"BG-18","municipality":"Ekzarh Yosif","scheduled_service":"no"},"geometry":{"type":"Point","coordinates":[25.78988,43.62617]}},{"id":"43898","type":"Feature","properties":{"ident":"LBRD","type":"small_airport","name":"Erden Airfield","elevation_ft":"617","continent":"EU","iso_country":"BG","iso_region":"BG-12","municipality":"Erden","scheduled_service":"no","gps_code":"LBRD","wikipedia_link":"https://en.wikipedia.org/wiki/Erden_Airfield"},"geometry":{"type":"Point","coordinates":[23.304722,43.499168]}},{"id":"102","type":"Feature","properties":{"ident":"LB35","type":"small_airport","name":"Golyama Smolnitsa Airstrip","elevation_ft":"810","continent":"EU","iso_country":"BG","iso_region":"BG-08","municipality":"Smolnitsa","scheduled_service":"no","local_code":"LB35"},"geometry":{"type":"Point","coordinates":[27.695203,43.627269]}},{"id":"3975","type":"Feature","properties":{"ident":"LBGO","type":"medium_airport","name":"Gorna Oryahovitsa Airport","elevation_ft":"285","continent":"EU","iso_country":"BG","iso_region":"BG-04","municipality":"Gorna Oryahovitsa","scheduled_service":"no","icao_code":"LBGO","iata_code":"GOZ","gps_code":"LBGO","home_link":"http://gornaoryahovitsa-airport.bg/","wikipedia_link":"https://en.wikipedia.org/wiki/Gorna_Oryahovitsa_Airport"},"geometry":{"type":"Point","coordinates":[25.7129,43.151402]}},{"id":"316400","type":"Feature","properties":{"ident":"LBGI","type":"small_airport","name":"Gorski Izvor Airstrip","elevation_ft":"164","continent":"EU","iso_country":"BG","iso_region":"BG-26","municipality":"Gorski Izvor","scheduled_service":"no","gps_code":"LBGI"},"geometry":{"type":"Point","coordinates":[25.408333,42.035833]}},{"id":"328466","type":"Feature","properties":{"ident":"BG-0064","type":"small_airport","name":"Gradishte Airstrip","elevation_ft":"931","continent":"EU","iso_country":"BG","iso_region":"BG-27","municipality":"Gradishte","scheduled_service":"no","gps_code":"LBGD","keywords":"Sky Shumen"},"geometry":{"type":"Point","coordinates":[26.853869,43.333531]}},{"id":"89","type":"Feature","properties":{"ident":"LBPG","type":"medium_airport","name":"Graf Ignatievo Air Base","elevation_ft":"190","continent":"EU","iso_country":"BG","iso_region":"BG-16","municipality":"Graf Ignatievo","scheduled_service":"no","gps_code":"LBPG","wikipedia_link":"https://en.wikipedia.org/wiki/Graf_Ignatievo_Airbase","keywords":"LB21"},"geometry":{"type":"Point","coordinates":[24.714001,42.290401]}},{"id":"43900","type":"Feature","properties":{"ident":"LBGR","type":"small_airport","name":"Grivitsa Airfield","elevation_ft":"919","continent":"EU","iso_country":"BG","iso_region":"BG-15","municipality":"Grivitsa","scheduled_service":"no","gps_code":"LBGR","wikipedia_link":"https://en.wikipedia.org/wiki/Grivitza_Airfield"},"geometry":{"type":"Point","coordinates":[24.733714,43.414941]}},{"id":"43909","type":"Feature","properties":{"ident":"LBHT","type":"small_airport","name":"Ihtiman Airfield","elevation_ft":"2113","continent":"EU","iso_country":"BG","iso_region":"BG-23","municipality":"Ihtiman","scheduled_service":"no","gps_code":"LBHT","home_link":"https://bg-bg.facebook.com/BG.LBHT","wikipedia_link":"https://en.wikipedia.org/wiki/Ihtiman_Airfield","keywords":"Maintenance, aircraft maintenance, FTO"},"geometry":{"type":"Point","coordinates":[23.767221,42.42189]}},{"id":"347419","type":"Feature","properties":{"ident":"BG-0081","type":"small_airport","name":"Kalugerene Airstrip","continent":"EU","iso_country":"BG","iso_region":"BG-19","municipality":"Kalugerene","scheduled_service":"no"},"geometry":{"type":"Point","coordinates":[26.866593,43.906551]}},{"id":"43912","type":"Feature","properties":{"ident":"LBKL","type":"small_airport","name":"Kalvacha Airfield","elevation_ft":"1083","continent":"EU","iso_country":"BG","iso_region":"BG-24","municipality":"Kalvacha","scheduled_service":"no","gps_code":"LBKL","home_link":"http://airfieldsbg.eu/en-nachalo","wikipedia_link":"https://en.wikipedia.org/wiki/Kazanlak_Airport"},"geometry":{"type":"Point","coordinates":[25.426976,42.585997]}},{"id":"109","type":"Feature","properties":{"ident":"LB42","type":"small_airport","name":"Kamenets Air Base","elevation_ft":"420","continent":"EU","iso_country":"BG","iso_region":"BG-15","municipality":"Kamenets","scheduled_service":"no","local_code":"LB42"},"geometry":{"type":"Point","coordinates":[25.003401,43.327301]}},{"id":"43892","type":"Feature","properties":{"ident":"LBKJ","type":"small_airport","name":"Kaynardzha Airfield","elevation_ft":"575","continent":"EU","iso_country":"BG","iso_region":"BG-19","municipality":"Kaynardzha","scheduled_service":"no","gps_code":"LBKJ","wikipedia_link":"https://en.wikipedia.org/wiki/Kaynardzha_Airfield","keywords":"Flight School Rebus"},"geometry":{"type":"Point","coordinates":[27.469754,43.969999]}},{"id":"328224","type":"Feature","properties":{"ident":"BG-0062","type":"small_airport","name":"Knezha Airstrip","elevation_ft":"495","continent":"EU","iso_country":"BG","iso_region":"BG-15","municipality":"Knezha","scheduled_service":"no"},"geometry":{"type":"Point","coordinates":[24.094756,43.546246]}},{"id":"323910","type":"Feature","properties":{"ident":"BG-0050","type":"small_airport","name":"Koynare Airstrip","continent":"EU","iso_country":"BG","iso_region":"BG-15","municipality":"Koynare","scheduled_service":"no"},"geometry":{"type":"Point","coordinates":[24.130442,43.371055]}},{"id":"315510","type":"Feature","properties":{"ident":"BG-0024","type":"small_airport","name":"Krivnya Agricultural Airfield","elevation_ft":"984","continent":"EU","iso_country":"BG","iso_region":"BG-18","municipality":"Senovo","scheduled_service":"no"},"geometry":{"type":"Point","coordinates":[26.422251,43.66307]}},{"id":"330381","type":"Feature","properties":{"ident":"BG-0070","type":"small_airport","name":"Krivodol Airstrip","elevation_ft":"833","continent":"EU","iso_country":"BG","iso_region":"BG-06","municipality":"Krivodol","scheduled_service":"no"},"geometry":{"type":"Point","coordinates":[23.510399,43.37501]}},{"id":"554634","type":"Feature","properties":{"ident":"BG-0157","type":"small_airport","name":"Krushari Airfield","elevation_ft":"712","continent":"EU","iso_country":"BG","iso_region":"BG-08","municipality":"Krushari","scheduled_service":"no"},"geometry":{"type":"Point","coordinates":[27.76284,43.83178]}},{"id":"514196","type":"Feature","properties":{"ident":"BG-0096","type":"heliport","name":"Kyustendil Heliport","elevation_ft":"1798","continent":"EU","iso_country":"BG","iso_region":"BG-10","municipality":"Kyustendil","scheduled_service":"no"},"geometry":{"type":"Point","coordinates":[22.67311,42.28959]}},{"id":"100","type":"Feature","properties":{"ident":"LB33","type":"small_airport","name":"Leskovo Airfield","elevation_ft":"700","continent":"EU","iso_country":"BG","iso_region":"BG-08","municipality":"Leskovo","scheduled_service":"no","local_code":"LB33"},"geometry":{"type":"Point","coordinates":[27.690751,43.724185]}},{"id":"43910","type":"Feature","properties":{"ident":"LBLS","type":"small_airport","name":"Lesnovo Airfield","elevation_ft":"1825","continent":"EU","iso_country":"BG","iso_region":"BG-23","municipality":"Lesnovo","scheduled_service":"no","gps_code":"LBLS","wikipedia_link":"https://en.wikipedia.org/wiki/Lesnovo_Airfield"},"geometry":{"type":"Point","coordinates":[23.650102,42.632465]}},{"id":"98","type":"Feature","properties":{"ident":"LB31","type":"small_airport","name":"Levski Airfield","elevation_ft":"150","continent":"EU","iso_country":"BG","iso_region":"BG-15","municipality":"Levski","scheduled_service":"no","keywords":"LB31"},"geometry":{"type":"Point","coordinates":[25.149099,43.3694]}},{"id":"330334","type":"Feature","properties":{"ident":"BG-0068","type":"small_airport","name":"Lozarevo Airstrip","elevation_ft":"1023","continent":"EU","iso_country":"BG","iso_region":"BG-02","municipality":"Sungurlare","scheduled_service":"no","keywords":"Лозарево"},"geometry":{"type":"Point","coordinates":[26.900321,42.757368]}},{"id":"325008","type":"Feature","properties":{"ident":"BG-0057","type":"small_airport","name":"Lozen Airstrip","elevation_ft":"751","continent":"EU","iso_country":"BG","iso_region":"BG-04","municipality":"Lozen","scheduled_service":"no"},"geometry":{"type":"Point","coordinates":[25.862821,43.301985]}},{"id":"43911","type":"Feature","properties":{"ident":"LBLN","type":"heliport","name":"Lozen Heliport","elevation_ft":"1923","continent":"EU","iso_country":"BG","iso_region":"BG-22","municipality":"Lozen","scheduled_service":"no","gps_code":"LBLN"},"geometry":{"type":"Point","coordinates":[23.500622,42.618534]}},{"id":"513965","type":"Feature","properties":{"ident":"BG-0093","type":"heliport","name":"Lozenets University Hospital Heliport","elevation_ft":"2021","continent":"EU","iso_country":"BG","iso_region":"BG-22","municipality":"Sofia","scheduled_service":"no"},"geometry":{"type":"Point","coordinates":[23.31149,42.663]}},{"id":"31597","type":"Feature","properties":{"ident":"BG-HKV","type":"small_airport","name":"Malevo Airfield","elevation_ft":"600","continent":"EU","iso_country":"BG","iso_region":"BG-26","municipality":"Malevo","scheduled_service":"no","iata_code":"HKV","gps_code":"LBMV","wikipedia_link":"https://en.wikipedia.org/wiki/Haskovo_Malevo_Airport","keywords":"LB26"},"geometry":{"type":"Point","coordinates":[25.604799,41.871799]}},{"id":"318178","type":"Feature","properties":{"ident":"LBMA","type":"small_airport","name":"Maritsa Airfield","elevation_ft":"630","continent":"EU","iso_country":"BG","iso_region":"BG-16","municipality":"Maritsa","scheduled_service":"no","gps_code":"LBMA","keywords":"Graf Ignatievo"},"geometry":{"type":"Point","coordinates":[24.7205,42.2652]}},{"id":"96","type":"Feature","properties":{"ident":"LB29","type":"small_airport","name":"Maslarevo Airstrip","elevation_ft":"349","continent":"EU","iso_country":"BG","iso_region":"BG-04","municipality":"Maslarevo","scheduled_service":"no","local_code":"LB29"},"geometry":{"type":"Point","coordinates":[25.474001,43.405399]}},{"id":"330382","type":"Feature","properties":{"ident":"BG-0071","type":"small_airport","name":"Medovnitsa Airstrip","elevation_ft":"965","continent":"EU","iso_country":"BG","iso_region":"BG-05","municipality":"Medovnitsa","scheduled_service":"no"},"geometry":{"type":"Point","coordinates":[22.797611,43.647866]}},{"id":"323617","type":"Feature","properties":{"ident":"BG-0045","type":"small_airport","name":"Mogilishte Airstrip","elevation_ft":"423","continent":"EU","iso_country":"BG","iso_region":"BG-08","municipality":"Kavarna","scheduled_service":"no"},"geometry":{"type":"Point","coordinates":[28.351996,43.49156]}},{"id":"316380","type":"Feature","properties":{"ident":"LBMO","type":"small_airport","name":"Montana Airfield","elevation_ft":"778","continent":"EU","iso_country":"BG","iso_region":"BG-12","municipality":"Montana","scheduled_service":"no","gps_code":"LBMO"},"geometry":{"type":"Point","coordinates":[23.263203,43.382619]}},{"id":"347698","type":"Feature","properties":{"ident":"BG-0083","type":"small_airport","name":"Moskovets Airstrip","continent":"EU","iso_country":"BG","iso_region":"BG-16","municipality":"Moskovets","scheduled_service":"no"},"geometry":{"type":"Point","coordinates":[24.68383,42.65839]}},{"id":"347932","type":"Feature","properties":{"ident":"BG-0084","type":"small_airport","name":"Nedelevo Airstrip","continent":"EU","iso_country":"BG","iso_region":"BG-16","municipality":"Nedelevo","scheduled_service":"no"},"geometry":{"type":"Point","coordinates":[24.610223,42.338768]}},{"id":"321097","type":"Feature","properties":{"ident":"BG-0043","type":"small_airport","name":"Nikola Kozlevo Airstrip","continent":"EU","iso_country":"BG","iso_region":"BG-27","municipality":"Nikola Kozlevo","scheduled_service":"no"},"geometry":{"type":"Point","coordinates":[27.222824,43.553365]}},{"id":"508727","type":"Feature","properties":{"ident":"BG-0090","type":"small_airport","name":"Nikolovo Airfield","elevation_ft":"502","continent":"EU","iso_country":"BG","iso_region":"BG-18","municipality":"Nikolovo","scheduled_service":"no"},"geometry":{"type":"Point","coordinates":[26.1328,43.861685]}},{"id":"354823","type":"Feature","properties":{"ident":"BG-0088","type":"small_airport","name":"Omarchevo Airstrip","continent":"EU","iso_country":"BG","iso_region":"BG-20","municipality":"Omarchevo","scheduled_service":"no"},"geometry":{"type":"Point","coordinates":[26.144074,42.46799]}},{"id":"320637","type":"Feature","properties":{"ident":"BG-0037","type":"small_airport","name":"Orlyak Airfield","elevation_ft":"883","continent":"EU","iso_country":"BG","iso_region":"BG-08","municipality":"Orlyak","scheduled_service":"no"},"geometry":{"type":"Point","coordinates":[27.396855,43.634864]}},{"id":"315509","type":"Feature","properties":{"ident":"BG-0023","type":"small_airport","name":"Ostrovo Airfield","continent":"EU","iso_country":"BG","iso_region":"BG-17","municipality":"Ostrovo","scheduled_service":"no","local_code":"LB47"},"geometry":{"type":"Point","coordinates":[26.579964,43.693874]}},{"id":"594492","type":"Feature","properties":{"ident":"BG-0183","type":"heliport","name":"Panagyurishte Hospital Heliport","elevation_ft":"1703","continent":"EU","iso_country":"BG","iso_region":"BG-13","municipality":"Panagyurishte","scheduled_service":"no"},"geometry":{"type":"Point","coordinates":[24.18503,42.49309]}},{"id":"326891","type":"Feature","properties":{"ident":"BG-0060","type":"small_airport","name":"Panicharevo Airport","elevation_ft":"1811","continent":"EU","iso_country":"BG","iso_region":"BG-10","municipality":"Panicharevo","scheduled_service":"no","gps_code":"LBPN"},"geometry":{"type":"Point","coordinates":[22.990773,42.276287]}},{"id":"516439","type":"Feature","properties":{"ident":"BG-0110","type":"small_airport","name":"Pet Mogili Airstrip","elevation_ft":"489","continent":"EU","iso_country":"BG","iso_region":"BG-20","municipality":"Pet Mogili","scheduled_service":"no"},"geometry":{"type":"Point","coordinates":[26.06231,42.32262]}},{"id":"508728","type":"Feature","properties":{"ident":"BG-0091","type":"small_airport","name":"Pirgovo Airfield","elevation_ft":"564","continent":"EU","iso_country":"BG","iso_region":"BG-18","municipality":"Pirgovo","scheduled_service":"no"},"geometry":{"type":"Point","coordinates":[25.89486,43.7063]}},{"id":"323875","type":"Feature","properties":{"ident":"BG-0048","type":"small_airport","name":"Pishtigovo Airstrip","continent":"EU","iso_country":"BG","iso_region":"BG-13","municipality":"Pishtigovo","scheduled_service":"no"},"geometry":{"type":"Point","coordinates":[24.439594,42.230186]}},{"id":"3976","type":"Feature","properties":{"ident":"LBPD","type":"medium_airport","name":"Plovdiv International Airport","elevation_ft":"597","continent":"EU","iso_country":"BG","iso_region":"BG-16","municipality":"Plovdiv","scheduled_service":"yes","icao_code":"LBPD","iata_code":"PDV","gps_code":"LBPD","home_link":"http://www.plovdivairport.com/","wikipedia_link":"https://en.wikipedia.org/wiki/Plovdiv_International_Airport"},"geometry":{"type":"Point","coordinates":[24.8508,42.067799]}},{"id":"430507","type":"Feature","properties":{"ident":"BG-0089","type":"small_airport","name":"Popovo Airfield","elevation_ft":"745","continent":"EU","iso_country":"BG","iso_region":"BG-17","municipality":"Popovo","scheduled_service":"no","keywords":"летище Попово, Letishte Popovo"},"geometry":{"type":"Point","coordinates":[26.238574,43.35958]}},{"id":"43887","type":"Feature","properties":{"ident":"LBPR","type":"small_airport","name":"Primorsko Airfield","elevation_ft":"14","continent":"EU","iso_country":"BG","iso_region":"BG-02","municipality":"Primorsko","scheduled_service":"no","gps_code":"LBPR","wikipedia_link":"https://en.wikipedia.org/wiki/Primorsko_Airfield"},"geometry":{"type":"Point","coordinates":[27.703846,42.2596]}},{"id":"323828","type":"Feature","properties":{"ident":"BG-0047","type":"small_airport","name":"Rakovski Airstrip","elevation_ft":"607","continent":"EU","iso_country":"BG","iso_region":"BG-16","municipality":"Rakovski","scheduled_service":"no"},"geometry":{"type":"Point","coordinates":[24.947137,42.293515]}},{"id":"43913","type":"Feature","properties":{"ident":"BG-0016","type":"small_airport","name":"Raykova Mogila Airfield","elevation_ft":"690","continent":"EU","iso_country":"BG","iso_region":"BG-26","municipality":"Raykova Mogila","scheduled_service":"no"},"geometry":{"type":"Point","coordinates":[26.304145,41.815966]}},{"id":"345099","type":"Feature","properties":{"ident":"BG-0077","type":"small_airport","name":"Ruen Airstrip","continent":"EU","iso_country":"BG","iso_region":"BG-02","municipality":"Ruen","scheduled_service":"no"},"geometry":{"type":"Point","coordinates":[27.29394,42.801632]}},{"id":"92","type":"Feature","properties":{"ident":"LBRS","type":"small_airport","name":"Ruse Airport","elevation_ft":"614","continent":"EU","iso_country":"BG","iso_region":"BG-18","municipality":"Shtraklevo","scheduled_service":"no","icao_code":"LBRS","iata_code":"ROU","gps_code":"LBRS","wikipedia_link":"https://en.wikipedia.org/wiki/Ruse_Airport","keywords":"LB24, Shtraklevo Air Base, Shtruklovo"},"geometry":{"type":"Point","coordinates":[26.0567,43.694801]}},{"id":"43897","type":"Feature","properties":{"ident":"BG-0009","type":"small_airport","name":"Selanovtsi Airfield","elevation_ft":"535","continent":"EU","iso_country":"BG","iso_region":"BG-06","municipality":"Selanovtsi","scheduled_service":"no"},"geometry":{"type":"Point","coordinates":[24.010749,43.65401]}},{"id":"347167","type":"Feature","properties":{"ident":"BG-0080","type":"small_airport","name":"Selskostopansko Airstrip","continent":"EU","iso_country":"BG","iso_region":"BG-18","scheduled_service":"no"},"geometry":{"type":"Point","coordinates":[25.8523,43.40321]}},{"id":"321060","type":"Feature","properties":{"ident":"BG-0042","type":"small_airport","name":"Selskostopansko Airstrip","elevation_ft":"400","continent":"EU","iso_country":"BG","iso_region":"BG-27","municipality":"Ilia Blaskovo","scheduled_service":"no"},"geometry":{"type":"Point","coordinates":[27.045656,43.236482]}},{"id":"320996","type":"Feature","properties":{"ident":"BG-0041","type":"small_airport","name":"Selskostopansko Airstrip","elevation_ft":"837","continent":"EU","iso_country":"BG","iso_region":"BG-28","municipality":"Vodenichane","scheduled_service":"no"},"geometry":{"type":"Point","coordinates":[26.673452,42.544095]}},{"id":"324584","type":"Feature","properties":{"ident":"BG-0055","type":"small_airport","name":"Shumen Airfield","elevation_ft":"761","continent":"EU","iso_country":"BG","iso_region":"BG-27","municipality":"Shumen","scheduled_service":"no"},"geometry":{"type":"Point","coordinates":[26.942278,43.287027]}},{"id":"316379","type":"Feature","properties":{"ident":"LBSB","type":"small_airport","name":"Slanchev Bryag (Sunny Beach) Airstrip","elevation_ft":"153","continent":"EU","iso_country":"BG","iso_region":"BG-02","municipality":"Nesebar","scheduled_service":"no","gps_code":"LBSB"},"geometry":{"type":"Point","coordinates":[27.622204,42.727816]}},{"id":"331798","type":"Feature","properties":{"ident":"BG-0072","type":"small_airport","name":"Slatina Airstrip","elevation_ft":"1184","continent":"EU","iso_country":"BG","iso_region":"BG-11","municipality":"Slatina","scheduled_service":"no"},"geometry":{"type":"Point","coordinates":[24.739494,43.272279]}},{"id":"326621","type":"Feature","properties":{"ident":"BG-0059","type":"small_airport","name":"Slavovitsa Airstrip","continent":"EU","iso_country":"BG","iso_region":"BG-15","municipality":"Slavovitsa","scheduled_service":"no"},"geometry":{"type":"Point","coordinates":[24.447176,43.580888]}},{"id":"85","type":"Feature","properties":{"ident":"LBSL","type":"small_airport","name":"Sliven Barshen Airfield","elevation_ft":"656","continent":"EU","iso_country":"BG","iso_region":"BG-20","municipality":"Sliven","scheduled_service":"no","gps_code":"LBSL","wikipedia_link":"https://en.wikipedia.org/wiki/Sliven_Airfield"},"geometry":{"type":"Point","coordinates":[26.358791,42.645272]}},{"id":"316339","type":"Feature","properties":{"ident":"BG-0033","type":"small_airport","name":"Slivnitsa Airfield","elevation_ft":"2028","continent":"EU","iso_country":"BG","iso_region":"BG-23","municipality":"Slivnitsa","scheduled_service":"no","gps_code":"LBSA","wikipedia_link":"https://bg.wikipedia.org/wiki/%D0%9B%D0%B5%D1%82%D0%B8%D1%89%D0%B5_%D0%A1%D0%BB%D0%B8%D0%B2%D0%BD%D0%B8%D1%86%D0%B0"},"geometry":{"type":"Point","coordinates":[23.014162,42.844082]}},{"id":"3977","type":"Feature","properties":{"ident":"LBSF","type":"large_airport","name":"Sofia Airport","elevation_ft":"1742","continent":"EU","iso_country":"BG","iso_region":"BG-22","municipality":"Sofia","scheduled_service":"yes","icao_code":"LBSF","iata_code":"SOF","gps_code":"LBSF","home_link":"http://sofia-airport.bg","wikipedia_link":"https://en.wikipedia.org/wiki/Sofia_Airport","keywords":"Sofia International Airport, Vrazhdebna Air Base"},"geometry":{"type":"Point","coordinates":[23.417671,42.696357]}},{"id":"81","type":"Feature","properties":{"ident":"LB13","type":"small_airport","name":"Sofia West Airfield","elevation_ft":"2097","continent":"EU","iso_country":"BG","iso_region":"BG-14","municipality":"Radomir","scheduled_service":"no","gps_code":"LBSW","home_link":"https://www.sofiawestairport.bg/en/","wikipedia_link":"https://bg.wikipedia.org/wiki/%D0%A1%D0%BE%D1%84%D0%B8%D1%8F_%D0%A3%D0%B5%D1%81%D1%82_%D0%95%D1%8A%D1%80%D0%BF%D0%BE%D1%80%D1%82","keywords":"Dren"},"geometry":{"type":"Point","coordinates":[22.9835,42.444199]}},{"id":"517305","type":"Feature","properties":{"ident":"BG-0123","type":"small_airport","name":"Sokolare Highway Strip","elevation_ft":"571","continent":"EU","iso_country":"BG","iso_region":"BG-06","municipality":"Sokolare","scheduled_service":"no"},"geometry":{"type":"Point","coordinates":[23.85738,43.44957]}},{"id":"103","type":"Feature","properties":{"ident":"LB36","type":"small_airport","name":"Sokolovo Airstrip","elevation_ft":"760","continent":"EU","iso_country":"BG","iso_region":"BG-08","municipality":"Sokolovo","scheduled_service":"no","local_code":"LB36"},"geometry":{"type":"Point","coordinates":[28.103522,43.475641]}},{"id":"3978","type":"Feature","properties":{"ident":"LBSZ","type":"small_airport","name":"Stara Zagora Airport","elevation_ft":"558","continent":"EU","iso_country":"BG","iso_region":"BG-24","municipality":"Stara Zagora","scheduled_service":"no","icao_code":"LBSZ","iata_code":"SZR","gps_code":"LBSZ","wikipedia_link":"https://en.wikipedia.org/wiki/Stara_Zagora_Airport"},"geometry":{"type":"Point","coordinates":[25.655,42.376667]}},{"id":"316181","type":"Feature","properties":{"ident":"BG-0029","type":"small_airport","name":"Staro Selishte Airfield","elevation_ft":"1004","continent":"EU","iso_country":"BG","iso_region":"BG-17","municipality":"Isperih","scheduled_service":"no","gps_code":"LBSE","keywords":"Старо селище, Air Nick"},"geometry":{"type":"Point","coordinates":[26.754078,43.650178]}},{"id":"324048","type":"Feature","properties":{"ident":"BG-0053","type":"small_airport","name":"Staroseltsi","continent":"EU","iso_country":"BG","iso_region":"BG-15","scheduled_service":"no"},"geometry":{"type":"Point","coordinates":[24.296787,43.531511]}},{"id":"43903","type":"Feature","properties":{"ident":"LBST","type":"small_airport","name":"Stryama Airfield","elevation_ft":"916","continent":"EU","iso_country":"BG","iso_region":"BG-16","municipality":"Banya","scheduled_service":"no","gps_code":"LBST"},"geometry":{"type":"Point","coordinates":[24.827384,42.537873]}},{"id":"97","type":"Feature","properties":{"ident":"LB30","type":"small_airport","name":"Stryama Airfield","elevation_ft":"560","continent":"EU","iso_country":"BG","iso_region":"BG-16","municipality":"Stryama","scheduled_service":"no","local_code":"LB30"},"geometry":{"type":"Point","coordinates":[24.866967,42.281706]}},{"id":"504958","type":"Feature","properties":{"ident":"LBSK","type":"seaplane_base","name":"Studen Kladenets Seaplane Base","continent":"EU","iso_country":"BG","iso_region":"BG-09","municipality":"Shiroko Pole","scheduled_service":"no","gps_code":"LBSK"},"geometry":{"type":"Point","coordinates":[25.480833,41.630278]}},{"id":"320719","type":"Feature","properties":{"ident":"BG-0038","type":"small_airport","name":"Suvorovo Airstrip","elevation_ft":"1017","continent":"EU","iso_country":"BG","iso_region":"BG-03","municipality":"Suvorovo","scheduled_service":"no"},"geometry":{"type":"Point","coordinates":[27.583126,43.358727]}},{"id":"514023","type":"Feature","properties":{"ident":"BG-0094","type":"heliport","name":"Sveta Anna Hospital Heliport","elevation_ft":"1923","continent":"EU","iso_country":"BG","iso_region":"BG-22","municipality":"Sofia","scheduled_service":"no"},"geometry":{"type":"Point","coordinates":[23.37346,42.65984]}},{"id":"504917","type":"Feature","properties":{"ident":"LBSV","type":"heliport","name":"Sveta Marina Hospital Helistrip","continent":"EU","iso_country":"BG","iso_region":"BG-03","scheduled_service":"no","gps_code":"LBSV"},"geometry":{"type":"Point","coordinates":[27.939305,43.226911]}},{"id":"43893","type":"Feature","properties":{"ident":"BG-0005","type":"small_airport","name":"Svishtov Airfield","elevation_ft":"60","continent":"EU","iso_country":"BG","iso_region":"BG-04","municipality":"Svishtov","scheduled_service":"no"},"geometry":{"type":"Point","coordinates":[25.283663,43.618179]}},{"id":"86","type":"Feature","properties":{"ident":"LB18","type":"small_airport","name":"Tenevo Airstrip","elevation_ft":"390","continent":"EU","iso_country":"BG","iso_region":"BG-28","municipality":"Tenevo","scheduled_service":"no","local_code":"LB18"},"geometry":{"type":"Point","coordinates":[26.5739,42.346401]}},{"id":"329247","type":"Feature","properties":{"ident":"BG-0066","type":"small_airport","name":"Tervel Airstrip","elevation_ft":"846","continent":"EU","iso_country":"BG","iso_region":"BG-08","municipality":"Tervel","scheduled_service":"no"},"geometry":{"type":"Point","coordinates":[27.440139,43.717833]}},{"id":"43889","type":"Feature","properties":{"ident":"BG-0003","type":"small_airport","name":"Trastikovo Airstrip","elevation_ft":"40","continent":"EU","iso_country":"BG","iso_region":"BG-02","municipality":"Kameno","scheduled_service":"no","keywords":"Konstantinovo, Novoseltsi, Trustikovo"},"geometry":{"type":"Point","coordinates":[27.293919,42.414645]}},{"id":"79","type":"Feature","properties":{"ident":"LB11","type":"small_airport","name":"Tsalapitsa Airfield","elevation_ft":"630","continent":"EU","iso_country":"BG","iso_region":"BG-16","municipality":"Tsalapitsa","scheduled_service":"no","gps_code":"LBTS"},"geometry":{"type":"Point","coordinates":[24.535716,42.188747]}},{"id":"348336","type":"Feature","properties":{"ident":"BG-0086","type":"small_airport","name":"Vabel Airstrip","elevation_ft":"676","continent":"EU","iso_country":"BG","iso_region":"BG-15","municipality":"Nikopol","scheduled_service":"no"},"geometry":{"type":"Point","coordinates":[24.913237,43.664115]}},{"id":"3979","type":"Feature","properties":{"ident":"LBWN","type":"large_airport","name":"Varna Airport","elevation_ft":"230","continent":"EU","iso_country":"BG","iso_region":"BG-03","municipality":"Varna","scheduled_service":"yes","icao_code":"LBWN","iata_code":"VAR","gps_code":"LBWN","wikipedia_link":"https://en.wikipedia.org/wiki/Varna_Airport","keywords":"Aksakovo"},"geometry":{"type":"Point","coordinates":[27.8251,43.232101]}},{"id":"342214","type":"Feature","properties":{"ident":"BG-0075","type":"small_airport","name":"Vetrino Airstrip","elevation_ft":"689","continent":"EU","iso_country":"BG","iso_region":"BG-03","municipality":"Vetrino","scheduled_service":"no"},"geometry":{"type":"Point","coordinates":[27.41527,43.31172]}},{"id":"107","type":"Feature","properties":{"ident":"LBVD","type":"small_airport","name":"Vidin Smurdan Airfield","elevation_ft":"200","continent":"EU","iso_country":"BG","iso_region":"BG-05","municipality":"Vidin","scheduled_service":"no","gps_code":"LBVD","wikipedia_link":"https://en.wikipedia.org/wiki/Vidin_Airfield","keywords":"LB40"},"geometry":{"type":"Point","coordinates":[22.816099,44.0224]}},{"id":"318177","type":"Feature","properties":{"ident":"LBVR","type":"small_airport","name":"Vratsa Airfield","elevation_ft":"935","continent":"EU","iso_country":"BG","iso_region":"BG-06","municipality":"Vratsa","scheduled_service":"no","gps_code":"LBVR"},"geometry":{"type":"Point","coordinates":[23.5327,43.2559]}},{"id":"43890","type":"Feature","properties":{"ident":"BG-0004","type":"small_airport","name":"Zagortsi Airfield","elevation_ft":"368","continent":"EU","iso_country":"BG","iso_region":"BG-02","municipality":"Sredets","scheduled_service":"no"},"geometry":{"type":"Point","coordinates":[27.070605,42.401306]}},{"id":"346373","type":"Feature","properties":{"ident":"BG-0079","type":"small_airport","name":"Zavet Airstrip","elevation_ft":"883","continent":"EU","iso_country":"BG","iso_region":"BG-17","municipality":"Zavet","scheduled_service":"no"},"geometry":{"type":"Point","coordinates":[26.66147,43.74425]}}]}