{"type":"FeatureCollection","features":[{"id":"39463","type":"Feature","properties":{"ident":"SLZV","type":"small_airport","name":"San Vicente Airport","elevation_ft":"1000","continent":"SA","iso_country":"BO","iso_region":"BO-S","municipality":"Velasco","scheduled_service":"no","gps_code":"SLZV"},"geometry":{"type":"Point","coordinates":[-60.090698,-16.273701]}},{"id":"39541","type":"Feature","properties":{"ident":"SLZJ","type":"small_airport","name":"San Pedro Richard Airport","elevation_ft":"700","continent":"SA","iso_country":"BO","iso_region":"BO-B","municipality":"Itenes","scheduled_service":"no","gps_code":"SLZJ"},"geometry":{"type":"Point","coordinates":[-63.650002,-14.216666]}},{"id":"39461","type":"Feature","properties":{"ident":"SLZF","type":"small_airport","name":"San Francisco Naciff Airport","elevation_ft":"482","continent":"SA","iso_country":"BO","iso_region":"BO-B","municipality":"Nacif","scheduled_service":"no","gps_code":"SLZF"},"geometry":{"type":"Point","coordinates":[-64.453697,-13.7486]}},{"id":"39537","type":"Feature","properties":{"ident":"SLZC","type":"small_airport","name":"San Carlos Airport","elevation_ft":"1150","continent":"SA","iso_country":"BO","iso_region":"BO-S","municipality":"Ichilo","scheduled_service":"no","gps_code":"SLZC"},"geometry":{"type":"Point","coordinates":[-63.674953,-17.427798]}},{"id":"39540","type":"Feature","properties":{"ident":"SLZB","type":"small_airport","name":"San Pedro Rb Airport","elevation_ft":"720","continent":"SA","iso_country":"BO","iso_region":"BO-B","municipality":"Moxos","scheduled_service":"no","gps_code":"SLZB"},"geometry":{"type":"Point","coordinates":[-65.650002,-14.866667]}},{"id":"39559","type":"Feature","properties":{"ident":"SLYI","type":"small_airport","name":"Yapacani Airport","elevation_ft":"816","continent":"SA","iso_country":"BO","iso_region":"BO-S","municipality":"Ichilo","scheduled_service":"no","gps_code":"SLYI"},"geometry":{"type":"Point","coordinates":[-64.056335,-17.015667]}},{"id":"39478","type":"Feature","properties":{"ident":"SLYG","type":"small_airport","name":"Yabog Airport","elevation_ft":"1412","continent":"SA","iso_country":"BO","iso_region":"BO-S","municipality":"Las Juntas","scheduled_service":"no","gps_code":"SLYG"},"geometry":{"type":"Point","coordinates":[-63.132801,-18.654499]}},{"id":"6194","type":"Feature","properties":{"ident":"SLYA","type":"medium_airport","name":"Yacuiba Airport","elevation_ft":"2112","continent":"SA","iso_country":"BO","iso_region":"BO-T","municipality":"Yacuíba","scheduled_service":"no","gps_code":"SLYA","iata_code":"BYC","wikipedia_link":"https://en.wikipedia.org/wiki/Yacuiba_Airport"},"geometry":{"type":"Point","coordinates":[-63.651699,-21.960899]}},{"id":"39558","type":"Feature","properties":{"ident":"SLVZ","type":"small_airport","name":"Villazon Airport","elevation_ft":"1100","continent":"SA","iso_country":"BO","iso_region":"BO-P","municipality":"M.Omiste","scheduled_service":"no","gps_code":"SLVZ"},"geometry":{"type":"Point","coordinates":[-65.639249,-22.053604]}},{"id":"39475","type":"Feature","properties":{"ident":"SLVV","type":"small_airport","name":"Villa Elvira Airport","elevation_ft":"722","continent":"SA","iso_country":"BO","iso_region":"BO-B","municipality":"Mamore","scheduled_service":"no","gps_code":"SLVV"},"geometry":{"type":"Point","coordinates":[-64.440804,-13.6443]}},{"id":"39477","type":"Feature","properties":{"ident":"SLVU","type":"small_airport","name":"Vuelta Grande Airport","elevation_ft":"1900","continent":"SA","iso_country":"BO","iso_region":"BO-H","municipality":"Luis Calvo","scheduled_service":"no","gps_code":"SLVU"},"geometry":{"type":"Point","coordinates":[-63.192165,-20.904833]}},{"id":"39549","type":"Feature","properties":{"ident":"SLVT","type":"small_airport","name":"Tesoro/La Vertiente Airport","elevation_ft":"1300","continent":"SA","iso_country":"BO","iso_region":"BO-T","municipality":"Tesoro","scheduled_service":"no","gps_code":"SLVT"},"geometry":{"type":"Point","coordinates":[-63.358334,-21.266666]}},{"id":"6193","type":"Feature","properties":{"ident":"SLVR","type":"large_airport","name":"Viru Viru International Airport","elevation_ft":"1224","continent":"SA","iso_country":"BO","iso_region":"BO-S","municipality":"Santa Cruz","scheduled_service":"yes","gps_code":"SLVR","iata_code":"VVI","wikipedia_link":"https://en.wikipedia.org/wiki/Viru_Viru_International_Airport"},"geometry":{"type":"Point","coordinates":[-63.135399,-17.6448]}},{"id":"39476","type":"Feature","properties":{"ident":"SLVN","type":"small_airport","name":"Villa Negrita Airport","elevation_ft":"872","continent":"SA","iso_country":"BO","iso_region":"BO-B","municipality":"Yacuma","scheduled_service":"no","gps_code":"SLVN"},"geometry":{"type":"Point","coordinates":[-65.875801,-13.2658]}},{"id":"6192","type":"Feature","properties":{"ident":"SLVM","type":"medium_airport","name":"Teniente Coronel Rafael Pabón Airport","elevation_ft":"1305","continent":"SA","iso_country":"BO","iso_region":"BO-T","municipality":"Villamontes","scheduled_service":"no","gps_code":"SLVM","iata_code":"VLM","wikipedia_link":"https://en.wikipedia.org/wiki/Tcnl._Rafael_Pab%C3%B3n_Airport"},"geometry":{"type":"Point","coordinates":[-63.405602,-21.255199]}},{"id":"39489","type":"Feature","properties":{"ident":"SLVI","type":"small_airport","name":"Caranavi Airport","elevation_ft":"2100","continent":"SA","iso_country":"BO","iso_region":"BO-L","municipality":"Nor Yungas","scheduled_service":"no","gps_code":"SLVI"},"geometry":{"type":"Point","coordinates":[-67.566666,-15.75]}},{"id":"30518","type":"Feature","properties":{"ident":"SLVG","type":"small_airport","name":"Capitán Av. Vidal Villagomez Toledo Airport","elevation_ft":"6551","continent":"SA","iso_country":"BO","iso_region":"BO-S","municipality":"Vallegrande","scheduled_service":"no","gps_code":"SLVG","iata_code":"VAH"},"geometry":{"type":"Point","coordinates":[-64.099403,-18.4825]}},{"id":"39474","type":"Feature","properties":{"ident":"SLVE","type":"small_airport","name":"Venecia Airport","elevation_ft":"722","continent":"SA","iso_country":"BO","iso_region":"BO-B","municipality":"Yacuma","scheduled_service":"no","gps_code":"SLVE"},"geometry":{"type":"Point","coordinates":[-66.750298,-14.636]}},{"id":"39495","type":"Feature","properties":{"ident":"SLVD","type":"small_airport","name":"Covendo Airport","elevation_ft":"4887","continent":"SA","iso_country":"BO","iso_region":"BO-L","municipality":"Sud Yungas","scheduled_service":"no","gps_code":"SLVD"},"geometry":{"type":"Point","coordinates":[-67.083336,-15.833333]}},{"id":"39556","type":"Feature","properties":{"ident":"SLVA","type":"small_airport","name":"Villa Aroma Airport","elevation_ft":"12533","continent":"SA","iso_country":"BO","iso_region":"BO-L","municipality":"Aroma","scheduled_service":"no","gps_code":"SLVA"},"geometry":{"type":"Point","coordinates":[-67.75322,-17.32101]}},{"id":"39473","type":"Feature","properties":{"ident":"SLUY","type":"small_airport","name":"Uyuni Joya Andina Airport","elevation_ft":"11136","continent":"SA","iso_country":"BO","iso_region":"BO-P","municipality":"Quijarro","scheduled_service":"no","gps_code":"SLUY","iata_code":"UYU"},"geometry":{"type":"Point","coordinates":[-66.857553,-20.441304]}},{"id":"39554","type":"Feature","properties":{"ident":"SLUU","type":"small_airport","name":"Ulla Ulla Airport","elevation_ft":"14360","continent":"SA","iso_country":"BO","iso_region":"BO-L","municipality":"Franz Tamayo","scheduled_service":"no","gps_code":"SLUU"},"geometry":{"type":"Point","coordinates":[-69.25,-15.033334]}},{"id":"39555","type":"Feature","properties":{"ident":"SLUS","type":"small_airport","name":"Urusi Airport","elevation_ft":"805","continent":"SA","iso_country":"BO","iso_region":"BO-B","municipality":"Ballivian","scheduled_service":"no","gps_code":"SLUS"},"geometry":{"type":"Point","coordinates":[-66.166664,-14.316667]}},{"id":"314358","type":"Feature","properties":{"ident":"SLUP","type":"small_airport","name":"Puerto America Airport","elevation_ft":"571","continent":"SA","iso_country":"BO","iso_region":"BO-N","municipality":"Puerto America","scheduled_service":"no","gps_code":"SLUP"},"geometry":{"type":"Point","coordinates":[-67.95864,-11.7616]}},{"id":"39497","type":"Feature","properties":{"ident":"SLUK","type":"small_airport","name":"Curahuara de Carangas Airport","elevation_ft":"12920","continent":"SA","iso_country":"BO","iso_region":"BO-O","municipality":"Oruro","scheduled_service":"no","gps_code":"SLUK"},"geometry":{"type":"Point","coordinates":[-68.394302,-17.9858]}},{"id":"39432","type":"Feature","properties":{"ident":"SLUC","type":"small_airport","name":"Cuevo Airport","elevation_ft":"3440","continent":"SA","iso_country":"BO","iso_region":"BO-S","municipality":"Cordillera","scheduled_service":"no","gps_code":"SLUC"},"geometry":{"type":"Point","coordinates":[-63.528168,-20.480499]}},{"id":"39471","type":"Feature","properties":{"ident":"SLTZ","type":"small_airport","name":"Tupiza-Mochará Airport","elevation_ft":"11300","continent":"SA","iso_country":"BO","iso_region":"BO-P","municipality":"Sud Chichas","scheduled_service":"no","gps_code":"SLTZ"},"geometry":{"type":"Point","coordinates":[-65.612228,-21.337012]}},{"id":"39550","type":"Feature","properties":{"ident":"SLTY","type":"small_airport","name":"Tiguipa Airport","elevation_ft":"722","continent":"SA","iso_country":"BO","iso_region":"BO-B","municipality":"Yacuma","scheduled_service":"no","gps_code":"SLTY"},"geometry":{"type":"Point","coordinates":[-66.23333,-13.8]}},{"id":"39553","type":"Feature","properties":{"ident":"SLTX","type":"small_airport","name":"Tuichi Airport","elevation_ft":"2360","continent":"SA","iso_country":"BO","iso_region":"BO-L","municipality":"Franz Tamayo","scheduled_service":"no","gps_code":"SLTX"},"geometry":{"type":"Point","coordinates":[-68.583336,-14.316667]}},{"id":"39469","type":"Feature","properties":{"ident":"SLTW","type":"small_airport","name":"Tita Airport","elevation_ft":"1312","continent":"SA","iso_country":"BO","iso_region":"BO-S","municipality":"San Rafael","scheduled_service":"no","gps_code":"SLTW"},"geometry":{"type":"Point","coordinates":[-62.112,-18.4664]}},{"id":"39472","type":"Feature","properties":{"ident":"SLTU","type":"small_airport","name":"Turco Airport","elevation_ft":"12500","continent":"SA","iso_country":"BO","iso_region":"BO-O","municipality":"Sajama","scheduled_service":"no","gps_code":"SLTU"},"geometry":{"type":"Point","coordinates":[-68.141998,-18.195833]}},{"id":"6191","type":"Feature","properties":{"ident":"SLTR","type":"medium_airport","name":"Teniente Av. Jorge Henrich Arauz Airport","elevation_ft":"509","continent":"SA","iso_country":"BO","iso_region":"BO-B","municipality":"Trinidad","scheduled_service":"no","gps_code":"SLTR","iata_code":"TDD","wikipedia_link":"https://en.wikipedia.org/wiki/Tte._Av._Jorge_Henrich_Arauz_Airport"},"geometry":{"type":"Point","coordinates":[-64.917999,-14.8187]}},{"id":"39551","type":"Feature","properties":{"ident":"SLTO","type":"small_airport","name":"Totora Airport","elevation_ft":"12530","continent":"SA","iso_country":"BO","iso_region":"BO-O","municipality":"Oruro","scheduled_service":"no","gps_code":"SLTO"},"geometry":{"type":"Point","coordinates":[-68.093498,-17.798166]}},{"id":"39470","type":"Feature","properties":{"ident":"SLTL","type":"small_airport","name":"San Cristóbal Toldos Airport","elevation_ft":"11800","continent":"SA","iso_country":"BO","iso_region":"BO-P","municipality":"Nor Lipez","scheduled_service":"no","gps_code":"SLTL"},"geometry":{"type":"Point","coordinates":[-67.166689,-21.175602]}},{"id":"6190","type":"Feature","properties":{"ident":"SLTJ","type":"medium_airport","name":"Capitan Oriel Lea Plaza Airport","elevation_ft":"6079","continent":"SA","iso_country":"BO","iso_region":"BO-T","municipality":"Tarija","scheduled_service":"yes","gps_code":"SLTJ","iata_code":"TJA","wikipedia_link":"https://en.wikipedia.org/wiki/Cap._Oriel_Lea_Plaza_Airport"},"geometry":{"type":"Point","coordinates":[-64.701302,-21.5557]}},{"id":"30387","type":"Feature","properties":{"ident":"SLTI","type":"small_airport","name":"San Matías Airport","elevation_ft":"403","continent":"SA","iso_country":"BO","iso_region":"BO-S","municipality":"San Matías","scheduled_service":"no","gps_code":"SLTI","iata_code":"MQK"},"geometry":{"type":"Point","coordinates":[-58.401901,-16.339199]}},{"id":"39466","type":"Feature","properties":{"ident":"SLTG","type":"small_airport","name":"Santiago Airport","elevation_ft":"1000","continent":"SA","iso_country":"BO","iso_region":"BO-B","municipality":"Moxos","scheduled_service":"no","gps_code":"SLTG"},"geometry":{"type":"Point","coordinates":[-65.450104,-15.2278]}},{"id":"39548","type":"Feature","properties":{"ident":"SLTE","type":"small_airport","name":"Teoponte Airport","elevation_ft":"1400","continent":"SA","iso_country":"BO","iso_region":"BO-L","municipality":"Larecaja","scheduled_service":"no","gps_code":"SLTE"},"geometry":{"type":"Point","coordinates":[-67.816666,-15.498333]}},{"id":"39552","type":"Feature","properties":{"ident":"SLTC","type":"small_airport","name":"Tres Cruces Airport","elevation_ft":"880","continent":"SA","iso_country":"BO","iso_region":"BO-S","municipality":"Chiquitos","scheduled_service":"no","gps_code":"SLTC"},"geometry":{"type":"Point","coordinates":[-62.2796,-17.3604]}},{"id":"39547","type":"Feature","properties":{"ident":"SLTA","type":"small_airport","name":"Taquipirenda Airport","elevation_ft":"2340","continent":"SA","iso_country":"BO","iso_region":"BO-S","municipality":"Cordillera","scheduled_service":"no","gps_code":"SLTA"},"geometry":{"type":"Point","coordinates":[-63.1394,-20.3433]}},{"id":"345118","type":"Feature","properties":{"ident":"SLSV","type":"medium_airport","name":"San Ignacio de Velasco Airport","elevation_ft":"1477","continent":"SA","iso_country":"BO","iso_region":"BO-P","municipality":"San Ignacio de Velasco","scheduled_service":"no","gps_code":"SLSV"},"geometry":{"type":"Point","coordinates":[-61.0452,-16.401239]}},{"id":"6189","type":"Feature","properties":{"ident":"SLSU","type":"medium_airport","name":"Juana Azurduy De Padilla Airport","elevation_ft":"9540","continent":"SA","iso_country":"BO","iso_region":"BO-H","municipality":"Sucre","scheduled_service":"no","gps_code":"SLSU","wikipedia_link":"https://en.wikipedia.org/wiki/Juana_Azurduy_de_Padilla_International_Airport","keywords":"military"},"geometry":{"type":"Point","coordinates":[-65.288696,-19.007099]}},{"id":"39458","type":"Feature","properties":{"ident":"SLSS","type":"small_airport","name":"Sunsas Airport","elevation_ft":"855","continent":"SA","iso_country":"BO","iso_region":"BO-S","municipality":"Sunsas","scheduled_service":"no","gps_code":"SLSS"},"geometry":{"type":"Point","coordinates":[-58.2767,-18.4754]}},{"id":"39464","type":"Feature","properties":{"ident":"SLSR","type":"small_airport","name":"Santa Rosa De Yacuma Airport","elevation_ft":"738","continent":"SA","iso_country":"BO","iso_region":"BO-B","municipality":"Santa Rosa","scheduled_service":"no","gps_code":"SLSR","iata_code":"SRB"},"geometry":{"type":"Point","coordinates":[-66.786797,-14.0662]}},{"id":"39467","type":"Feature","properties":{"ident":"SLSQ","type":"small_airport","name":"Santiago De Chiquitos Airport","elevation_ft":"1990","continent":"SA","iso_country":"BO","iso_region":"BO-S","municipality":"Santiago de Chiquitos","scheduled_service":"no","gps_code":"SLSQ"},"geometry":{"type":"Point","coordinates":[-59.604801,-18.3458]}},{"id":"39468","type":"Feature","properties":{"ident":"SLSP","type":"small_airport","name":"Sipuati Airport","elevation_ft":"1400","continent":"SA","iso_country":"BO","iso_region":"BO-T","municipality":"Gran Chaco","scheduled_service":"no","gps_code":"SLSP"},"geometry":{"type":"Point","coordinates":[-63.109501,-21.0735]}},{"id":"39542","type":"Feature","properties":{"ident":"SLSN","type":"small_airport","name":"Sanandita Airport","elevation_ft":"3200","continent":"SA","iso_country":"BO","iso_region":"BO-T","municipality":"Gran Chaco","scheduled_service":"no","gps_code":"SLSN"},"geometry":{"type":"Point","coordinates":[-63.599998,-21.65]}},{"id":"30371","type":"Feature","properties":{"ident":"SLSM","type":"small_airport","name":"San Ignacio de Moxos Airport","elevation_ft":"545","continent":"SA","iso_country":"BO","iso_region":"BO-B","municipality":"San Ignacio de Moxos","scheduled_service":"no","gps_code":"SLSM","iata_code":"SNM","wikipedia_link":"https://en.wikipedia.org/wiki/San_Ignacio_de_Moxos_Airport"},"geometry":{"type":"Point","coordinates":[-65.6338,-14.9658]}},{"id":"39546","type":"Feature","properties":{"ident":"SLSK","type":"small_airport","name":"Santa Rosa Del Sara Airport","elevation_ft":"850","continent":"SA","iso_country":"BO","iso_region":"BO-S","municipality":"A. Ibañez","scheduled_service":"no","gps_code":"SLSK"},"geometry":{"type":"Point","coordinates":[-63.608372,-17.104719]}},{"id":"39535","type":"Feature","properties":{"ident":"SLSJ","type":"small_airport","name":"Salinas Airport","elevation_ft":"12027","continent":"SA","iso_country":"BO","iso_region":"BO-O","municipality":"Ladislao Cabrera","scheduled_service":"no","gps_code":"SLSJ"},"geometry":{"type":"Point","coordinates":[-67.333336,-19.5]}},{"id":"30372","type":"Feature","properties":{"ident":"SLSI","type":"small_airport","name":"Capitán Av. Juan Cochamanidis S. Airport","elevation_ft":"1354","continent":"SA","iso_country":"BO","iso_region":"BO-S","municipality":"San Ignacio de Velasco","scheduled_service":"no","gps_code":"SLSI","iata_code":"SNG","wikipedia_link":"https://en.wikipedia.org/wiki/Capitán_Av._Juan_Cochamanidis_Airport"},"geometry":{"type":"Point","coordinates":[-60.962799,-16.3836]}},{"id":"39543","type":"Feature","properties":{"ident":"SLSH","type":"small_airport","name":"Santa Ana De Huachi Airport","elevation_ft":"1640","continent":"SA","iso_country":"BO","iso_region":"BO-L","municipality":"Sud Yungas","scheduled_service":"no","gps_code":"SLSH"},"geometry":{"type":"Point","coordinates":[-67.48333,-15.483334]}},{"id":"39462","type":"Feature","properties":{"ident":"SLSG","type":"small_airport","name":"San Miguel De Gaser Airport","elevation_ft":"700","continent":"SA","iso_country":"BO","iso_region":"BO-B","municipality":"Yacuma","scheduled_service":"no","gps_code":"SLSG"},"geometry":{"type":"Point","coordinates":[-66.1567,-13.9021]}},{"id":"39460","type":"Feature","properties":{"ident":"SLSF","type":"small_airport","name":"San Rafael Airport","elevation_ft":"890","continent":"SA","iso_country":"BO","iso_region":"BO-S","scheduled_service":"no","gps_code":"SLSF"},"geometry":{"type":"Point","coordinates":[-62.304,-17.2891]}},{"id":"39465","type":"Feature","properties":{"ident":"SLSE","type":"small_airport","name":"Santa Teresita Airport","elevation_ft":"756","continent":"SA","iso_country":"BO","iso_region":"BO-S","municipality":"Angel Sandoval","scheduled_service":"no","gps_code":"SLSE"},"geometry":{"type":"Point","coordinates":[-59.495167,-16.285]}},{"id":"39459","type":"Feature","properties":{"ident":"SLSD","type":"small_airport","name":"San Carlos Gutierrez Airport","elevation_ft":"1820","continent":"SA","iso_country":"BO","iso_region":"BO-B","municipality":"Yacuma","scheduled_service":"no","gps_code":"SLSD"},"geometry":{"type":"Point","coordinates":[-65.527199,-14.5611]}},{"id":"30364","type":"Feature","properties":{"ident":"SLSB","type":"small_airport","name":"Capitán Av. German Quiroga G. Airport","elevation_ft":"633","continent":"SA","iso_country":"BO","iso_region":"BO-B","municipality":"San Borja","scheduled_service":"yes","gps_code":"SLSB","iata_code":"SRJ","wikipedia_link":"https://en.wikipedia.org/wiki/Capitán_Germán_Quiroga_Guardia_Airport"},"geometry":{"type":"Point","coordinates":[-66.737503,-14.8592]}},{"id":"6188","type":"Feature","properties":{"ident":"SLSA","type":"medium_airport","name":"Santa Ana Del Yacuma Airport","elevation_ft":"472","continent":"SA","iso_country":"BO","iso_region":"BO-B","municipality":"Santa Ana del Yacuma","scheduled_service":"no","gps_code":"SLSA","iata_code":"SBL","wikipedia_link":"https://en.wikipedia.org/wiki/Santa_Ana_del_Yacuma_Airport"},"geometry":{"type":"Point","coordinates":[-65.435204,-13.7622]}},{"id":"30331","type":"Feature","properties":{"ident":"SLRY","type":"small_airport","name":"Reyes Airport","elevation_ft":"935","continent":"SA","iso_country":"BO","iso_region":"BO-B","municipality":"Reyes","scheduled_service":"yes","gps_code":"SLRY","iata_code":"REY","wikipedia_link":"https://en.wikipedia.org/wiki/Reyes_Airport"},"geometry":{"type":"Point","coordinates":[-67.353401,-14.3044]}},{"id":"39456","type":"Feature","properties":{"ident":"SLRX","type":"small_airport","name":"Rincon Del Tigre Airport","elevation_ft":"664","continent":"SA","iso_country":"BO","iso_region":"BO-S","municipality":"German Busch","scheduled_service":"no","gps_code":"SLRX"},"geometry":{"type":"Point","coordinates":[-58.169998,-18.200834]}},{"id":"39545","type":"Feature","properties":{"ident":"SLRT","type":"small_airport","name":"Santa Rita Airport","elevation_ft":"750","continent":"SA","iso_country":"BO","iso_region":"BO-B","municipality":"Yacuma","scheduled_service":"no","gps_code":"SLRT"},"geometry":{"type":"Point","coordinates":[-66.333336,-13.933333]}},{"id":"39457","type":"Feature","properties":{"ident":"SLRS","type":"small_airport","name":"Rio Seco Airport","elevation_ft":"1836","continent":"SA","iso_country":"BO","iso_region":"BO-S","municipality":"Campo Ingelmeco","scheduled_service":"no","gps_code":"SLRS"},"geometry":{"type":"Point","coordinates":[-63.256001,-18.200834]}},{"id":"39532","type":"Feature","properties":{"ident":"SLRR","type":"small_airport","name":"Retiro Airport","elevation_ft":"556","continent":"SA","iso_country":"BO","iso_region":"BO-B","municipality":"Yacuma","scheduled_service":"no","gps_code":"SLRR"},"geometry":{"type":"Point","coordinates":[-66.349998,-14.483334]}},{"id":"39534","type":"Feature","properties":{"ident":"SLRP","type":"small_airport","name":"Rosapata Airport","elevation_ft":"12240","continent":"SA","iso_country":"BO","iso_region":"BO-O","municipality":"Carangas","scheduled_service":"no","gps_code":"SLRP"},"geometry":{"type":"Point","coordinates":[-67.558334,-18.641666]}},{"id":"39533","type":"Feature","properties":{"ident":"SLRL","type":"small_airport","name":"Rosal Airport","elevation_ft":"482","continent":"SA","iso_country":"BO","iso_region":"BO-B","municipality":"Yacuma","scheduled_service":"no","gps_code":"SLRL"},"geometry":{"type":"Point","coordinates":[-65.625,-13.975]}},{"id":"30334","type":"Feature","properties":{"ident":"SLRI","type":"medium_airport","name":"Capitán Av. Selin Zeitun Lopez Airport","elevation_ft":"462","continent":"SA","iso_country":"BO","iso_region":"BO-B","municipality":"Riberalta","scheduled_service":"yes","gps_code":"SLRI","iata_code":"RIB","wikipedia_link":"https://en.wikipedia.org/wiki/Cap._Av._Selin_Zeitun_Lopez_Airport"},"geometry":{"type":"Point","coordinates":[-66.075468,-11.009355]}},{"id":"39531","type":"Feature","properties":{"ident":"SLRH","type":"small_airport","name":"Rancho Alegre Airport","elevation_ft":"754","continent":"SA","iso_country":"BO","iso_region":"BO-B","municipality":"Yacuma","scheduled_service":"no","gps_code":"SLRH"},"geometry":{"type":"Point","coordinates":[-65.783333,-12.166667]}},{"id":"39455","type":"Feature","properties":{"ident":"SLRF","type":"small_airport","name":"Refugio Airport","elevation_ft":"610","continent":"SA","iso_country":"BO","iso_region":"BO-S","municipality":"Velasco","scheduled_service":"no","gps_code":"SLRF"},"geometry":{"type":"Point","coordinates":[-61.032001,-14.7627]}},{"id":"30345","type":"Feature","properties":{"ident":"SLRB","type":"small_airport","name":"Roboré Airport","elevation_ft":"905","continent":"SA","iso_country":"BO","iso_region":"BO-S","municipality":"Roboré","scheduled_service":"no","gps_code":"SLRB","iata_code":"RBO","wikipedia_link":"https://en.wikipedia.org/wiki/Robor%C3%A9_Airport"},"geometry":{"type":"Point","coordinates":[-59.765339,-18.328224]}},{"id":"30388","type":"Feature","properties":{"ident":"SLRA","type":"small_airport","name":"San Ramón Airport","elevation_ft":"698","continent":"SA","iso_country":"BO","iso_region":"BO-B","municipality":"San Ramón / Mamoré","scheduled_service":"no","gps_code":"SLRA","iata_code":"SRD","wikipedia_link":"https://en.wikipedia.org/wiki/San_Ram%C3%B3n_Airport"},"geometry":{"type":"Point","coordinates":[-64.603897,-13.2639]}},{"id":"39494","type":"Feature","properties":{"ident":"SLQN","type":"small_airport","name":"Coquinal Airport","elevation_ft":"535","continent":"SA","iso_country":"BO","iso_region":"BO-B","municipality":"Ballivian","scheduled_service":"no","gps_code":"SLQN"},"geometry":{"type":"Point","coordinates":[-67,-13.183333]}},{"id":"39526","type":"Feature","properties":{"ident":"SLPY","type":"small_airport","name":"Piray Airport","elevation_ft":"1730","continent":"SA","iso_country":"BO","iso_region":"BO-S","municipality":"Sanja Honda","scheduled_service":"no","gps_code":"SLPY"},"geometry":{"type":"Point","coordinates":[-63.192501,-18.3335]}},{"id":"32322","type":"Feature","properties":{"ident":"SLPW","type":"small_airport","name":"El Porvenir Sur Airport","elevation_ft":"2238","continent":"SA","iso_country":"BO","iso_region":"BO-H","municipality":"Luis Calvo","scheduled_service":"no","gps_code":"SLPW"},"geometry":{"type":"Point","coordinates":[-63.2094,-20.7547]}},{"id":"6187","type":"Feature","properties":{"ident":"SLPS","type":"medium_airport","name":"Capitán Av. Salvador Ogaya G. airport","elevation_ft":"440","continent":"SA","iso_country":"BO","iso_region":"BO-S","municipality":"Puerto Suárez","scheduled_service":"yes","gps_code":"SLPS","iata_code":"PSZ","wikipedia_link":"https://en.wikipedia.org/wiki/Puerto_Su%C3%A1rez_International_Airport"},"geometry":{"type":"Point","coordinates":[-57.820599,-18.975301]}},{"id":"39530","type":"Feature","properties":{"ident":"SLPR","type":"small_airport","name":"Puerto Rico Airport","elevation_ft":"597","continent":"SA","iso_country":"BO","iso_region":"BO-N","municipality":"Puerto Rico/Manuripi","scheduled_service":"yes","gps_code":"SLPR","iata_code":"PUR","wikipedia_link":"https://en.wikipedia.org/wiki/Puerto_Rico_Airport"},"geometry":{"type":"Point","coordinates":[-67.551155,-11.107663]}},{"id":"6186","type":"Feature","properties":{"ident":"SLPO","type":"medium_airport","name":"Capitan Nicolas Rojas Airport","elevation_ft":"12922","continent":"SA","iso_country":"BO","iso_region":"BO-P","municipality":"Potosí","scheduled_service":"no","gps_code":"SLPO","iata_code":"POI","wikipedia_link":"https://en.wikipedia.org/wiki/Cap._Nicolas_Rojas_Airport"},"geometry":{"type":"Point","coordinates":[-65.723734,-19.543331]}},{"id":"39529","type":"Feature","properties":{"ident":"SLPN","type":"small_airport","name":"Porvenir Norte Airport","elevation_ft":"595","continent":"SA","iso_country":"BO","iso_region":"BO-S","municipality":"Velasco","scheduled_service":"no","gps_code":"SLPN"},"geometry":{"type":"Point","coordinates":[-61.545666,-13.987333]}},{"id":"39525","type":"Feature","properties":{"ident":"SLPM","type":"small_airport","name":"Palmira Airport","elevation_ft":"530","continent":"SA","iso_country":"BO","iso_region":"BO-B","municipality":"Yacuma","scheduled_service":"no","gps_code":"SLPM","wikipedia_link":"https://en.wikipedia.org/wiki/Palmira_Airport"},"geometry":{"type":"Point","coordinates":[-66.409333,-13.737951]}},{"id":"39453","type":"Feature","properties":{"ident":"SLPL","type":"small_airport","name":"Padilla Airport","elevation_ft":"6770","continent":"SA","iso_country":"BO","iso_region":"BO-H","municipality":"J. Mendoza","scheduled_service":"no","gps_code":"SLPL"},"geometry":{"type":"Point","coordinates":[-64.294098,-19.2994]}},{"id":"39528","type":"Feature","properties":{"ident":"SLPI","type":"small_airport","name":"Pitai Airport","elevation_ft":"605","continent":"SA","iso_country":"BO","iso_region":"BO-B","municipality":"Moxos","scheduled_service":"no","gps_code":"SLPI"},"geometry":{"type":"Point","coordinates":[-65.616669,-15.8]}},{"id":"39454","type":"Feature","properties":{"ident":"SLPG","type":"small_airport","name":"Progreso Airport","elevation_ft":"754","continent":"SA","iso_country":"BO","iso_region":"BO-B","municipality":"Moxos","scheduled_service":"no","gps_code":"SLPG"},"geometry":{"type":"Point","coordinates":[-65.375603,-14.1784]}},{"id":"39527","type":"Feature","properties":{"ident":"SLPF","type":"small_airport","name":"Piso Firme Airport","elevation_ft":"575","continent":"SA","iso_country":"BO","iso_region":"BO-S","municipality":"Velasco","scheduled_service":"no","gps_code":"SLPF"},"geometry":{"type":"Point","coordinates":[-61.738667,-13.628834]}},{"id":"515599","type":"Feature","properties":{"ident":"SLPB","type":"small_airport","name":"Palos Blancos Airport","elevation_ft":"2242","continent":"SA","iso_country":"BO","iso_region":"BO-T","municipality":"Entre Ríos, O'Connor","scheduled_service":"no","gps_code":"SLPB","keywords":"Palos-Blancos"},"geometry":{"type":"Point","coordinates":[-63.756667,-21.395556]}},{"id":"39524","type":"Feature","properties":{"ident":"SLPA","type":"small_airport","name":"Palmar Airport","elevation_ft":"1342","continent":"SA","iso_country":"BO","iso_region":"BO-S","municipality":"Guanacos","scheduled_service":"no","gps_code":"SLPA"},"geometry":{"type":"Point","coordinates":[-62.975334,-18.971666]}},{"id":"6185","type":"Feature","properties":{"ident":"SLOR","type":"medium_airport","name":"Juan Mendoza Airport","elevation_ft":"12152","continent":"SA","iso_country":"BO","iso_region":"BO-O","municipality":"Oruro","scheduled_service":"no","gps_code":"SLOR","iata_code":"ORU","home_link":"http://en.wikipedia.org/wiki/Juan_Mendoza_Airport"},"geometry":{"type":"Point","coordinates":[-67.076202,-17.962601]}},{"id":"39522","type":"Feature","properties":{"ident":"SLNV","type":"small_airport","name":"Nieve Airport","elevation_ft":"780","continent":"SA","iso_country":"BO","iso_region":"BO-B","municipality":"Yacuma","scheduled_service":"no","gps_code":"SLNV"},"geometry":{"type":"Point","coordinates":[-65.800003,-14.016666]}},{"id":"39523","type":"Feature","properties":{"ident":"SLNO","type":"small_airport","name":"Nuevo Mundo Airport","elevation_ft":"548","continent":"SA","iso_country":"BO","iso_region":"BO-B","municipality":"Yacuma","scheduled_service":"no","gps_code":"SLNO"},"geometry":{"type":"Point","coordinates":[-66.066666,-14.433333]}},{"id":"39488","type":"Feature","properties":{"ident":"SLNL","type":"small_airport","name":"Cañada Larga Airport","elevation_ft":"1197","continent":"SA","iso_country":"BO","iso_region":"BO-S","municipality":"Chiquitos","scheduled_service":"no","gps_code":"SLNL"},"geometry":{"type":"Point","coordinates":[-62.3957,-17.601]}},{"id":"39451","type":"Feature","properties":{"ident":"SLMZ","type":"small_airport","name":"Mizque Airport","elevation_ft":"7030","continent":"SA","iso_country":"BO","iso_region":"BO-C","municipality":"Mizque","scheduled_service":"no","gps_code":"SLMZ"},"geometry":{"type":"Point","coordinates":[-65.380203,-17.931]}},{"id":"39520","type":"Feature","properties":{"ident":"SLMX","type":"small_airport","name":"Monos Araña Airport","elevation_ft":"1220","continent":"SA","iso_country":"BO","iso_region":"BO-S","municipality":"Valle Grande","scheduled_service":"no","gps_code":"SLMX"},"geometry":{"type":"Point","coordinates":[-64.166664,-17.333334]}},{"id":"39518","type":"Feature","properties":{"ident":"SLMN","type":"small_airport","name":"Manuripi Airport","elevation_ft":"705","continent":"SA","iso_country":"BO","iso_region":"BO-N","municipality":"Manuripi","scheduled_service":"no","gps_code":"SLMN"},"geometry":{"type":"Point","coordinates":[-68.354668,-11.7385]}},{"id":"39452","type":"Feature","properties":{"ident":"SLMM","type":"small_airport","name":"Mora Airport","elevation_ft":"600","continent":"SA","iso_country":"BO","iso_region":"BO-S","municipality":"Velasco","scheduled_service":"no","gps_code":"SLMM"},"geometry":{"type":"Point","coordinates":[-61.191833,-14.6085]}},{"id":"30099","type":"Feature","properties":{"ident":"SLMG","type":"small_airport","name":"Magdalena Airport","elevation_ft":"462","continent":"SA","iso_country":"BO","iso_region":"BO-B","municipality":"Magdalena","scheduled_service":"no","gps_code":"SLMG","iata_code":"MGD"},"geometry":{"type":"Point","coordinates":[-64.060764,-13.260748]}},{"id":"39450","type":"Feature","properties":{"ident":"SLME","type":"small_airport","name":"Mandeyepecua Airport","elevation_ft":"1338","continent":"SA","iso_country":"BO","iso_region":"BO-S","municipality":"Cordillera","scheduled_service":"no","gps_code":"SLME"},"geometry":{"type":"Point","coordinates":[-63.140499,-20.398001]}},{"id":"39516","type":"Feature","properties":{"ident":"SLMD","type":"small_airport","name":"Madidi Airport","elevation_ft":"500","continent":"SA","iso_country":"BO","iso_region":"BO-L","municipality":"Iturralde","scheduled_service":"no","gps_code":"SLMD"},"geometry":{"type":"Point","coordinates":[-68.650002,-13.383333]}},{"id":"39517","type":"Feature","properties":{"ident":"SLMB","type":"small_airport","name":"Mangabalito Airport","elevation_ft":"1190","continent":"SA","iso_country":"BO","iso_region":"BO-O","municipality":"Velasco","scheduled_service":"no","gps_code":"SLMB"},"geometry":{"type":"Point","coordinates":[-68.354668,-13.787833]}},{"id":"39539","type":"Feature","properties":{"ident":"SLLZ","type":"small_airport","name":"San Lorenzo Airport","elevation_ft":"825","continent":"SA","iso_country":"BO","iso_region":"BO-B","municipality":"Moxos","scheduled_service":"no","gps_code":"SLLZ"},"geometry":{"type":"Point","coordinates":[-65.75,-15.383333]}},{"id":"39449","type":"Feature","properties":{"ident":"SLLS","type":"small_airport","name":"Lagunillas Airport","elevation_ft":"2950","continent":"SA","iso_country":"BO","iso_region":"BO-S","municipality":"Caraparicito","scheduled_service":"no","gps_code":"SLLS"},"geometry":{"type":"Point","coordinates":[-63.650002,-19.6]}},{"id":"39493","type":"Feature","properties":{"ident":"SLLQ","type":"small_airport","name":"Copaquilla Airport","elevation_ft":"12150","continent":"SA","iso_country":"BO","iso_region":"BO-O","municipality":"L. Cabrera","scheduled_service":"no","gps_code":"SLLQ"},"geometry":{"type":"Point","coordinates":[-67.083336,-19.333334]}},{"id":"6184","type":"Feature","properties":{"ident":"SLLP","type":"medium_airport","name":"El Alto International Airport","elevation_ft":"13355","continent":"SA","iso_country":"BO","iso_region":"BO-L","municipality":"La Paz / El Alto","scheduled_service":"yes","gps_code":"SLLP","iata_code":"LPB","wikipedia_link":"https://en.wikipedia.org/wiki/El_Alto_International_Airport"},"geometry":{"type":"Point","coordinates":[-68.192299,-16.5133]}},{"id":"39514","type":"Feature","properties":{"ident":"SLLL","type":"small_airport","name":"Laguna Loa Airport","elevation_ft":"720","continent":"SA","iso_country":"BO","iso_region":"BO-B","municipality":"Ballivian","scheduled_service":"no","gps_code":"SLLL"},"geometry":{"type":"Point","coordinates":[-66.783333,-14.3]}},{"id":"30059","type":"Feature","properties":{"ident":"SLLJ","type":"small_airport","name":"Laja Airport","elevation_ft":"12103","continent":"SA","iso_country":"BO","iso_region":"BO-L","municipality":"Los Andes","scheduled_service":"no","gps_code":"SLLJ"},"geometry":{"type":"Point","coordinates":[-68.300598,-16.533899]}},{"id":"39448","type":"Feature","properties":{"ident":"SLLI","type":"small_airport","name":"La India Airport","elevation_ft":"540","continent":"SA","iso_country":"BO","iso_region":"BO-B","municipality":"Ballivian","scheduled_service":"no","gps_code":"SLLI"},"geometry":{"type":"Point","coordinates":[-66.83567,-13.573833]}},{"id":"39513","type":"Feature","properties":{"ident":"SLLH","type":"small_airport","name":"Lago Huachi Airport","elevation_ft":"700","continent":"SA","iso_country":"BO","iso_region":"BO-B","municipality":"Itenes","scheduled_service":"no","gps_code":"SLLH"},"geometry":{"type":"Point","coordinates":[-63.533333,-14.016666]}},{"id":"39515","type":"Feature","properties":{"ident":"SLLB","type":"small_airport","name":"Las Brizas Airport","elevation_ft":"722","continent":"SA","iso_country":"BO","iso_region":"BO-B","municipality":"Yacuma","scheduled_service":"no","gps_code":"SLLB"},"geometry":{"type":"Point","coordinates":[-65.76667,-14.516666]}},{"id":"30375","type":"Feature","properties":{"ident":"SLJV","type":"small_airport","name":"San Javier Airport","elevation_ft":"1702","continent":"SA","iso_country":"BO","iso_region":"BO-S","municipality":"San Javier","scheduled_service":"no","gps_code":"SLJV","iata_code":"SJV"},"geometry":{"type":"Point","coordinates":[-62.470299,-16.2708]}},{"id":"39511","type":"Feature","properties":{"ident":"SLJS","type":"small_airport","name":"Josuani Airport","elevation_ft":"498","continent":"SA","iso_country":"BO","iso_region":"BO-B","municipality":"Yacuma","scheduled_service":"no","gps_code":"SLJS"},"geometry":{"type":"Point","coordinates":[-66.166664,-13.083333]}},{"id":"30386","type":"Feature","properties":{"ident":"SLJO","type":"small_airport","name":"San Joaquín Airport","elevation_ft":"456","continent":"SA","iso_country":"BO","iso_region":"BO-B","municipality":"San Joaquín","scheduled_service":"no","gps_code":"SLJO","iata_code":"SJB","wikipedia_link":"https://en.wikipedia.org/wiki/San_Joaqu%C3%ADn_Airport"},"geometry":{"type":"Point","coordinates":[-64.661697,-13.0528]}},{"id":"39538","type":"Feature","properties":{"ident":"SLJN","type":"small_airport","name":"San Juan Estancias Airport","elevation_ft":"820","continent":"SA","iso_country":"BO","iso_region":"BO-B","municipality":"Cercado","scheduled_service":"no","keywords":"SLJN"},"geometry":{"type":"Point","coordinates":[-64.759276,-14.162648]}},{"id":"30376","type":"Feature","properties":{"ident":"SLJE","type":"small_airport","name":"San José De Chiquitos Airport","elevation_ft":"974","continent":"SA","iso_country":"BO","iso_region":"BO-S","municipality":"San José de Chiquitos","scheduled_service":"no","gps_code":"SLJE","iata_code":"SJS"},"geometry":{"type":"Point","coordinates":[-60.743099,-17.830799]}},{"id":"39447","type":"Feature","properties":{"ident":"SLJA","type":"small_airport","name":"Jatata Airport","elevation_ft":"575","continent":"SA","iso_country":"BO","iso_region":"BO-N","municipality":"Madre De Dios","scheduled_service":"no","gps_code":"SLJA"},"geometry":{"type":"Point","coordinates":[-67.255997,-11.772833]}},{"id":"39446","type":"Feature","properties":{"ident":"SLIZ","type":"small_airport","name":"Izozog Airport","elevation_ft":"1082","continent":"SA","iso_country":"BO","iso_region":"BO-S","municipality":"Cordillera","scheduled_service":"no","gps_code":"SLIZ"},"geometry":{"type":"Point","coordinates":[-63.002335,-18.663834]}},{"id":"39510","type":"Feature","properties":{"ident":"SLIY","type":"small_airport","name":"Intiraymi Airport","elevation_ft":"12467","continent":"SA","iso_country":"BO","iso_region":"BO-O","municipality":"La Joya","scheduled_service":"no","gps_code":"SLIY"},"geometry":{"type":"Point","coordinates":[-67.443336,-17.808332]}},{"id":"39445","type":"Feature","properties":{"ident":"SLIX","type":"small_airport","name":"Ixiamas Airport","elevation_ft":"725","continent":"SA","iso_country":"BO","iso_region":"BO-L","municipality":"Iturralde","scheduled_service":"no","gps_code":"SLIX"},"geometry":{"type":"Point","coordinates":[-68.136833,-13.76]}},{"id":"39444","type":"Feature","properties":{"ident":"SLIT","type":"small_airport","name":"Itaguazurenda Airport","elevation_ft":"1598","continent":"SA","iso_country":"BO","iso_region":"BO-S","municipality":"Cordillera","scheduled_service":"no","gps_code":"SLIT"},"geometry":{"type":"Point","coordinates":[-63.087799,-19.7775]}},{"id":"39509","type":"Feature","properties":{"ident":"SLIR","type":"small_airport","name":"Ibori Airport","elevation_ft":"775","continent":"SA","iso_country":"BO","iso_region":"BO-B","municipality":"Itenes","scheduled_service":"no","gps_code":"SLIR"},"geometry":{"type":"Point","coordinates":[-63.666668,-13.05]}},{"id":"39536","type":"Feature","properties":{"ident":"SLIP","type":"small_airport","name":"Samaipata Airport","elevation_ft":"5600","continent":"SA","iso_country":"BO","iso_region":"BO-S","municipality":"Florida","scheduled_service":"no","gps_code":"SLIP"},"geometry":{"type":"Point","coordinates":[-63.883335,-18.183332]}},{"id":"39544","type":"Feature","properties":{"ident":"SLIN","type":"small_airport","name":"Santa Catalina Airport","elevation_ft":"722","continent":"SA","iso_country":"BO","iso_region":"BO-B","municipality":"Moxos","scheduled_service":"no","gps_code":"SLIN"},"geometry":{"type":"Point","coordinates":[-65.916664,-15.5]}},{"id":"39443","type":"Feature","properties":{"ident":"SLIG","type":"small_airport","name":"Inglaterra Airport","elevation_ft":"780","continent":"SA","iso_country":"BO","iso_region":"BO-B","municipality":"Ballivian","scheduled_service":"no","gps_code":"SLIG"},"geometry":{"type":"Point","coordinates":[-66.505997,-13.4438]}},{"id":"308773","type":"Feature","properties":{"ident":"SLHT","type":"heliport","name":"Transierra Helipuerto","elevation_ft":"1486","continent":"SA","iso_country":"BO","iso_region":"BO-T","municipality":"Transierra Natural Gas Co.","scheduled_service":"no","gps_code":"SLHT"},"geometry":{"type":"Point","coordinates":[-63.479,-21.3385]}},{"id":"39427","type":"Feature","properties":{"ident":"SLHS","type":"small_airport","name":"Chacobos Airport","elevation_ft":"1437","continent":"SA","iso_country":"BO","iso_region":"BO-S","municipality":"Parapeti","scheduled_service":"no","gps_code":"SLHS"},"geometry":{"type":"Point","coordinates":[-62.565701,-19.594801]}},{"id":"39441","type":"Feature","properties":{"ident":"SLHJ","type":"small_airport","name":"Huacaraje Airport","elevation_ft":"846","continent":"SA","iso_country":"BO","iso_region":"BO-B","municipality":"Itenes","scheduled_service":"no","gps_code":"SLHJ","iata_code":"BVK"},"geometry":{"type":"Point","coordinates":[-63.747898,-13.55]}},{"id":"39442","type":"Feature","properties":{"ident":"SLHC","type":"small_airport","name":"Huacareta Airport","elevation_ft":"4668","continent":"SA","iso_country":"BO","iso_region":"BO-H","municipality":"H. Silez","scheduled_service":"no","gps_code":"SLHC"},"geometry":{"type":"Point","coordinates":[-64.015404,-20.3908]}},{"id":"39485","type":"Feature","properties":{"ident":"SLHA","type":"small_airport","name":"Cachascani Airport","elevation_ft":"722","continent":"SA","iso_country":"BO","iso_region":"BO-B","municipality":"Itenes","scheduled_service":"no","gps_code":"SLHA"},"geometry":{"type":"Point","coordinates":[-64.199997,-13.5]}},{"id":"29926","type":"Feature","properties":{"ident":"SLGY","type":"small_airport","name":"Capitán de Av. Emilio Beltrán Airport","elevation_ft":"557","continent":"SA","iso_country":"BO","iso_region":"BO-B","municipality":"Guayaramerín","scheduled_service":"no","gps_code":"SLGY","wikipedia_link":"https://web.archive.org/web/20160928075315/https://en.wikipedia.org/wiki/Guayaramer%C3%ADn_Airport","keywords":"GYA"},"geometry":{"type":"Point","coordinates":[-65.346494,-10.820306]}},{"id":"314416","type":"Feature","properties":{"ident":"SLGQ","type":"small_airport","name":"Chiquitos Airport","elevation_ft":"1058","continent":"SA","iso_country":"BO","iso_region":"BO-S","scheduled_service":"no","gps_code":"SLGQ"},"geometry":{"type":"Point","coordinates":[-60.6804,-18.5222]}},{"id":"39508","type":"Feature","properties":{"ident":"SLGP","type":"small_airport","name":"Guirapembi Airport","elevation_ft":"1493","continent":"SA","iso_country":"BO","iso_region":"BO-S","municipality":"Cordillera","scheduled_service":"no","gps_code":"SLGP"},"geometry":{"type":"Point","coordinates":[-63.163166,-18.056]}},{"id":"512154","type":"Feature","properties":{"ident":"SLGM","type":"medium_airport","name":"Guayaramerín Airport","elevation_ft":"456","continent":"SA","iso_country":"BO","iso_region":"BO-B","municipality":"Guayaramerín","scheduled_service":"yes","gps_code":"SLGM","iata_code":"GYA","wikipedia_link":"https://en.wikipedia.org/wiki/Guayaramer%C3%ADn_Airport"},"geometry":{"type":"Point","coordinates":[-65.380955,-10.88856]}},{"id":"39507","type":"Feature","properties":{"ident":"SLFR","type":"small_airport","name":"Florencia Airport","elevation_ft":"574","continent":"SA","iso_country":"BO","iso_region":"BO-B","municipality":"Moxos","scheduled_service":"no","gps_code":"SLFR"},"geometry":{"type":"Point","coordinates":[-65.566666,-15.683333]}},{"id":"39439","type":"Feature","properties":{"ident":"SLFO","type":"small_airport","name":"Flor De Oro Airport","elevation_ft":"560","continent":"SA","iso_country":"BO","iso_region":"BO-S","municipality":"Moxos","scheduled_service":"no","gps_code":"SLFO"},"geometry":{"type":"Point","coordinates":[-61.004101,-13.5548]}},{"id":"39440","type":"Feature","properties":{"ident":"SLFL","type":"small_airport","name":"Florida Airport","elevation_ft":"600","continent":"SA","iso_country":"BO","iso_region":"BO-S","municipality":"Moira","scheduled_service":"no","gps_code":"SLFL"},"geometry":{"type":"Point","coordinates":[-61.197498,-14.614166]}},{"id":"39506","type":"Feature","properties":{"ident":"SLFA","type":"small_airport","name":"Fatima Airport","elevation_ft":"1000","continent":"SA","iso_country":"BO","iso_region":"BO-B","municipality":"Ballivian","scheduled_service":"no","gps_code":"SLFA"},"geometry":{"type":"Point","coordinates":[-66.800003,-15.333333]}},{"id":"39512","type":"Feature","properties":{"ident":"SLEZ","type":"small_airport","name":"La Esperanza Airport","elevation_ft":"1100","continent":"SA","iso_country":"BO","iso_region":"BO-B","municipality":"Moxos","scheduled_service":"no","gps_code":"SLEZ"},"geometry":{"type":"Point","coordinates":[-65.533333,-14.766666]}},{"id":"39437","type":"Feature","properties":{"ident":"SLEV","type":"small_airport","name":"El Salvador Airport","elevation_ft":"574","continent":"SA","iso_country":"BO","iso_region":"BO-B","municipality":"Ballivian","scheduled_service":"no","gps_code":"SLEV"},"geometry":{"type":"Point","coordinates":[-66.762901,-14.4983]}},{"id":"6183","type":"Feature","properties":{"ident":"SLET","type":"medium_airport","name":"El Trompillo Airport","elevation_ft":"1371","continent":"SA","iso_country":"BO","iso_region":"BO-S","municipality":"Santa Cruz","scheduled_service":"yes","gps_code":"SLET","iata_code":"SRZ","wikipedia_link":"https://en.wikipedia.org/wiki/El_Trompillo_Airport"},"geometry":{"type":"Point","coordinates":[-63.171501,-17.8116]}},{"id":"39505","type":"Feature","properties":{"ident":"SLES","type":"small_airport","name":"Estalsa Airport","elevation_ft":"12460","continent":"SA","iso_country":"BO","iso_region":"BO-O","municipality":"Poopo","scheduled_service":"no","gps_code":"SLES"},"geometry":{"type":"Point","coordinates":[-66.916664,-18.450001]}},{"id":"39490","type":"Feature","properties":{"ident":"SLER","type":"small_airport","name":"Cerrillos Airport","elevation_ft":"3300","continent":"SA","iso_country":"BO","iso_region":"BO-H","municipality":"Hernando Siles","scheduled_service":"no","gps_code":"SLER"},"geometry":{"type":"Point","coordinates":[-64.033333,-20.016666]}},{"id":"39501","type":"Feature","properties":{"ident":"SLEP","type":"small_airport","name":"El Peru Airport","elevation_ft":"528","continent":"SA","iso_country":"BO","iso_region":"BO-B","municipality":"Yacuma","scheduled_service":"no","gps_code":"SLEP"},"geometry":{"type":"Point","coordinates":[-65.618332,-14.604667]}},{"id":"39500","type":"Feature","properties":{"ident":"SLEO","type":"small_airport","name":"El Paraiso Airport","elevation_ft":"722","continent":"SA","iso_country":"BO","iso_region":"BO-B","municipality":"Yacuma","scheduled_service":"no","gps_code":"SLEO"},"geometry":{"type":"Point","coordinates":[-65.849998,-14.383333]}},{"id":"39434","type":"Feature","properties":{"ident":"SLEK","type":"small_airport","name":"El Condor Airport","elevation_ft":"1734","continent":"SA","iso_country":"BO","iso_region":"BO-T","municipality":"Tesoro","scheduled_service":"no","gps_code":"SLEK"},"geometry":{"type":"Point","coordinates":[-63.456833,-21.700834]}},{"id":"39438","type":"Feature","properties":{"ident":"SLEI","type":"small_airport","name":"Espino Airport","elevation_ft":"2313","continent":"SA","iso_country":"BO","iso_region":"BO-S","municipality":"Cordillera","scheduled_service":"no","gps_code":"SLEI"},"geometry":{"type":"Point","coordinates":[-63.209,-19.2999]}},{"id":"39502","type":"Feature","properties":{"ident":"SLEH","type":"small_airport","name":"El Rancho Airport","elevation_ft":"722","continent":"SA","iso_country":"BO","iso_region":"BO-B","municipality":"Mamore","scheduled_service":"no","gps_code":"SLEH"},"geometry":{"type":"Point","coordinates":[-65.033333,-13.05]}},{"id":"39503","type":"Feature","properties":{"ident":"SLEF","type":"small_airport","name":"El Triunfo Airport","elevation_ft":"486","continent":"SA","iso_country":"BO","iso_region":"BO-B","municipality":"Yacuma","scheduled_service":"no","gps_code":"SLEF"},"geometry":{"type":"Point","coordinates":[-65.76667,-13.883333]}},{"id":"39436","type":"Feature","properties":{"ident":"SLEE","type":"small_airport","name":"El Escondido Airport","elevation_ft":"1246","continent":"SA","iso_country":"BO","iso_region":"BO-T","municipality":"Tesoro","scheduled_service":"no","gps_code":"SLEE"},"geometry":{"type":"Point","coordinates":[-63.352798,-21.466999]}},{"id":"39498","type":"Feature","properties":{"ident":"SLEC","type":"small_airport","name":"El Cairo Airport","elevation_ft":"722","continent":"SA","iso_country":"BO","iso_region":"BO-B","municipality":"Yacuma","scheduled_service":"no","gps_code":"SLEC"},"geometry":{"type":"Point","coordinates":[-66.400002,-13.783334]}},{"id":"39433","type":"Feature","properties":{"ident":"SLEA","type":"small_airport","name":"El Cocal Airport","elevation_ft":"722","continent":"SA","iso_country":"BO","iso_region":"BO-B","municipality":"Yacuma","scheduled_service":"no","gps_code":"SLEA"},"geometry":{"type":"Point","coordinates":[-66.079002,-13.5594]}},{"id":"39435","type":"Feature","properties":{"ident":"SLDN","type":"small_airport","name":"El Desengano Airport","elevation_ft":"730","continent":"SA","iso_country":"BO","iso_region":"BO-B","municipality":"Yacuma","scheduled_service":"no","gps_code":"SLDN"},"geometry":{"type":"Point","coordinates":[-65.440002,-14.2736]}},{"id":"314417","type":"Feature","properties":{"ident":"SLDL","type":"small_airport","name":"Dalmacia Airport","elevation_ft":"888","continent":"SA","iso_country":"BO","iso_region":"BO-S","scheduled_service":"no","gps_code":"SLDL"},"geometry":{"type":"Point","coordinates":[-62.2442,-17.4426]}},{"id":"39423","type":"Feature","properties":{"ident":"SLDA","type":"small_airport","name":"Caranda Airport","elevation_ft":"1082","continent":"SA","iso_country":"BO","iso_region":"BO-S","municipality":"Ichilo","scheduled_service":"no","gps_code":"SLDA"},"geometry":{"type":"Point","coordinates":[-63.537002,-17.512562]}},{"id":"39430","type":"Feature","properties":{"ident":"SLCY","type":"small_airport","name":"Collpa Airport","elevation_ft":"1170","continent":"SA","iso_country":"BO","iso_region":"BO-S","municipality":"A. Ibañez","scheduled_service":"no","gps_code":"SLCY"},"geometry":{"type":"Point","coordinates":[-63.174702,-17.565001]}},{"id":"39491","type":"Feature","properties":{"ident":"SLCX","type":"small_airport","name":"Chive Airport","elevation_ft":"618","continent":"SA","iso_country":"BO","iso_region":"BO-L","municipality":"Iturralde","scheduled_service":"no","gps_code":"SLCX"},"geometry":{"type":"Point","coordinates":[-68.567665,-12.377833]}},{"id":"39424","type":"Feature","properties":{"ident":"SLCV","type":"small_airport","name":"Cavinas Airport","elevation_ft":"656","continent":"SA","iso_country":"BO","iso_region":"BO-B","municipality":"Ballivian","scheduled_service":"no","gps_code":"SLCV"},"geometry":{"type":"Point","coordinates":[-66.912498,-12.5498]}},{"id":"39496","type":"Feature","properties":{"ident":"SLCU","type":"small_airport","name":"Culpina Airport","elevation_ft":"9676","continent":"SA","iso_country":"BO","iso_region":"BO-H","municipality":"Sud Cinti","scheduled_service":"no","gps_code":"SLCU"},"geometry":{"type":"Point","coordinates":[-64.966667,-20.833334]}},{"id":"39429","type":"Feature","properties":{"ident":"SLCT","type":"small_airport","name":"Choreti, Bolivia, South America Airport","elevation_ft":"656","continent":"SA","iso_country":"BO","iso_region":"BO-B","municipality":"Mamore","scheduled_service":"no","gps_code":"SLCT"},"geometry":{"type":"Point","coordinates":[-64.965202,-13.5145]}},{"id":"39425","type":"Feature","properties":{"ident":"SLCS","type":"small_airport","name":"Cerdas Airport","elevation_ft":"12640","continent":"SA","iso_country":"BO","iso_region":"BO-P","municipality":"Nor Lipez","scheduled_service":"no","gps_code":"SLCS"},"geometry":{"type":"Point","coordinates":[-66.401111,-20.808333]}},{"id":"39431","type":"Feature","properties":{"ident":"SLCR","type":"small_airport","name":"Comarapa Airport","elevation_ft":"6186","continent":"SA","iso_country":"BO","iso_region":"BO-S","municipality":"M. Caballero","scheduled_service":"no","gps_code":"SLCR"},"geometry":{"type":"Point","coordinates":[-64.517799,-17.913601]}},{"id":"29797","type":"Feature","properties":{"ident":"SLCP","type":"small_airport","name":"Concepción Airport","elevation_ft":"1620","continent":"SA","iso_country":"BO","iso_region":"BO-S","municipality":"Concepción","scheduled_service":"no","gps_code":"SLCP","iata_code":"CEP","wikipedia_link":"https://en.wikipedia.org/wiki/Concepci%C3%B3n_Airport"},"geometry":{"type":"Point","coordinates":[-62.026595,-16.142688]}},{"id":"6182","type":"Feature","properties":{"ident":"SLCO","type":"medium_airport","name":"Capitán Aníbal Arab Airport","elevation_ft":"889","continent":"SA","iso_country":"BO","iso_region":"BO-N","municipality":"Cobija","scheduled_service":"yes","gps_code":"SLCO","iata_code":"CIJ","wikipedia_link":"https://en.wikipedia.org/wiki/Cap._Anibal_Arab_Airport"},"geometry":{"type":"Point","coordinates":[-68.782997,-11.0404]}},{"id":"29776","type":"Feature","properties":{"ident":"SLCN","type":"small_airport","name":"Charaña Airport","elevation_ft":"13339","continent":"SA","iso_country":"BO","iso_region":"BO-L","municipality":"Charaña","scheduled_service":"no","gps_code":"SLCN"},"geometry":{"type":"Point","coordinates":[-69.433098,-17.5947]}},{"id":"39487","type":"Feature","properties":{"ident":"SLCM","type":"small_airport","name":"Camacho Airport","elevation_ft":"690","continent":"SA","iso_country":"BO","iso_region":"BO-N","municipality":"Camacho","scheduled_service":"no","gps_code":"SLCM"},"geometry":{"type":"Point","coordinates":[-67.6847,-11.505]}},{"id":"39492","type":"Feature","properties":{"ident":"SLCL","type":"small_airport","name":"Collpani Airport","elevation_ft":"12185","continent":"SA","iso_country":"BO","iso_region":"BO-O","municipality":"Abaroa","scheduled_service":"no","gps_code":"SLCL"},"geometry":{"type":"Point","coordinates":[-66.783333,-18.891666]}},{"id":"39486","type":"Feature","properties":{"ident":"SLCI","type":"small_airport","name":"Caigua Airport","elevation_ft":"1685","continent":"SA","iso_country":"BO","iso_region":"BO-T","municipality":"Gran Chaco","scheduled_service":"no","gps_code":"SLCI","wikipedia_link":"https://en.wikipedia.org/wiki/Caigua_Airport","keywords":"Carapari, Caigua"},"geometry":{"type":"Point","coordinates":[-63.752778,-21.136389]}},{"id":"6181","type":"Feature","properties":{"ident":"SLCH","type":"small_airport","name":"Chimore Airport","elevation_ft":"875","continent":"SA","iso_country":"BO","iso_region":"BO-C","municipality":"Chimore","scheduled_service":"yes","gps_code":"SLHI","iata_code":"CCA","wikipedia_link":"https://en.wikipedia.org/wiki/Chimore_Airport"},"geometry":{"type":"Point","coordinates":[-65.145568,-16.976834]}},{"id":"39428","type":"Feature","properties":{"ident":"SLCG","type":"small_airport","name":"Charagua Airport","elevation_ft":"2040","continent":"SA","iso_country":"BO","iso_region":"BO-S","municipality":"Cordillera","scheduled_service":"no","gps_code":"SLCG"},"geometry":{"type":"Point","coordinates":[-63.1884,-19.785601]}},{"id":"39421","type":"Feature","properties":{"ident":"SLCE","type":"small_airport","name":"Cabezas Airport","elevation_ft":"1328","continent":"SA","iso_country":"BO","iso_region":"BO-S","municipality":"Cordillera","scheduled_service":"no","gps_code":"SLCE"},"geometry":{"type":"Point","coordinates":[-63.300301,-18.795401]}},{"id":"39422","type":"Feature","properties":{"ident":"SLCD","type":"small_airport","name":"Cañada Airport","elevation_ft":"1954","continent":"SA","iso_country":"BO","iso_region":"BO-S","municipality":"Gutierrez","scheduled_service":"no","gps_code":"SLCD"},"geometry":{"type":"Point","coordinates":[-63.0891,-20.0254]}},{"id":"29802","type":"Feature","properties":{"ident":"SLCC","type":"small_airport","name":"Copacabana Airport","elevation_ft":"12591","continent":"SA","iso_country":"BO","iso_region":"BO-L","municipality":"Copacabana","scheduled_service":"no","gps_code":"SLCC"},"geometry":{"type":"Point","coordinates":[-69.095596,-16.191099]}},{"id":"6180","type":"Feature","properties":{"ident":"SLCB","type":"medium_airport","name":"Jorge Wilsterman International Airport","elevation_ft":"8360","continent":"SA","iso_country":"BO","iso_region":"BO-C","municipality":"Cochabamba","scheduled_service":"yes","gps_code":"SLCB","iata_code":"CBB","wikipedia_link":"https://en.wikipedia.org/wiki/Jorge_Wilstermann_International_Airport"},"geometry":{"type":"Point","coordinates":[-66.177101,-17.421101]}},{"id":"29751","type":"Feature","properties":{"ident":"SLCA","type":"small_airport","name":"Camiri Airport","elevation_ft":"2614","continent":"SA","iso_country":"BO","iso_region":"BO-S","municipality":"Camiri","scheduled_service":"no","gps_code":"SLCA","iata_code":"CAM"},"geometry":{"type":"Point","coordinates":[-63.527802,-20.006399]}},{"id":"39557","type":"Feature","properties":{"ident":"SLBV","type":"small_airport","name":"Villa Vista Montano Airport","elevation_ft":"519","continent":"SA","iso_country":"BO","iso_region":"BO-B","municipality":"De Montaño","scheduled_service":"no","gps_code":"SLBV"},"geometry":{"type":"Point","coordinates":[-66.366669,-13.85]}},{"id":"39483","type":"Feature","properties":{"ident":"SLBT","type":"small_airport","name":"Buen Retiro Ballivian Airport","elevation_ft":"886","continent":"SA","iso_country":"BO","iso_region":"BO-B","municipality":"Ballivian","scheduled_service":"no","gps_code":"SLBT"},"geometry":{"type":"Point","coordinates":[-66.550003,-13.9]}},{"id":"39480","type":"Feature","properties":{"ident":"SLBS","type":"small_airport","name":"Bella Vista Itenez Airport","elevation_ft":"774","continent":"SA","iso_country":"BO","iso_region":"BO-B","municipality":"Itenes","scheduled_service":"no","gps_code":"SLBS"},"geometry":{"type":"Point","coordinates":[-64.299004,-14.2677]}},{"id":"39419","type":"Feature","properties":{"ident":"SLBR","type":"small_airport","name":"Buen Retiro Itenez Airport","elevation_ft":"774","continent":"SA","iso_country":"BO","iso_region":"BO-B","municipality":"Itenes","scheduled_service":"no","gps_code":"SLBR"},"geometry":{"type":"Point","coordinates":[-63.483334,-13.416667]}},{"id":"39479","type":"Feature","properties":{"ident":"SLBN","type":"small_airport","name":"Bella Unión Airport","elevation_ft":"722","continent":"SA","iso_country":"BO","iso_region":"BO-B","municipality":"Mamoré","scheduled_service":"no","gps_code":"SLBN"},"geometry":{"type":"Point","coordinates":[-65.283333,-13.633333]}},{"id":"6179","type":"Feature","properties":{"ident":"SLBJ","type":"medium_airport","name":"Bermejo Airport","elevation_ft":"1249","continent":"SA","iso_country":"BO","iso_region":"BO-T","municipality":"Bermejo","scheduled_service":"no","gps_code":"SLBJ","iata_code":"BJO","wikipedia_link":"https://en.wikipedia.org/wiki/Bermejo_Airport"},"geometry":{"type":"Point","coordinates":[-64.312897,-22.7733]}},{"id":"39484","type":"Feature","properties":{"ident":"SLBH","type":"small_airport","name":"Buena Hora Airport","elevation_ft":"656","continent":"SA","iso_country":"BO","iso_region":"BO-B","municipality":"Ballivian","scheduled_service":"no","gps_code":"SLBH"},"geometry":{"type":"Point","coordinates":[-66.533333,-12.133333]}},{"id":"39481","type":"Feature","properties":{"ident":"SLBF","type":"small_airport","name":"Blanca Flor Airport","elevation_ft":"598","continent":"SA","iso_country":"BO","iso_region":"BO-N","municipality":"Madre De Dios","scheduled_service":"no","gps_code":"SLBF","wikipedia_link":"https://en.wikipedia.org/wiki/Blanca_Flor_Airport"},"geometry":{"type":"Point","coordinates":[-66.9263,-11.7272]}},{"id":"39420","type":"Feature","properties":{"ident":"SLBB","type":"small_airport","name":"Bulo Bulo Airport","elevation_ft":"886","continent":"SA","iso_country":"BO","iso_region":"BO-C","municipality":"Carrasco","scheduled_service":"no","gps_code":"SLBB"},"geometry":{"type":"Point","coordinates":[-64.366669,-17.257334]}},{"id":"29671","type":"Feature","properties":{"ident":"SLAS","type":"small_airport","name":"Ascención De Guarayos Airport","elevation_ft":"807","continent":"SA","iso_country":"BO","iso_region":"BO-S","municipality":"Ascensión de Guarayos","scheduled_service":"no","gps_code":"SLAS","iata_code":"ASC"},"geometry":{"type":"Point","coordinates":[-63.1567,-15.9303]}},{"id":"39416","type":"Feature","properties":{"ident":"SLAQ","type":"small_airport","name":"Aiquile Airport","elevation_ft":"7208","continent":"SA","iso_country":"BO","iso_region":"BO-C","municipality":"Campero","scheduled_service":"no","gps_code":"SLAQ"},"geometry":{"type":"Point","coordinates":[-65.187798,-18.215401]}},{"id":"29662","type":"Feature","properties":{"ident":"SLAP","type":"small_airport","name":"Apolo Airport","elevation_ft":"4639","continent":"SA","iso_country":"BO","iso_region":"BO-L","municipality":"Apolo","scheduled_service":"no","gps_code":"SLAP","iata_code":"APB"},"geometry":{"type":"Point","coordinates":[-68.411903,-14.7356]}},{"id":"39417","type":"Feature","properties":{"ident":"SLAN","type":"small_airport","name":"Angora Airport","elevation_ft":"731","continent":"SA","iso_country":"BO","iso_region":"BO-B","municipality":"Ballivian","scheduled_service":"no","gps_code":"SLAN"},"geometry":{"type":"Point","coordinates":[-65.768799,-14.4323]}},{"id":"39418","type":"Feature","properties":{"ident":"SLAM","type":"small_airport","name":"Arampampa Airport","elevation_ft":"10250","continent":"SA","iso_country":"BO","iso_region":"BO-P","municipality":"Gral. Ballivian","scheduled_service":"no","gps_code":"SLAM"},"geometry":{"type":"Point","coordinates":[-66.099998,-17.883333]}},{"id":"333229","type":"Feature","properties":{"ident":"SLAL","type":"medium_airport","name":"Alcantarí Airport","elevation_ft":"10184","continent":"SA","iso_country":"BO","iso_region":"BO-H","municipality":"Yamparaez","scheduled_service":"yes","gps_code":"SLAL","iata_code":"SRE","wikipedia_link":"https://en.wikipedia.org/wiki/Alcantar%C3%AD_Airport"},"geometry":{"type":"Point","coordinates":[-65.149611,-19.246835]}},{"id":"32321","type":"Feature","properties":{"ident":"SLAG","type":"small_airport","name":"Monteagudo Airport","elevation_ft":"3674","continent":"SA","iso_country":"BO","iso_region":"BO-H","municipality":"El Bañado","scheduled_service":"no","gps_code":"SLAG","iata_code":"MHW"},"geometry":{"type":"Point","coordinates":[-63.960999,-19.827]}},{"id":"41590","type":"Feature","properties":{"ident":"BO-BVL","type":"small_airport","name":"Baures Airport","elevation_ft":"470","continent":"SA","iso_country":"BO","iso_region":"BO-B","municipality":"Baures","scheduled_service":"no","gps_code":"SLBA","iata_code":"BVL"},"geometry":{"type":"Point","coordinates":[-63.583332,-13.583333]}},{"id":"429704","type":"Feature","properties":{"ident":"BO-0017","type":"heliport","name":"Culpina K Heliport","continent":"SA","iso_country":"BO","iso_region":"BO-P","municipality":"Culpina K","scheduled_service":"no"},"geometry":{"type":"Point","coordinates":[-67.22413,-21.26314]}},{"id":"429703","type":"Feature","properties":{"ident":"BO-0016","type":"heliport","name":"Villa Alota Heliport","continent":"SA","iso_country":"BO","iso_region":"BO-P","municipality":"Villa Alota","scheduled_service":"no"},"geometry":{"type":"Point","coordinates":[-67.59456,-21.40185]}},{"id":"351497","type":"Feature","properties":{"ident":"BO-0015","type":"small_airport","name":"Nueva Esperanza Airport","elevation_ft":"344","continent":"SA","iso_country":"BO","iso_region":"BO-N","municipality":"Nueva Esperanza","scheduled_service":"no"},"geometry":{"type":"Point","coordinates":[-65.33933,-10.05245]}},{"id":"324118","type":"Feature","properties":{"ident":"BO-0014","type":"small_airport","name":"Espiritu Airstrip","continent":"SA","iso_country":"BO","iso_region":"BO-S","municipality":"Espiritu","scheduled_service":"no"},"geometry":{"type":"Point","coordinates":[-60.546454,-16.226916]}},{"id":"322454","type":"Feature","properties":{"ident":"BO-0013","type":"small_airport","name":"Loreto Airport","elevation_ft":"534","continent":"SA","iso_country":"BO","iso_region":"BO-B","municipality":"Loreto","scheduled_service":"no"},"geometry":{"type":"Point","coordinates":[-64.757926,-15.190029]}},{"id":"321671","type":"Feature","properties":{"ident":"BO-0012","type":"small_airport","name":"Ibibobo Airport","continent":"SA","iso_country":"BO","iso_region":"BO-T","municipality":"Ibibobo","scheduled_service":"no"},"geometry":{"type":"Point","coordinates":[-62.971537,-21.532782]}},{"id":"318453","type":"Feature","properties":{"ident":"BO-0011","type":"small_airport","name":"Tres Personas Airport","continent":"SA","iso_country":"BO","iso_region":"BO-S","municipality":"Tres Personas","scheduled_service":"no"},"geometry":{"type":"Point","coordinates":[-61.820904,-14.130654]}},{"id":"318452","type":"Feature","properties":{"ident":"BO-0010","type":"small_airport","name":"Buen Jesus Airport","continent":"SA","iso_country":"BO","iso_region":"BO-B","municipality":"Buen Jesus","scheduled_service":"no"},"geometry":{"type":"Point","coordinates":[-62.801874,-13.657813]}},{"id":"314402","type":"Feature","properties":{"ident":"BO-0009","type":"small_airport","name":"Saipiru Airport","elevation_ft":"2039","continent":"SA","iso_country":"BO","iso_region":"BO-S","municipality":"Cordillera","scheduled_service":"no","keywords":"SLSS"},"geometry":{"type":"Point","coordinates":[-63.072102,-19.391199]}},{"id":"314385","type":"Feature","properties":{"ident":"BO-0008","type":"small_airport","name":"Camiare Airport","elevation_ft":"493","continent":"SA","iso_country":"BO","iso_region":"BO-B","municipality":"Camiare","scheduled_service":"no"},"geometry":{"type":"Point","coordinates":[-65.6699,-13.9698]}},{"id":"314384","type":"Feature","properties":{"ident":"BO-0007","type":"small_airport","name":"El Tacuaral","elevation_ft":"500","continent":"SA","iso_country":"BO","iso_region":"BO-B","municipality":"El Tacuaral","scheduled_service":"no"},"geometry":{"type":"Point","coordinates":[-65.658,-14.0807]}},{"id":"314378","type":"Feature","properties":{"ident":"BO-0006","type":"small_airport","name":"El Mojar Airport","elevation_ft":"486","continent":"SA","iso_country":"BO","iso_region":"BO-B","municipality":"El Mojar","scheduled_service":"no"},"geometry":{"type":"Point","coordinates":[-65.5061,-12.4274]}},{"id":"314377","type":"Feature","properties":{"ident":"BO-0005","type":"small_airport","name":"Mayo Mayo Airport","elevation_ft":"499","continent":"SA","iso_country":"BO","iso_region":"BO-B","municipality":"Santa Rosa de Vigo","scheduled_service":"no","keywords":"Puerto Vigo"},"geometry":{"type":"Point","coordinates":[-65.0986,-12.2974]}},{"id":"314376","type":"Feature","properties":{"ident":"BO-0004","type":"small_airport","name":"Puerto Ustarez Airport","elevation_ft":"478","continent":"SA","iso_country":"BO","iso_region":"BO-B","municipality":"Puerto Ustarez","scheduled_service":"no"},"geometry":{"type":"Point","coordinates":[-64.5205,-12.3431]}},{"id":"314372","type":"Feature","properties":{"ident":"BO-0003","type":"small_airport","name":"San Juan de Beni Airport","elevation_ft":"487","continent":"SA","iso_country":"BO","iso_region":"BO-B","municipality":"Puerto Leigue","scheduled_service":"no"},"geometry":{"type":"Point","coordinates":[-64.8721,-14.2626]}},{"id":"41592","type":"Feature","properties":{"ident":"BO-0002","type":"small_airport","name":"(Duplicate)Riberalta Airport","elevation_ft":"444","continent":"SA","iso_country":"BO","iso_region":"BO-B","municipality":"Riberalta","scheduled_service":"no"},"geometry":{"type":"Point","coordinates":[-0.03,-0.02]}},{"id":"41591","type":"Feature","properties":{"ident":"BO-0001","type":"small_airport","name":"Rurrenabaque Airport","elevation_ft":"676","continent":"SA","iso_country":"BO","iso_region":"BO-B","municipality":"Rurrenabaque","scheduled_service":"yes","gps_code":"SLRQ","iata_code":"RBQ","wikipedia_link":"https://en.wikipedia.org/wiki/Rurrenabaque_Airport"},"geometry":{"type":"Point","coordinates":[-67.496803,-14.4279]}}]}