{"type":"FeatureCollection","features":[{"id":"31111","type":"Feature","properties":{"ident":"FEFA","type":"small_airport","name":"Alindao Airport","elevation_ft":"1470","continent":"AF","iso_country":"CF","iso_region":"CF-BK","municipality":"Alindao","scheduled_service":"no","gps_code":"FEFA","wikipedia_link":"https://en.wikipedia.org/wiki/Alindao_Airport"},"geometry":{"type":"Point","coordinates":[21.198635,5.022184]}},{"id":"30775","type":"Feature","properties":{"ident":"FEGM","type":"small_airport","name":"Bakouma Airport","elevation_ft":"1640","continent":"AF","iso_country":"CF","iso_region":"CF-MB","municipality":"Bakouma","scheduled_service":"no","gps_code":"FEGM","iata_code":"BMF","wikipedia_link":"https://en.wikipedia.org/wiki/Bakouma_Airport"},"geometry":{"type":"Point","coordinates":[22.801001,5.694]}},{"id":"30684","type":"Feature","properties":{"ident":"FEFM","type":"small_airport","name":"Bambari Airport","elevation_ft":"1549","continent":"AF","iso_country":"CF","iso_region":"CF-UK","municipality":"Bambari","scheduled_service":"no","gps_code":"FEFM","iata_code":"BBY","wikipedia_link":"https://en.wikipedia.org/wiki/Bambari_Airport"},"geometry":{"type":"Point","coordinates":[20.64992,5.847012]}},{"id":"31119","type":"Feature","properties":{"ident":"FEGB","type":"small_airport","name":"Bambouli Airport","elevation_ft":"2264","continent":"AF","iso_country":"CF","iso_region":"CF-HM","municipality":"Bambouli","scheduled_service":"no","gps_code":"FEGB"},"geometry":{"type":"Point","coordinates":[27.216999,5.433]}},{"id":"319208","type":"Feature","properties":{"ident":"CF-0001","type":"small_airport","name":"Bamingui Airport","continent":"AF","iso_country":"CF","iso_region":"CF-BB","municipality":"Bamingui","scheduled_service":"no"},"geometry":{"type":"Point","coordinates":[20.171798,7.584231]}},{"id":"30703","type":"Feature","properties":{"ident":"FEFG","type":"small_airport","name":"Bangassou Airport","elevation_ft":"1706","continent":"AF","iso_country":"CF","iso_region":"CF-MB","municipality":"Bangassou","scheduled_service":"no","gps_code":"FEFG","iata_code":"BGU","wikipedia_link":"https://en.wikipedia.org/wiki/Bangassou_Airport"},"geometry":{"type":"Point","coordinates":[22.781,4.785]}},{"id":"2873","type":"Feature","properties":{"ident":"FEFF","type":"medium_airport","name":"Bangui M'Poko International Airport","elevation_ft":"1208","continent":"AF","iso_country":"CF","iso_region":"CF-MP","municipality":"Bangui","scheduled_service":"yes","gps_code":"FEFF","iata_code":"BGF","wikipedia_link":"https://en.wikipedia.org/wiki/Bangui_M'Poko_International_Airport"},"geometry":{"type":"Point","coordinates":[18.518801,4.39848]}},{"id":"30800","type":"Feature","properties":{"ident":"FEGF","type":"small_airport","name":"Batangafo Airport","elevation_ft":"1378","continent":"AF","iso_country":"CF","iso_region":"CF-AC","municipality":"Batangafo","scheduled_service":"no","gps_code":"FEGF","iata_code":"BTG","wikipedia_link":"https://en.wikipedia.org/wiki/Batangafo_Airport"},"geometry":{"type":"Point","coordinates":[18.3088,7.31411]}},{"id":"322351","type":"Feature","properties":{"ident":"CF-0002","type":"small_airport","name":"Bayanga Airport","continent":"AF","iso_country":"CF","iso_region":"CF-SE","municipality":"Bayanga","scheduled_service":"no"},"geometry":{"type":"Point","coordinates":[16.265434,2.92405]}},{"id":"2874","type":"Feature","properties":{"ident":"FEFT","type":"medium_airport","name":"Berbérati Airport","elevation_ft":"1929","continent":"AF","iso_country":"CF","iso_region":"CF-HS","municipality":"Berbérati","scheduled_service":"no","gps_code":"FEFT","iata_code":"BBT","wikipedia_link":"https://en.wikipedia.org/wiki/Berb%C3%A9rati_Airport"},"geometry":{"type":"Point","coordinates":[15.7864,4.22158]}},{"id":"31687","type":"Feature","properties":{"ident":"FEFI","type":"small_airport","name":"Birao Airport","elevation_ft":"1696","continent":"AF","iso_country":"CF","iso_region":"CF-VR","municipality":"Birao","scheduled_service":"no","gps_code":"FEFI","iata_code":"IRO","wikipedia_link":"https://en.wikipedia.org/wiki/Birao_Airport"},"geometry":{"type":"Point","coordinates":[22.7169,10.2364]}},{"id":"31120","type":"Feature","properties":{"ident":"FEGC","type":"small_airport","name":"Bocaranga Airport","elevation_ft":"3464","continent":"AF","iso_country":"CF","iso_region":"CF-OP","municipality":"Bocaranga","scheduled_service":"no","gps_code":"FEGC","wikipedia_link":"https://en.wikipedia.org/wiki/Bocaranga_Airport"},"geometry":{"type":"Point","coordinates":[15.617,6.917]}},{"id":"322354","type":"Feature","properties":{"ident":"CF-0004","type":"small_airport","name":"Boda Airport","continent":"AF","iso_country":"CF","iso_region":"CF-LB","municipality":"Boda","scheduled_service":"no"},"geometry":{"type":"Point","coordinates":[17.48594,4.313039]}},{"id":"30794","type":"Feature","properties":{"ident":"FEFS","type":"small_airport","name":"Bossangoa Airport","elevation_ft":"1637","continent":"AF","iso_country":"CF","iso_region":"CF-AC","municipality":"Bossangoa","scheduled_service":"no","gps_code":"FEFS","iata_code":"BSN","wikipedia_link":"https://en.wikipedia.org/wiki/Bossangoa_Airport"},"geometry":{"type":"Point","coordinates":[17.429001,6.492]}},{"id":"30785","type":"Feature","properties":{"ident":"FEFO","type":"small_airport","name":"Bouar Airport","elevation_ft":"3360","continent":"AF","iso_country":"CF","iso_region":"CF-NM","municipality":"Bouar","scheduled_service":"no","gps_code":"FEFO","iata_code":"BOP","wikipedia_link":"https://en.wikipedia.org/wiki/Bouar_Airport"},"geometry":{"type":"Point","coordinates":[15.637,5.958]}},{"id":"30686","type":"Feature","properties":{"ident":"FEGU","type":"small_airport","name":"Bouca Airport","elevation_ft":"1532","continent":"AF","iso_country":"CF","iso_region":"CF-AC","municipality":"Bouca","scheduled_service":"no","gps_code":"FEGU","iata_code":"BCF","wikipedia_link":"https://en.wikipedia.org/wiki/Bouca_Airport"},"geometry":{"type":"Point","coordinates":[18.267,6.517]}},{"id":"30787","type":"Feature","properties":{"ident":"FEGZ","type":"small_airport","name":"Bozoum Airport","elevation_ft":"2215","continent":"AF","iso_country":"CF","iso_region":"CF-OP","municipality":"Bozoum","scheduled_service":"no","gps_code":"FEGZ","iata_code":"BOZ","wikipedia_link":"https://en.wikipedia.org/wiki/Bozoum_Airport"},"geometry":{"type":"Point","coordinates":[16.321899,6.34417]}},{"id":"30756","type":"Feature","properties":{"ident":"FEFR","type":"small_airport","name":"Bria Airport","elevation_ft":"1975","continent":"AF","iso_country":"CF","iso_region":"CF-HK","municipality":"Bria","scheduled_service":"no","gps_code":"FEFR","iata_code":"BIV","wikipedia_link":"https://en.wikipedia.org/wiki/Bria_Airport"},"geometry":{"type":"Point","coordinates":[21.989401,6.52778]}},{"id":"30850","type":"Feature","properties":{"ident":"FEFC","type":"small_airport","name":"Carnot Airport","elevation_ft":"1985","continent":"AF","iso_country":"CF","iso_region":"CF-HS","municipality":"Carnot","scheduled_service":"no","gps_code":"FEFC","iata_code":"CRF","wikipedia_link":"https://en.wikipedia.org/wiki/Carnot_Airport"},"geometry":{"type":"Point","coordinates":[15.894,4.937]}},{"id":"31112","type":"Feature","properties":{"ident":"FEFD","type":"small_airport","name":"Damara Airport","elevation_ft":"1427","continent":"AF","iso_country":"CF","iso_region":"CF-MP","municipality":"Damara","scheduled_service":"no","gps_code":"FEFD"},"geometry":{"type":"Point","coordinates":[18.700001,4.95]}},{"id":"31121","type":"Feature","properties":{"ident":"FEGD","type":"small_airport","name":"Dekoa Airport","elevation_ft":"1804","continent":"AF","iso_country":"CF","iso_region":"CF-KG","municipality":"Dekoa","scheduled_service":"no","gps_code":"FEGD"},"geometry":{"type":"Point","coordinates":[19.083,6.3]}},{"id":"31122","type":"Feature","properties":{"ident":"FEGG","type":"small_airport","name":"Gamboula Airport","elevation_ft":"2001","continent":"AF","iso_country":"CF","iso_region":"CF-HS","municipality":"Gamboula","scheduled_service":"no","gps_code":"FEGG"},"geometry":{"type":"Point","coordinates":[15.15,4.133]}},{"id":"31124","type":"Feature","properties":{"ident":"FEGL","type":"small_airport","name":"Gordil Airport","elevation_ft":"1427","continent":"AF","iso_country":"CF","iso_region":"CF-BB","municipality":"Melle","scheduled_service":"no","gps_code":"FEGL","iata_code":"GDI","wikipedia_link":"https://en.wikipedia.org/wiki/Gordil_Airport","keywords":"Gourdil, Manovo-Gounda St. Floris National Park"},"geometry":{"type":"Point","coordinates":[21.728172,9.581117]}},{"id":"330396","type":"Feature","properties":{"ident":"CF-0006","type":"small_airport","name":"Goro Airport","elevation_ft":"1376","continent":"AF","iso_country":"CF","iso_region":"CF-BB","municipality":"Goro","scheduled_service":"no","keywords":"Gordil"},"geometry":{"type":"Point","coordinates":[21.195556,9.271226]}},{"id":"31123","type":"Feature","properties":{"ident":"FEGI","type":"small_airport","name":"Grimari Airport","elevation_ft":"1312","continent":"AF","iso_country":"CF","iso_region":"CF-UK","municipality":"Grimari","scheduled_service":"no","gps_code":"FEGI"},"geometry":{"type":"Point","coordinates":[20.049999,5.683]}},{"id":"31116","type":"Feature","properties":{"ident":"FEFQ","type":"small_airport","name":"Kaga-Bandoro Airport","elevation_ft":"1476","continent":"AF","iso_country":"CF","iso_region":"CF-KB","municipality":"Kaga-Bandoro","scheduled_service":"no","gps_code":"FEFQ"},"geometry":{"type":"Point","coordinates":[19.183001,6.983]}},{"id":"506976","type":"Feature","properties":{"ident":"CF-0012","type":"small_airport","name":"Kavadja Airport","elevation_ft":"2395","continent":"AF","iso_country":"CF","iso_region":"CF-HK","municipality":"Kavadja","scheduled_service":"no","iata_code":"KWD","local_code":"FE02","keywords":"Kaouadja"},"geometry":{"type":"Point","coordinates":[23.526018,7.964938]}},{"id":"31114","type":"Feature","properties":{"ident":"FEFK","type":"small_airport","name":"Kembé Airport","elevation_ft":"1913","continent":"AF","iso_country":"CF","iso_region":"CF-BK","municipality":"Kembé","scheduled_service":"no","gps_code":"FEFK"},"geometry":{"type":"Point","coordinates":[21.867001,4.6]}},{"id":"352985","type":"Feature","properties":{"ident":"CF-0011","type":"small_airport","name":"Kouango Airport","elevation_ft":"1237","continent":"AF","iso_country":"CF","iso_region":"CF-UK","municipality":"Kouango","scheduled_service":"no"},"geometry":{"type":"Point","coordinates":[19.98374,4.99107]}},{"id":"31916","type":"Feature","properties":{"ident":"FEGE","type":"small_airport","name":"M'Boki Airport","elevation_ft":"1969","continent":"AF","iso_country":"CF","iso_region":"CF-HM","municipality":"Mboki","scheduled_service":"no","gps_code":"FEGE","iata_code":"MKI","wikipedia_link":"https://en.wikipedia.org/wiki/M%27Boki_Airport"},"geometry":{"type":"Point","coordinates":[25.9319,5.33301]}},{"id":"31113","type":"Feature","properties":{"ident":"FEFE","type":"small_airport","name":"Mobaye Mbanga Airport","elevation_ft":"1332","continent":"AF","iso_country":"CF","iso_region":"CF-BK","municipality":"Mobaye Mbanga","scheduled_service":"no","gps_code":"FEFE","wikipedia_link":"https://en.wikipedia.org/wiki/Mobaye_Mbanga_Airport"},"geometry":{"type":"Point","coordinates":[21.131901,4.37465]}},{"id":"32016","type":"Feature","properties":{"ident":"FEFN","type":"small_airport","name":"N'Délé Airport","elevation_ft":"1631","continent":"AF","iso_country":"CF","iso_region":"CF-BB","municipality":"N'Délé","scheduled_service":"no","gps_code":"FEFN","iata_code":"NDL","wikipedia_link":"https://en.wikipedia.org/wiki/N%27D%C3%A9l%C3%A9_Airport","keywords":"Ndele"},"geometry":{"type":"Point","coordinates":[20.635157,8.427206]}},{"id":"333207","type":"Feature","properties":{"ident":"CF-0010","type":"small_airport","name":"Nola Airport","elevation_ft":"1323","continent":"AF","iso_country":"CF","iso_region":"CF-SE","municipality":"Nola","scheduled_service":"no"},"geometry":{"type":"Point","coordinates":[16.041763,3.507713]}},{"id":"326491","type":"Feature","properties":{"ident":"CF-0005","type":"small_airport","name":"Obo Airport","elevation_ft":"2108","continent":"AF","iso_country":"CF","iso_region":"CF-HM","municipality":"Obo","scheduled_service":"no"},"geometry":{"type":"Point","coordinates":[26.476364,5.378512]}},{"id":"32083","type":"Feature","properties":{"ident":"FEFW","type":"small_airport","name":"Ouadda Airport","elevation_ft":"2461","continent":"AF","iso_country":"CF","iso_region":"CF-HK","municipality":"Ouadda","scheduled_service":"no","gps_code":"FEFW","iata_code":"ODA","wikipedia_link":"https://en.wikipedia.org/wiki/Ouadda_Airport"},"geometry":{"type":"Point","coordinates":[22.3986,8.01056]}},{"id":"32084","type":"Feature","properties":{"ident":"FEGO","type":"small_airport","name":"Ouanda Djallé Airport","elevation_ft":"1985","continent":"AF","iso_country":"CF","iso_region":"CF-VR","municipality":"Ouanda Djallé","scheduled_service":"no","gps_code":"FEGO","iata_code":"ODJ","wikipedia_link":"https://en.wikipedia.org/wiki/Ouanda_Djall%C3%A9_Airport"},"geometry":{"type":"Point","coordinates":[22.783001,8.9]}},{"id":"330397","type":"Feature","properties":{"ident":"CF-0007","type":"small_airport","name":"Ouandjia Sam Airport","elevation_ft":"2625","continent":"AF","iso_country":"CF","iso_region":"CF-HK","municipality":"Ouandja","scheduled_service":"no"},"geometry":{"type":"Point","coordinates":[23.240274,8.524158]}},{"id":"31115","type":"Feature","properties":{"ident":"FEFP","type":"small_airport","name":"Paoua Airport","elevation_ft":"2037","continent":"AF","iso_country":"CF","iso_region":"CF-OP","municipality":"Paoua","scheduled_service":"no","gps_code":"FEFP","wikipedia_link":"https://en.wikipedia.org/wiki/Paoua_Airport"},"geometry":{"type":"Point","coordinates":[16.433001,7.25]}},{"id":"46207","type":"Feature","properties":{"ident":"FEFB","type":"small_airport","name":"Poste Airport","elevation_ft":"2137","continent":"AF","iso_country":"CF","iso_region":"CF-HM","municipality":"Obo","scheduled_service":"no","gps_code":"FEFB","wikipedia_link":"https://en.wikipedia.org/wiki/Poste_Airport"},"geometry":{"type":"Point","coordinates":[26.487222,5.403889]}},{"id":"32204","type":"Feature","properties":{"ident":"FEGR","type":"small_airport","name":"Rafaï Airport","elevation_ft":"1759","continent":"AF","iso_country":"CF","iso_region":"CF-MB","municipality":"Rafaï","scheduled_service":"no","gps_code":"FEGR","iata_code":"RFA","wikipedia_link":"https://en.wikipedia.org/wiki/Rafa%C3%AF_Airport"},"geometry":{"type":"Point","coordinates":[23.927799,4.98861]}},{"id":"31117","type":"Feature","properties":{"ident":"FEFU","type":"small_airport","name":"Sibut Airport","elevation_ft":"1411","continent":"AF","iso_country":"CF","iso_region":"CF-KG","municipality":"Sibut","scheduled_service":"no","gps_code":"FEFU","wikipedia_link":"https://en.wikipedia.org/wiki/Sibut_Airport"},"geometry":{"type":"Point","coordinates":[19.083,5.733]}},{"id":"30626","type":"Feature","properties":{"ident":"FEFY","type":"small_airport","name":"Yalinga Airport","elevation_ft":"1975","continent":"AF","iso_country":"CF","iso_region":"CF-HK","municipality":"Yalinga","scheduled_service":"no","gps_code":"FEFY","iata_code":"AIG","wikipedia_link":"https://en.wikipedia.org/wiki/Yalinga_Airport"},"geometry":{"type":"Point","coordinates":[23.26,6.52]}},{"id":"31676","type":"Feature","properties":{"ident":"FEFZ","type":"small_airport","name":"Zemio Airport","elevation_ft":"1995","continent":"AF","iso_country":"CF","iso_region":"CF-HM","municipality":"Zemio","scheduled_service":"no","gps_code":"FEFZ","iata_code":"IMO","wikipedia_link":"https://en.wikipedia.org/wiki/Zemio_Airport"},"geometry":{"type":"Point","coordinates":[25.101857,5.002226]}}]}