{"type":"FeatureCollection","features":[{"id":"2871","type":"Feature","properties":{"ident":"FCPP","type":"medium_airport","name":"Antonio Agostinho-Neto International Airport","elevation_ft":"55","continent":"AF","iso_country":"CG","iso_region":"CG-5","municipality":"Pointe Noire","scheduled_service":"yes","icao_code":"FCPP","iata_code":"PNR","gps_code":"FCPP","wikipedia_link":"https://en.wikipedia.org/wiki/Agostinho-Neto_International_Airport","keywords":"Pointe Noire"},"geometry":{"type":"Point","coordinates":[11.8866,-4.81603]}},{"id":"31081","type":"Feature","properties":{"ident":"FCBU","type":"small_airport","name":"Aubeville Airport","elevation_ft":"1148","continent":"AF","iso_country":"CG","iso_region":"CG-11","municipality":"Aubeville","scheduled_service":"no","gps_code":"FCBU"},"geometry":{"type":"Point","coordinates":[13.533,-4.267]}},{"id":"31096","type":"Feature","properties":{"ident":"FCPB","type":"small_airport","name":"Bangamba Airport","elevation_ft":"1312","continent":"AF","iso_country":"CG","iso_region":"CG-2","municipality":"Bangamba","scheduled_service":"no","gps_code":"FCPB"},"geometry":{"type":"Point","coordinates":[13.2,-3.683]}},{"id":"30798","type":"Feature","properties":{"ident":"FCOT","type":"small_airport","name":"Betou Airport","elevation_ft":"1168","continent":"AF","iso_country":"CG","iso_region":"CG-7","municipality":"Betou","scheduled_service":"no","icao_code":"FCOT","iata_code":"BTB","gps_code":"FCOT","wikipedia_link":"https://en.wikipedia.org/wiki/B%C3%A9tou_Airport"},"geometry":{"type":"Point","coordinates":[18.514433,3.057593]}},{"id":"322352","type":"Feature","properties":{"ident":"CG-0002","type":"small_airport","name":"Bomassa Airport","continent":"AF","iso_country":"CG","iso_region":"CG-13","municipality":"Bomassa","scheduled_service":"no"},"geometry":{"type":"Point","coordinates":[16.185859,2.202584]}},{"id":"30784","type":"Feature","properties":{"ident":"FCOB","type":"small_airport","name":"Boundji Airport","elevation_ft":"1247","continent":"AF","iso_country":"CG","iso_region":"CG-8","municipality":"Boundji","scheduled_service":"no","icao_code":"FCOB","iata_code":"BOE","gps_code":"FCOB","wikipedia_link":"https://en.wikipedia.org/wiki/Boundji_Airport"},"geometry":{"type":"Point","coordinates":[15.336009,-1.03104]}},{"id":"30921","type":"Feature","properties":{"ident":"FCBD","type":"small_airport","name":"Djambala Airport","elevation_ft":"2595","continent":"AF","iso_country":"CG","iso_region":"CG-14","municipality":"Djambala","scheduled_service":"no","icao_code":"FCBD","iata_code":"DJM","gps_code":"FCBD","wikipedia_link":"https://en.wikipedia.org/wiki/Djambala_Airport"},"geometry":{"type":"Point","coordinates":[14.754403,-2.516883]}},{"id":"333205","type":"Feature","properties":{"ident":"CG-0004","type":"small_airport","name":"Enyele Airport","elevation_ft":"1318","continent":"AF","iso_country":"CG","iso_region":"CG-7","municipality":"Enyele","scheduled_service":"no"},"geometry":{"type":"Point","coordinates":[18.02458,2.829175]}},{"id":"31032","type":"Feature","properties":{"ident":"FCOE","type":"small_airport","name":"Ewo Airport","elevation_ft":"1503","continent":"AF","iso_country":"CG","iso_region":"CG-8","municipality":"Ewo","scheduled_service":"no","icao_code":"FCOE","iata_code":"EWO","gps_code":"FCOE","wikipedia_link":"https://en.wikipedia.org/wiki/Ewo_Airport"},"geometry":{"type":"Point","coordinates":[14.8,-0.883]}},{"id":"31543","type":"Feature","properties":{"ident":"FCOG","type":"small_airport","name":"Gamboma Airport","elevation_ft":"1509","continent":"AF","iso_country":"CG","iso_region":"CG-14","municipality":"Gamboma","scheduled_service":"no","icao_code":"FCOG","iata_code":"GMM","gps_code":"FCOG","wikipedia_link":"https://en.wikipedia.org/wiki/Gamboma_Airport"},"geometry":{"type":"Point","coordinates":[15.885237,-1.829403]}},{"id":"31086","type":"Feature","properties":{"ident":"FCMG","type":"small_airport","name":"Gokango Airport","elevation_ft":"820","continent":"AF","iso_country":"CG","iso_region":"CG-9","municipality":"Gokango","scheduled_service":"no","gps_code":"FCMG"},"geometry":{"type":"Point","coordinates":[12.133,-3.033]}},{"id":"31680","type":"Feature","properties":{"ident":"FCOI","type":"small_airport","name":"Impfondo Airport","elevation_ft":"1050","continent":"AF","iso_country":"CG","iso_region":"CG-7","municipality":"Impfondo","scheduled_service":"no","icao_code":"FCOI","iata_code":"ION","gps_code":"FCOI","wikipedia_link":"https://en.wikipedia.org/wiki/Impfondo_Airport"},"geometry":{"type":"Point","coordinates":[18.046624,1.589968]}},{"id":"31087","type":"Feature","properties":{"ident":"FCMI","type":"small_airport","name":"Irogo Airport","elevation_ft":"919","continent":"AF","iso_country":"CG","iso_region":"CG-9","municipality":"Irogo","scheduled_service":"no","gps_code":"FCMI"},"geometry":{"type":"Point","coordinates":[11.883,-2.717]}},{"id":"31088","type":"Feature","properties":{"ident":"FCMK","type":"small_airport","name":"Kele Kibangou Airport","elevation_ft":"902","continent":"AF","iso_country":"CG","iso_region":"CG-9","municipality":"Kele Kibangou","scheduled_service":"no","gps_code":"FCMK"},"geometry":{"type":"Point","coordinates":[12.617,-3.317]}},{"id":"31740","type":"Feature","properties":{"ident":"FCOK","type":"small_airport","name":"Kelle Airport","elevation_ft":"1526","continent":"AF","iso_country":"CG","iso_region":"CG-8","municipality":"Kelle","scheduled_service":"no","icao_code":"FCOK","iata_code":"KEE","gps_code":"FCOK","wikipedia_link":"https://en.wikipedia.org/wiki/Kelle_Airport"},"geometry":{"type":"Point","coordinates":[14.506621,-0.071271]}},{"id":"31098","type":"Feature","properties":{"ident":"FCPG","type":"small_airport","name":"Kibangou Airport","elevation_ft":"427","continent":"AF","iso_country":"CG","iso_region":"CG-9","municipality":"Kibangou","scheduled_service":"no","gps_code":"FCPG"},"geometry":{"type":"Point","coordinates":[12.3,-3.483]}},{"id":"31763","type":"Feature","properties":{"ident":"FCBK","type":"small_airport","name":"Kindamba Airport","elevation_ft":"1460","continent":"AF","iso_country":"CG","iso_region":"CG-12","municipality":"Kindamba","scheduled_service":"no","icao_code":"FCBK","iata_code":"KNJ","gps_code":"FCBK","wikipedia_link":"https://en.wikipedia.org/wiki/Kindamba_Airport"},"geometry":{"type":"Point","coordinates":[14.490264,-3.749781]}},{"id":"31078","type":"Feature","properties":{"ident":"FCBA","type":"small_airport","name":"La Louila Airport","elevation_ft":"984","continent":"AF","iso_country":"CG","iso_region":"CG-12","municipality":"La Louila","scheduled_service":"no","gps_code":"FCBA"},"geometry":{"type":"Point","coordinates":[14.233,-4.083]}},{"id":"31798","type":"Feature","properties":{"ident":"FCBL","type":"small_airport","name":"Lague Airport","elevation_ft":"2756","continent":"AF","iso_country":"CG","iso_region":"CG-14","municipality":"Lague","scheduled_service":"no","icao_code":"FCBL","iata_code":"LCO","gps_code":"FCBL","wikipedia_link":"https://en.wikipedia.org/wiki/Lague_Airport"},"geometry":{"type":"Point","coordinates":[14.533,-2.45]}},{"id":"31089","type":"Feature","properties":{"ident":"FCML","type":"small_airport","name":"Leboulou Airport","elevation_ft":"886","continent":"AF","iso_country":"CG","iso_region":"CG-9","municipality":"Leboulou","scheduled_service":"no","gps_code":"FCML"},"geometry":{"type":"Point","coordinates":[12.367,-2.9]}},{"id":"31094","type":"Feature","properties":{"ident":"FCMY","type":"small_airport","name":"Legala Airport","elevation_ft":"2152","continent":"AF","iso_country":"CG","iso_region":"CG-9","municipality":"Legala","scheduled_service":"no","gps_code":"FCMY"},"geometry":{"type":"Point","coordinates":[12.833,-2.217]}},{"id":"31097","type":"Feature","properties":{"ident":"FCPE","type":"small_airport","name":"Leganda Airport","elevation_ft":"1198","continent":"AF","iso_country":"CG","iso_region":"CG-2","municipality":"Leganda","scheduled_service":"no","gps_code":"FCPE"},"geometry":{"type":"Point","coordinates":[12.933,-3.433]}},{"id":"313916","type":"Feature","properties":{"ident":"LKC","type":"small_airport","name":"Lekana Airport","elevation_ft":"2634","continent":"AF","iso_country":"CG","iso_region":"CG-14","municipality":"Lekana","scheduled_service":"no","iata_code":"LKC"},"geometry":{"type":"Point","coordinates":[14.606,-2.313]}},{"id":"31099","type":"Feature","properties":{"ident":"FCPI","type":"small_airport","name":"Loubetsi Airport","elevation_ft":"328","continent":"AF","iso_country":"CG","iso_region":"CG-9","municipality":"Loubetsi","scheduled_service":"no","gps_code":"FCPI"},"geometry":{"type":"Point","coordinates":[12.133,-3.7]}},{"id":"31085","type":"Feature","properties":{"ident":"FCMF","type":"small_airport","name":"Loufoula Airport","elevation_ft":"650","continent":"AF","iso_country":"CG","iso_region":"CG-9","municipality":"Loufoula","scheduled_service":"no","gps_code":"FCMF"},"geometry":{"type":"Point","coordinates":[12,-3]}},{"id":"31103","type":"Feature","properties":{"ident":"FCPY","type":"small_airport","name":"Loukanyi Airport","elevation_ft":"295","continent":"AF","iso_country":"CG","iso_region":"CG-5","municipality":"Loukanyi","scheduled_service":"no","gps_code":"FCPY"},"geometry":{"type":"Point","coordinates":[11.521568,-4.048475]}},{"id":"31080","type":"Feature","properties":{"ident":"FCBT","type":"small_airport","name":"Loutete Airport","elevation_ft":"656","continent":"AF","iso_country":"CG","iso_region":"CG-11","municipality":"Loutete","scheduled_service":"no","gps_code":"FCBT"},"geometry":{"type":"Point","coordinates":[13.867,-4.283]}},{"id":"31079","type":"Feature","properties":{"ident":"FCBP","type":"small_airport","name":"M'passa Airport","elevation_ft":"1115","continent":"AF","iso_country":"CG","iso_region":"CG-12","municipality":"M'passa","scheduled_service":"no","gps_code":"FCBP"},"geometry":{"type":"Point","coordinates":[14.15,-4.367]}},{"id":"31760","type":"Feature","properties":{"ident":"FCPA","type":"small_airport","name":"Makabana Airport","elevation_ft":"495","continent":"AF","iso_country":"CG","iso_region":"CG-9","municipality":"Makabana","scheduled_service":"no","icao_code":"FCPA","iata_code":"KMK","gps_code":"FCPA","wikipedia_link":"https://en.wikipedia.org/wiki/Makabana_Airport"},"geometry":{"type":"Point","coordinates":[12.617,-3.483]}},{"id":"31917","type":"Feature","properties":{"ident":"FCOM","type":"small_airport","name":"Makoua Airport","elevation_ft":"1293","continent":"AF","iso_country":"CG","iso_region":"CG-8","municipality":"Makoua","scheduled_service":"no","icao_code":"FCOM","iata_code":"MKJ","gps_code":"FCOM","wikipedia_link":"https://en.wikipedia.org/wiki/Makoua_Airport"},"geometry":{"type":"Point","coordinates":[15.577746,-0.020842]}},{"id":"31091","type":"Feature","properties":{"ident":"FCMO","type":"small_airport","name":"Mandoro Airport","elevation_ft":"1772","continent":"AF","iso_country":"CG","iso_region":"CG-9","municipality":"Mandoro","scheduled_service":"no","gps_code":"FCMO"},"geometry":{"type":"Point","coordinates":[12.883,-2.65]}},{"id":"31092","type":"Feature","properties":{"ident":"FCMR","type":"small_airport","name":"Marala Airport","elevation_ft":"1535","continent":"AF","iso_country":"CG","iso_region":"CG-9","municipality":"Marala","scheduled_service":"no","gps_code":"FCMR"},"geometry":{"type":"Point","coordinates":[12.633,-2.9]}},{"id":"321378","type":"Feature","properties":{"ident":"CG-0001","type":"small_airport","name":"Matoko Airport","continent":"AF","iso_country":"CG","iso_region":"CG-7","municipality":"Matoko","scheduled_service":"no"},"geometry":{"type":"Point","coordinates":[17.104403,-1.012216]}},{"id":"31082","type":"Feature","properties":{"ident":"FCMA","type":"small_airport","name":"Mavinza Airport","elevation_ft":"509","continent":"AF","iso_country":"CG","iso_region":"CG-9","municipality":"Mavinza","scheduled_service":"no","gps_code":"FCMA"},"geometry":{"type":"Point","coordinates":[11.65,-2.45]}},{"id":"2868","type":"Feature","properties":{"ident":"FCBB","type":"medium_airport","name":"Maya-Maya Airport","elevation_ft":"1048","continent":"AF","iso_country":"CG","iso_region":"CG-12","municipality":"Brazzaville","scheduled_service":"yes","icao_code":"FCBB","iata_code":"BZV","gps_code":"FCBB","wikipedia_link":"https://en.wikipedia.org/wiki/Maya-Maya_Airport"},"geometry":{"type":"Point","coordinates":[15.253,-4.2517]}},{"id":"333204","type":"Feature","properties":{"ident":"CG-0003","type":"small_airport","name":"Mokabi Airport","elevation_ft":"1664","continent":"AF","iso_country":"CG","iso_region":"CG-7","municipality":"Mokabi","scheduled_service":"no"},"geometry":{"type":"Point","coordinates":[16.756092,3.278863]}},{"id":"31959","type":"Feature","properties":{"ident":"FCMM","type":"small_airport","name":"Mossendjo Airport","elevation_ft":"1519","continent":"AF","iso_country":"CG","iso_region":"CG-9","municipality":"Mossendjo","scheduled_service":"no","icao_code":"FCMM","iata_code":"MSX","gps_code":"FCMM","wikipedia_link":"https://en.wikipedia.org/wiki/Mossendjo_Airport"},"geometry":{"type":"Point","coordinates":[12.7,-2.95]}},{"id":"31971","type":"Feature","properties":{"ident":"FCBM","type":"small_airport","name":"Mouyondzi Airport","elevation_ft":"1670","continent":"AF","iso_country":"CG","iso_region":"CG-11","municipality":"Mouyondzi","scheduled_service":"no","icao_code":"FCBM","iata_code":"MUY","gps_code":"FCBM","wikipedia_link":"https://en.wikipedia.org/wiki/Mouyondzi_Airport"},"geometry":{"type":"Point","coordinates":[13.966112,-4.014874]}},{"id":"31090","type":"Feature","properties":{"ident":"FCMN","type":"small_airport","name":"N'gongo Airport","elevation_ft":"906","continent":"AF","iso_country":"CG","iso_region":"CG-9","municipality":"N'gongo","scheduled_service":"no","gps_code":"FCMN"},"geometry":{"type":"Point","coordinates":[12.2,-2.983]}},{"id":"31100","type":"Feature","properties":{"ident":"FCPK","type":"small_airport","name":"N'komo Airport","elevation_ft":"98","continent":"AF","iso_country":"CG","iso_region":"CG-5","municipality":"N'zambi","scheduled_service":"no","gps_code":"FCPK"},"geometry":{"type":"Point","coordinates":[11.30887,-3.93999]}},{"id":"31095","type":"Feature","properties":{"ident":"FCMZ","type":"small_airport","name":"N'Zabi Airport","elevation_ft":"1640","continent":"AF","iso_country":"CG","iso_region":"CG-9","municipality":"N'Zabi","scheduled_service":"no","gps_code":"FCMZ"},"geometry":{"type":"Point","coordinates":[12.867,-3.167]}},{"id":"31083","type":"Feature","properties":{"ident":"FCMB","type":"small_airport","name":"N'Ziba Airport","elevation_ft":"2149","continent":"AF","iso_country":"CG","iso_region":"CG-9","municipality":"N'Ziba","scheduled_service":"no","gps_code":"FCMB"},"geometry":{"type":"Point","coordinates":[12.533,-2.717]}},{"id":"30920","type":"Feature","properties":{"ident":"FCPL","type":"medium_airport","name":"Ngot Nzoungou Airport","elevation_ft":"1079","continent":"AF","iso_country":"CG","iso_region":"CG-9","municipality":"Dolisie","scheduled_service":"no","icao_code":"FCPD","iata_code":"DIS","gps_code":"FCPD","wikipedia_link":"https://en.wikipedia.org/wiki/Dolisie_Airport","keywords":"Dolisie"},"geometry":{"type":"Point","coordinates":[12.6599,-4.20635]}},{"id":"31101","type":"Feature","properties":{"ident":"FCPN","type":"small_airport","name":"Noumbi Airport","elevation_ft":"39","continent":"AF","iso_country":"CG","iso_region":"CG-5","municipality":"Noumbi","scheduled_service":"no","gps_code":"FCPN"},"geometry":{"type":"Point","coordinates":[11.383476,-4.144149]}},{"id":"31093","type":"Feature","properties":{"ident":"FCMS","type":"small_airport","name":"Nyanga Airport","elevation_ft":"558","continent":"AF","iso_country":"CG","iso_region":"CG-9","municipality":"Nyanga","scheduled_service":"no","gps_code":"FCMS"},"geometry":{"type":"Point","coordinates":[11.95,-2.867]}},{"id":"32110","type":"Feature","properties":{"ident":"CG-OKG","type":"small_airport","name":"Okoyo Airport","elevation_ft":"1415","continent":"AF","iso_country":"CG","iso_region":"CG-8","municipality":"Okoyo","scheduled_service":"no","iata_code":"OKG","wikipedia_link":"https://en.wikipedia.org/wiki/Okoyo_Airport"},"geometry":{"type":"Point","coordinates":[15.0733,-1.44833]}},{"id":"2870","type":"Feature","properties":{"ident":"FCOU","type":"medium_airport","name":"Ouesso Airport","elevation_ft":"1158","continent":"AF","iso_country":"CG","iso_region":"CG-13","scheduled_service":"no","icao_code":"FCOU","iata_code":"OUE","gps_code":"FCOU","wikipedia_link":"https://en.wikipedia.org/wiki/Ou%C3%A9sso_Airport"},"geometry":{"type":"Point","coordinates":[16.037901,1.61599]}},{"id":"2869","type":"Feature","properties":{"ident":"FCOO","type":"medium_airport","name":"Owando Airport","elevation_ft":"1214","continent":"AF","iso_country":"CG","iso_region":"CG-8","municipality":"Owando","scheduled_service":"no","icao_code":"FCOO","iata_code":"FTX","gps_code":"FCOO","wikipedia_link":"https://en.wikipedia.org/wiki/Owando_Airport"},"geometry":{"type":"Point","coordinates":[15.93782,-0.524566]}},{"id":"323021","type":"Feature","properties":{"ident":"FCOD","type":"medium_airport","name":"Oyo Ollombo Airport","elevation_ft":"1073","continent":"AF","iso_country":"CG","iso_region":"CG-14","municipality":"Oyo","scheduled_service":"no","icao_code":"FCOD","iata_code":"OLL","gps_code":"FCOD","wikipedia_link":"https://en.wikipedia.org/wiki/Oyo_Ollombo_Airport","keywords":"Denis Sassou Nguesso Airport"},"geometry":{"type":"Point","coordinates":[15.91,-1.226666]}},{"id":"31102","type":"Feature","properties":{"ident":"FCPO","type":"small_airport","name":"Pemo Airport","elevation_ft":"1686","continent":"AF","iso_country":"CG","iso_region":"CG-9","municipality":"Pemo","scheduled_service":"no","gps_code":"FCPO"},"geometry":{"type":"Point","coordinates":[12.533,-2.867]}},{"id":"32300","type":"Feature","properties":{"ident":"FCBS","type":"small_airport","name":"Sibiti Airport","elevation_ft":"1883","continent":"AF","iso_country":"CG","iso_region":"CG-2","municipality":"Sibiti","scheduled_service":"no","icao_code":"FCBS","iata_code":"SIB","gps_code":"FCBS","wikipedia_link":"https://en.wikipedia.org/wiki/Sibiti_Airport"},"geometry":{"type":"Point","coordinates":[13.35,-3.683]}},{"id":"31084","type":"Feature","properties":{"ident":"FCMD","type":"small_airport","name":"Sidetra Airport","elevation_ft":"2133","continent":"AF","iso_country":"CG","iso_region":"CG-9","municipality":"Sidetra","scheduled_service":"no","gps_code":"FCMD"},"geometry":{"type":"Point","coordinates":[12.867,-2.867]}},{"id":"32344","type":"Feature","properties":{"ident":"FCOS","type":"small_airport","name":"Souanke Airport","elevation_ft":"1722","continent":"AF","iso_country":"CG","iso_region":"CG-13","municipality":"Souanke","scheduled_service":"no","icao_code":"FCOS","iata_code":"SOE","gps_code":"FCOS","wikipedia_link":"https://en.wikipedia.org/wiki/Souank%C3%A9_Airport"},"geometry":{"type":"Point","coordinates":[14.174217,1.998326]}},{"id":"333206","type":"Feature","properties":{"ident":"CG-0005","type":"small_airport","name":"Thanry Airport","elevation_ft":"1193","continent":"AF","iso_country":"CG","iso_region":"CG-7","municipality":"Thanry","scheduled_service":"no"},"geometry":{"type":"Point","coordinates":[17.173194,2.651304]}},{"id":"32036","type":"Feature","properties":{"ident":"FCBY","type":"small_airport","name":"Yokangassi Airport","elevation_ft":"541","continent":"AF","iso_country":"CG","iso_region":"CG-11","municipality":"Nkayi","scheduled_service":"no","icao_code":"FCBY","iata_code":"NKY","gps_code":"FCBY","wikipedia_link":"https://en.wikipedia.org/wiki/Yokangassi_Airport"},"geometry":{"type":"Point","coordinates":[13.286347,-4.223077]}},{"id":"30645","type":"Feature","properties":{"ident":"FCBZ","type":"small_airport","name":"Zanaga Airport","elevation_ft":"1870","continent":"AF","iso_country":"CG","iso_region":"CG-2","municipality":"Zanaga","scheduled_service":"no","icao_code":"FCBZ","iata_code":"ANJ","gps_code":"FCBZ","wikipedia_link":"https://en.wikipedia.org/wiki/Zanaga_Airport"},"geometry":{"type":"Point","coordinates":[13.817,-2.85]}}]}