{"type":"FeatureCollection","features":[{"id":"32098","type":"Feature","properties":{"ident":"DIAU","type":"small_airport","name":"Abengourou Airport","elevation_ft":"676","continent":"AF","iso_country":"CI","iso_region":"CI-CM","municipality":"Abengourou","scheduled_service":"no","gps_code":"DIAU","iata_code":"OGO","wikipedia_link":"https://en.wikipedia.org/wiki/Abengourou_Airport"},"geometry":{"type":"Point","coordinates":[-3.47028,6.71556]}},{"id":"323785","type":"Feature","properties":{"ident":"DIAO","type":"small_airport","name":"Aboisso Airport","elevation_ft":"95","continent":"AF","iso_country":"CI","iso_region":"CI-CM","municipality":"Aboisso","scheduled_service":"no","gps_code":"DIAO","iata_code":"ABO","wikipedia_link":"https://en.wikipedia.org/wiki/Aboisso_Airport"},"geometry":{"type":"Point","coordinates":[-3.234722,5.461944]}},{"id":"341665","type":"Feature","properties":{"ident":"CI-0004","type":"heliport","name":"Alassane Ouattara Helipad","continent":"AF","iso_country":"CI","iso_region":"CI-AB","municipality":"Abidjan","scheduled_service":"no"},"geometry":{"type":"Point","coordinates":[-3.97654,5.32812]}},{"id":"340296","type":"Feature","properties":{"ident":"CI-0001","type":"small_airport","name":"Assouindé Airport","elevation_ft":"23","continent":"AF","iso_country":"CI","iso_region":"CI-CM","municipality":"Assouindé","scheduled_service":"no"},"geometry":{"type":"Point","coordinates":[-3.47049,5.17544]}},{"id":"30914","type":"Feature","properties":{"ident":"DIBC","type":"small_airport","name":"Bocanda Airport","elevation_ft":"427","continent":"AF","iso_country":"CI","iso_region":"CI-LC","municipality":"Bocanda","scheduled_service":"no","gps_code":"DIBC","wikipedia_link":"https://en.wikipedia.org/wiki/Bocanda_Airport"},"geometry":{"type":"Point","coordinates":[-4.533,7.033]}},{"id":"2097","type":"Feature","properties":{"ident":"DIBK","type":"medium_airport","name":"Bouaké Airport","elevation_ft":"1230","continent":"AF","iso_country":"CI","iso_region":"CI-VB","municipality":"Bouaké","scheduled_service":"yes","gps_code":"DIBK","iata_code":"BYK","wikipedia_link":"https://en.wikipedia.org/wiki/Bouak%C3%A9_Airport"},"geometry":{"type":"Point","coordinates":[-5.07367,7.7388]}},{"id":"30790","type":"Feature","properties":{"ident":"DIBN","type":"small_airport","name":"Bouna Airport","elevation_ft":"1148","continent":"AF","iso_country":"CI","iso_region":"CI-ZZ","municipality":"Bouna","scheduled_service":"no","gps_code":"DIBN","iata_code":"BQO","wikipedia_link":"https://en.wikipedia.org/wiki/Tehini_Airport"},"geometry":{"type":"Point","coordinates":[-3.033333,9.255556]}},{"id":"30805","type":"Feature","properties":{"ident":"DIBI","type":"small_airport","name":"Boundiali Airport","elevation_ft":"1286","continent":"AF","iso_country":"CI","iso_region":"CI-SV","municipality":"Boundiali","scheduled_service":"no","gps_code":"DIBI","iata_code":"BXI","wikipedia_link":"https://en.wikipedia.org/wiki/Boundiali_Airport"},"geometry":{"type":"Point","coordinates":[-6.469831,9.540571]}},{"id":"340297","type":"Feature","properties":{"ident":"CI-0002","type":"small_airport","name":"Cosrou Airport","continent":"AF","iso_country":"CI","iso_region":"CI-LG","municipality":"Cosrou","scheduled_service":"no"},"geometry":{"type":"Point","coordinates":[-4.6459,5.3156]}},{"id":"30915","type":"Feature","properties":{"ident":"DIDB","type":"small_airport","name":"Dabou Airport","elevation_ft":"141","continent":"AF","iso_country":"CI","iso_region":"CI-LG","municipality":"Dabou","scheduled_service":"no","gps_code":"DIDB","wikipedia_link":"https://en.wikipedia.org/wiki/Dabou_Airport"},"geometry":{"type":"Point","coordinates":[-4.403458,5.351385]}},{"id":"2098","type":"Feature","properties":{"ident":"DIDL","type":"medium_airport","name":"Daloa Airport","elevation_ft":"823","continent":"AF","iso_country":"CI","iso_region":"CI-SM","scheduled_service":"no","gps_code":"DIDL","iata_code":"DJO","wikipedia_link":"https://en.wikipedia.org/wiki/Daloa_Airport"},"geometry":{"type":"Point","coordinates":[-6.47319,6.79281]}},{"id":"30918","type":"Feature","properties":{"ident":"DIDK","type":"small_airport","name":"Dimbokro Airport","elevation_ft":"344","continent":"AF","iso_country":"CI","iso_region":"CI-LC","municipality":"Dimbokro","scheduled_service":"no","gps_code":"DIDK","iata_code":"DIM","wikipedia_link":"https://en.wikipedia.org/wiki/Dimbokro_Airport"},"geometry":{"type":"Point","coordinates":[-4.64056,6.65167]}},{"id":"2096","type":"Feature","properties":{"ident":"DIAP","type":"medium_airport","name":"Félix-Houphouët-Boigny International Airport","elevation_ft":"21","continent":"AF","iso_country":"CI","iso_region":"CI-AB","municipality":"Abidjan","scheduled_service":"yes","gps_code":"DIAP","iata_code":"ABJ","wikipedia_link":"https://en.wikipedia.org/wiki/F%C3%A9lix-Houphou%C3%ABt-Boigny_International_Airport","keywords":"Port Bouët"},"geometry":{"type":"Point","coordinates":[-3.92629,5.26139]}},{"id":"31527","type":"Feature","properties":{"ident":"DIGA","type":"small_airport","name":"Gagnoa Airport","elevation_ft":"732","continent":"AF","iso_country":"CI","iso_region":"CI-SM","municipality":"Gagnoa","scheduled_service":"no","gps_code":"DIGA","iata_code":"GGN","wikipedia_link":"https://en.wikipedia.org/wiki/Gagnoa_Airport"},"geometry":{"type":"Point","coordinates":[-5.986809,6.102855]}},{"id":"31528","type":"Feature","properties":{"ident":"DIGL","type":"small_airport","name":"Guiglo Airport","elevation_ft":"722","continent":"AF","iso_country":"CI","iso_region":"CI-MG","municipality":"Guiglo","scheduled_service":"no","gps_code":"DIGL","iata_code":"GGO","wikipedia_link":"https://en.wikipedia.org/wiki/Guiglo_Airport"},"geometry":{"type":"Point","coordinates":[-7.526847,6.534711]}},{"id":"313815","type":"Feature","properties":{"ident":"KTC","type":"small_airport","name":"Katiola Airport","elevation_ft":"1026","continent":"AF","iso_country":"CI","iso_region":"CI-VB","municipality":"Katiola","scheduled_service":"no","iata_code":"KTC","wikipedia_link":"https://en.wikipedia.org/wiki/Katiola_Airport"},"geometry":{"type":"Point","coordinates":[-5.06487,8.132858]}},{"id":"2099","type":"Feature","properties":{"ident":"DIKO","type":"medium_airport","name":"Korhogo Airport","elevation_ft":"1214","continent":"AF","iso_country":"CI","iso_region":"CI-SV","municipality":"Korhogo","scheduled_service":"no","gps_code":"DIKO","iata_code":"HGO","wikipedia_link":"https://en.wikipedia.org/wiki/Korhogo_Airport"},"geometry":{"type":"Point","coordinates":[-5.55666,9.38718]}},{"id":"316459","type":"Feature","properties":{"ident":"DITN","type":"small_airport","name":"Mahana Airport","elevation_ft":"1583","continent":"AF","iso_country":"CI","iso_region":"CI-WR","municipality":"Touba","scheduled_service":"no","gps_code":"DITM","iata_code":"TOZ","wikipedia_link":"https://en.wikipedia.org/wiki/Mahana_Airport"},"geometry":{"type":"Point","coordinates":[-7.674,8.2934]}},{"id":"2100","type":"Feature","properties":{"ident":"DIMN","type":"medium_airport","name":"Man Airport","elevation_ft":"1089","continent":"AF","iso_country":"CI","iso_region":"CI-MG","scheduled_service":"no","gps_code":"DIMN","iata_code":"MJC","wikipedia_link":"https://en.wikipedia.org/wiki/Man_Airport"},"geometry":{"type":"Point","coordinates":[-7.58736,7.27207]}},{"id":"30917","type":"Feature","properties":{"ident":"DIGN","type":"small_airport","name":"Nero-Mer Airport","elevation_ft":"20","continent":"AF","iso_country":"CI","iso_region":"CI-BS","municipality":"Grand-Béréby","scheduled_service":"no","gps_code":"DIGN","iata_code":"BBV","wikipedia_link":"https://en.wikipedia.org/wiki/Nero-Mer_Airport"},"geometry":{"type":"Point","coordinates":[-6.923962,4.643413]}},{"id":"31742","type":"Feature","properties":{"ident":"DIOD","type":"small_airport","name":"Odienne Airport","elevation_ft":"1365","continent":"AF","iso_country":"CI","iso_region":"CI-DN","municipality":"Odienne","scheduled_service":"no","gps_code":"DIOD","iata_code":"KEO","wikipedia_link":"https://en.wikipedia.org/wiki/Odienn%C3%A9_Airport"},"geometry":{"type":"Point","coordinates":[-7.56134,9.539457]}},{"id":"32095","type":"Feature","properties":{"ident":"DIOF","type":"small_airport","name":"Ouango Fitini Airport","elevation_ft":"974","continent":"AF","iso_country":"CI","iso_region":"CI-ZZ","municipality":"Ouango Fitini","scheduled_service":"no","gps_code":"DIOF","iata_code":"OFI","wikipedia_link":"https://en.wikipedia.org/wiki/Ouango_Fitini_Airport"},"geometry":{"type":"Point","coordinates":[-4.05,9.6]}},{"id":"2101","type":"Feature","properties":{"ident":"DISP","type":"medium_airport","name":"San Pedro Airport","elevation_ft":"26","continent":"AF","iso_country":"CI","iso_region":"CI-BS","scheduled_service":"no","gps_code":"DISP","iata_code":"SPY","wikipedia_link":"https://en.wikipedia.org/wiki/San_P%C3%A9dro_Airport"},"geometry":{"type":"Point","coordinates":[-6.66082,4.74672]}},{"id":"32750","type":"Feature","properties":{"ident":"DISS","type":"small_airport","name":"Sassandra Airport","elevation_ft":"203","continent":"AF","iso_country":"CI","iso_region":"CI-BS","municipality":"Sassandra","scheduled_service":"no","gps_code":"DISS","iata_code":"ZSS","wikipedia_link":"https://en.wikipedia.org/wiki/Sassandra_Airport"},"geometry":{"type":"Point","coordinates":[-6.133156,4.928888]}},{"id":"30692","type":"Feature","properties":{"ident":"DIBU","type":"small_airport","name":"Soko Airport","elevation_ft":"1247","continent":"AF","iso_country":"CI","iso_region":"CI-ZZ","municipality":"Bondoukou","scheduled_service":"no","gps_code":"DIBU","iata_code":"BDK","wikipedia_link":"https://en.wikipedia.org/wiki/Soko_Airport"},"geometry":{"type":"Point","coordinates":[-2.76194,8.01722]}},{"id":"32280","type":"Feature","properties":{"ident":"DISG","type":"small_airport","name":"Séguéla Airport","elevation_ft":"1056","continent":"AF","iso_country":"CI","iso_region":"CI-WR","municipality":"Séguéla","scheduled_service":"no","gps_code":"DISG","iata_code":"SEO","wikipedia_link":"https://en.wikipedia.org/wiki/S%C3%A9gu%C3%A9la_Airport"},"geometry":{"type":"Point","coordinates":[-6.644167,7.96]}},{"id":"28483","type":"Feature","properties":{"ident":"DITB","type":"small_airport","name":"Tabou Airport","elevation_ft":"39","continent":"AF","iso_country":"CI","iso_region":"CI-BS","municipality":"Tabou","scheduled_service":"no","gps_code":"DITB","iata_code":"TXU","wikipedia_link":"https://en.wikipedia.org/wiki/Tabou_Airport"},"geometry":{"type":"Point","coordinates":[-7.362728,4.437809]}},{"id":"340298","type":"Feature","properties":{"ident":"CI-0003","type":"small_airport","name":"Wèoulo Airport","continent":"AF","iso_country":"CI","iso_region":"CI-BS","municipality":"Wèoulo","scheduled_service":"no"},"geometry":{"type":"Point","coordinates":[-7.0773,4.6874]}},{"id":"2102","type":"Feature","properties":{"ident":"DIYO","type":"medium_airport","name":"Yamoussoukro Airport","elevation_ft":"699","continent":"AF","iso_country":"CI","iso_region":"CI-YM","municipality":"Yamoussoukro","scheduled_service":"no","gps_code":"DIYO","iata_code":"ASK","wikipedia_link":"https://en.wikipedia.org/wiki/Yamoussoukro_Airport"},"geometry":{"type":"Point","coordinates":[-5.36558,6.90317]}},{"id":"355241","type":"Feature","properties":{"ident":"CI-0005","type":"small_airport","name":"Zagné Airport","elevation_ft":"732","continent":"AF","iso_country":"CI","iso_region":"CI-MG","municipality":"Zagné","scheduled_service":"no"},"geometry":{"type":"Point","coordinates":[-7.500315,6.215391]}}]}