{"type":"FeatureCollection","features":[{"id":"4957","type":"Feature","properties":{"ident":"NCAI","type":"small_airport","name":"Aitutaki Airport","elevation_ft":"14","continent":"OC","iso_country":"CK","iso_region":"CK-U-A","municipality":"Aitutaki","scheduled_service":"yes","gps_code":"NCAI","iata_code":"AIT","wikipedia_link":"https://en.wikipedia.org/wiki/Aitutaki_Airport"},"geometry":{"type":"Point","coordinates":[-159.764008,-18.8309]}},{"id":"30629","type":"Feature","properties":{"ident":"NCAT","type":"small_airport","name":"Enua Airport","elevation_ft":"36","continent":"OC","iso_country":"CK","iso_region":"CK-U-A","municipality":"Atiu Island","scheduled_service":"yes","gps_code":"NCAT","iata_code":"AIU","wikipedia_link":"https://en.wikipedia.org/wiki/Enua_Airport"},"geometry":{"type":"Point","coordinates":[-158.119003,-19.9678]}},{"id":"31900","type":"Feature","properties":{"ident":"NCMG","type":"small_airport","name":"Mangaia Island Airport","elevation_ft":"45","continent":"OC","iso_country":"CK","iso_region":"CK-U-A","municipality":"Mangaia Island","scheduled_service":"yes","gps_code":"NCMG","iata_code":"MGS","wikipedia_link":"https://en.wikipedia.org/wiki/Mangaia_Airport"},"geometry":{"type":"Point","coordinates":[-157.906662,-21.895987]}},{"id":"31907","type":"Feature","properties":{"ident":"NCMH","type":"small_airport","name":"Manihiki Island Airport","continent":"OC","iso_country":"CK","iso_region":"CK-U-A","municipality":"Manihiki Island","scheduled_service":"yes","gps_code":"NCMH","iata_code":"MHX","wikipedia_link":"https://en.wikipedia.org/wiki/Manihiki_Island_Airport","keywords":"Humphrey Island"},"geometry":{"type":"Point","coordinates":[-161.001999,-10.3767]}},{"id":"32011","type":"Feature","properties":{"ident":"NCMN","type":"small_airport","name":"Manuae Airport","elevation_ft":"15","continent":"OC","iso_country":"CK","iso_region":"CK-U-A","municipality":"Manuae","scheduled_service":"no","gps_code":"NCMN"},"geometry":{"type":"Point","coordinates":[-158.959408,-19.269152]}},{"id":"31968","type":"Feature","properties":{"ident":"NCMK","type":"small_airport","name":"Mauke Airport","elevation_ft":"26","continent":"OC","iso_country":"CK","iso_region":"CK-U-A","municipality":"Mauke Island","scheduled_service":"yes","gps_code":"NCMK","iata_code":"MUK","wikipedia_link":"https://en.wikipedia.org/wiki/Mauke_Airport","keywords":"Akatoka Manava Airport"},"geometry":{"type":"Point","coordinates":[-157.345001,-20.136101]}},{"id":"31933","type":"Feature","properties":{"ident":"NCMR","type":"small_airport","name":"Mitiaro Island Airport","elevation_ft":"25","continent":"OC","iso_country":"CK","iso_region":"CK-U-A","municipality":"Mitiaro Island","scheduled_service":"yes","gps_code":"NCMR","iata_code":"MOI","wikipedia_link":"https://en.wikipedia.org/wiki/Mitiaro_Airport","keywords":"Nukuroa Airport"},"geometry":{"type":"Point","coordinates":[-157.703003,-19.842501]}},{"id":"316695","type":"Feature","properties":{"ident":"NCPK","type":"small_airport","name":"Pukapuka Island Airport","elevation_ft":"20","continent":"OC","iso_country":"CK","iso_region":"CK-U-A","municipality":"Pukapuka Atoll","scheduled_service":"no","gps_code":"NCPK","iata_code":"PZK","keywords":"Wale, Te Ulu-o-Te-Watu"},"geometry":{"type":"Point","coordinates":[-165.8393,-10.9145]}},{"id":"4958","type":"Feature","properties":{"ident":"NCRG","type":"medium_airport","name":"Rarotonga International Airport","elevation_ft":"19","continent":"OC","iso_country":"CK","iso_region":"CK-U-A","municipality":"Avarua","scheduled_service":"yes","gps_code":"NCRG","iata_code":"RAR","wikipedia_link":"https://en.wikipedia.org/wiki/Rarotonga_International_Airport"},"geometry":{"type":"Point","coordinates":[-159.806,-21.2027]}},{"id":"32184","type":"Feature","properties":{"ident":"NCPY","type":"small_airport","name":"Tongareva Airport","elevation_ft":"8","continent":"OC","iso_country":"CK","iso_region":"CK-U-A","municipality":"Penrhyn Island","scheduled_service":"yes","gps_code":"NCPY","iata_code":"PYE","wikipedia_link":"https://en.wikipedia.org/wiki/Tongareva_Airport"},"geometry":{"type":"Point","coordinates":[-158.03241,-9.01437]}}]}