{"type":"FeatureCollection","features":[{"id":"348523","type":"Feature","properties":{"ident":"CL-0012","type":"small_airport","name":"Achibueno Airport","elevation_ft":"1673","continent":"SA","iso_country":"CL","iso_region":"CL-ML","municipality":"Linares","scheduled_service":"no","gps_code":"SCAV","wikipedia_link":"https://en.wikipedia.org/wiki/Achibueno_Airport"},"geometry":{"type":"Point","coordinates":[-71.374,-36.141999]}},{"id":"45084","type":"Feature","properties":{"ident":"SHAE","type":"heliport","name":"Aerorescate Heliport","elevation_ft":"1460","continent":"SA","iso_country":"CL","iso_region":"CL-RM","municipality":"Pudahuel","scheduled_service":"no","gps_code":"SHAE"},"geometry":{"type":"Point","coordinates":[-70.831389,-33.439722]}},{"id":"39302","type":"Feature","properties":{"ident":"SCUZ","type":"small_airport","name":"Aerosanta Cruz Airport","elevation_ft":"502","continent":"SA","iso_country":"CL","iso_region":"CL-LI","municipality":"Santa Cruz","scheduled_service":"no","gps_code":"SCUZ"},"geometry":{"type":"Point","coordinates":[-71.386108,-34.649166]}},{"id":"39317","type":"Feature","properties":{"ident":"SCVU","type":"small_airport","name":"Agromanzún Airport","elevation_ft":"738","continent":"SA","iso_country":"CL","iso_region":"CL-AR","municipality":"Vilcun","scheduled_service":"no","gps_code":"SCVU"},"geometry":{"type":"Point","coordinates":[-72.340553,-38.695835]}},{"id":"39191","type":"Feature","properties":{"ident":"SCKO","type":"small_airport","name":"Agua Buena Airport","elevation_ft":"1420","continent":"SA","iso_country":"CL","iso_region":"CL-AR","municipality":"Collipulli","scheduled_service":"no","gps_code":"SCKO"},"geometry":{"type":"Point","coordinates":[-72.249168,-37.993889]}},{"id":"32255","type":"Feature","properties":{"ident":"SCAG","type":"small_airport","name":"Agua Santa Airport","elevation_ft":"476","continent":"SA","iso_country":"CL","iso_region":"CL-LI","municipality":"Palmilla","scheduled_service":"no","gps_code":"SCAG"},"geometry":{"type":"Point","coordinates":[-71.335891,-34.551476]}},{"id":"32260","type":"Feature","properties":{"ident":"SCGU","type":"small_airport","name":"Aguas Blancas Airport","elevation_ft":"3346","continent":"SA","iso_country":"CL","iso_region":"CL-AN","municipality":"Antofagasta","scheduled_service":"no","gps_code":"SCGU"},"geometry":{"type":"Point","coordinates":[-69.828598,-24.1364]}},{"id":"45083","type":"Feature","properties":{"ident":"SHAB","type":"heliport","name":"Aguas Blancas Heliport","elevation_ft":"102","continent":"SA","iso_country":"CL","iso_region":"CL-VS","municipality":"Puchuncavi","scheduled_service":"no","gps_code":"SHAB"},"geometry":{"type":"Point","coordinates":[-71.440278,-32.665556]}},{"id":"45066","type":"Feature","properties":{"ident":"SCNH","type":"small_airport","name":"Ainhoa Airport","elevation_ft":"992","continent":"SA","iso_country":"CL","iso_region":"CL-AR","municipality":"Vilcún","scheduled_service":"no","gps_code":"SCNH"},"geometry":{"type":"Point","coordinates":[-72.243889,-38.683333]}},{"id":"39277","type":"Feature","properties":{"ident":"SCSA","type":"small_airport","name":"Alberto Santos Dumont Airport","elevation_ft":"2346","continent":"SA","iso_country":"CL","iso_region":"CL-RM","municipality":"Til Til","scheduled_service":"no","gps_code":"SCSA"},"geometry":{"type":"Point","coordinates":[-70.879997,-33.02861]}},{"id":"39093","type":"Feature","properties":{"ident":"SCAM","type":"small_airport","name":"Alempue Airport","elevation_ft":"1083","continent":"SA","iso_country":"CL","iso_region":"CL-ML","municipality":"Teno","scheduled_service":"no","gps_code":"SCAM"},"geometry":{"type":"Point","coordinates":[-71.101944,-34.865002]}},{"id":"39156","type":"Feature","properties":{"ident":"SCHG","type":"small_airport","name":"Almahue Airport","elevation_ft":"420","continent":"SA","iso_country":"CL","iso_region":"CL-LI","municipality":"Pichidegua","scheduled_service":"no","gps_code":"SCHG"},"geometry":{"type":"Point","coordinates":[-71.371109,-34.398613]}},{"id":"6013","type":"Feature","properties":{"ident":"SCDW","type":"small_airport","name":"Almirante Schroeders Airport","elevation_ft":"160","continent":"SA","iso_country":"CL","iso_region":"CL-MA","municipality":"Isla Dawson","scheduled_service":"no","gps_code":"SCDW"},"geometry":{"type":"Point","coordinates":[-70.470497,-53.610699]}},{"id":"39112","type":"Feature","properties":{"ident":"SCCN","type":"small_airport","name":"Alto Cauquenes Airport","elevation_ft":"568","continent":"SA","iso_country":"CL","iso_region":"CL-ML","municipality":"Cauquenes","scheduled_service":"no","gps_code":"SCCN"},"geometry":{"type":"Point","coordinates":[-72.327225,-35.88028]}},{"id":"29657","type":"Feature","properties":{"ident":"SCAP","type":"small_airport","name":"Alto Palena Airport","elevation_ft":"794","continent":"SA","iso_country":"CL","iso_region":"CL-LL","municipality":"Alto Palena","scheduled_service":"no","gps_code":"SCAP","iata_code":"WAP","wikipedia_link":"https://en.wikipedia.org/wiki/Alto_Palena_Airfield"},"geometry":{"type":"Point","coordinates":[-71.806099,-43.6119]}},{"id":"348842","type":"Feature","properties":{"ident":"SHTS","type":"heliport","name":"Alto Trapenses Heliport","elevation_ft":"4101","continent":"SA","iso_country":"CL","iso_region":"CL-RM","municipality":"Lo Barnechea","scheduled_service":"no","gps_code":"SHTS"},"geometry":{"type":"Point","coordinates":[-70.590849,-33.32225]}},{"id":"39320","type":"Feature","properties":{"ident":"SCXA","type":"small_airport","name":"Alupenhue Airport","elevation_ft":"1600","continent":"SA","iso_country":"CL","iso_region":"CL-ML","municipality":"Molina","scheduled_service":"no","gps_code":"SCXA"},"geometry":{"type":"Point","coordinates":[-71.070831,-35.239445]}},{"id":"6018","type":"Feature","properties":{"ident":"SCFA","type":"medium_airport","name":"Andrés Sabella Gálvez International Airport","elevation_ft":"455","continent":"SA","iso_country":"CL","iso_region":"CL-AN","municipality":"Antofagasta","scheduled_service":"yes","gps_code":"SCFA","iata_code":"ANF","wikipedia_link":"https://en.wikipedia.org/wiki/Andr%C3%A9s_Sabella_G%C3%A1lvez_International_Airport","keywords":"Cerro Moreno Airport"},"geometry":{"type":"Point","coordinates":[-70.445099,-23.444501]}},{"id":"39330","type":"Feature","properties":{"ident":"SHAG","type":"heliport","name":"Anguila 1 Heliport","elevation_ft":"66","continent":"SA","iso_country":"CL","iso_region":"CL-MA","municipality":"Magallanes","scheduled_service":"no","gps_code":"SHAG"},"geometry":{"type":"Point","coordinates":[-68.725555,-52.499443]}},{"id":"348810","type":"Feature","properties":{"ident":"SHAQ","type":"heliport","name":"Apoquindo 2929 Helipad","elevation_ft":"2322","continent":"SA","iso_country":"CL","iso_region":"CL-RM","municipality":"Santiago","scheduled_service":"no","gps_code":"SHAQ"},"geometry":{"type":"Point","coordinates":[-70.599148,-33.417772]}},{"id":"314781","type":"Feature","properties":{"ident":"CL-0007","type":"small_airport","name":"Arco Iris Airport","elevation_ft":"342","continent":"SA","iso_country":"CL","iso_region":"CL-MA","municipality":"Rio Grande","scheduled_service":"no"},"geometry":{"type":"Point","coordinates":[-68.8,-53.8924]}},{"id":"39095","type":"Feature","properties":{"ident":"SCAQ","type":"small_airport","name":"Arquilhué Airport","elevation_ft":"590","continent":"SA","iso_country":"CL","iso_region":"CL-LR","municipality":"Lago Ranco","scheduled_service":"no","gps_code":"SCAQ"},"geometry":{"type":"Point","coordinates":[-72.029198,-40.198299]}},{"id":"39332","type":"Feature","properties":{"ident":"SHAP","type":"heliport","name":"Asistencia Pública Dr. Alejandro del Río Heliport","elevation_ft":"1886","continent":"SA","iso_country":"CL","iso_region":"CL-RM","municipality":"Santiago","scheduled_service":"no","gps_code":"SHAP"},"geometry":{"type":"Point","coordinates":[-70.637222,-33.439999]}},{"id":"39329","type":"Feature","properties":{"ident":"SHAC","type":"heliport","name":"Asociación Chilena de Seguridad Heliport","elevation_ft":"1969","continent":"SA","iso_country":"CL","iso_region":"CL-RM","municipality":"Santiago","scheduled_service":"no","gps_code":"SHAC"},"geometry":{"type":"Point","coordinates":[-70.632225,-33.443611]}},{"id":"39092","type":"Feature","properties":{"ident":"SCAK","type":"small_airport","name":"Atacalco Airport","elevation_ft":"2362","continent":"SA","iso_country":"CL","iso_region":"CL-BI","municipality":"Recinto","scheduled_service":"no","gps_code":"SCAK"},"geometry":{"type":"Point","coordinates":[-71.577499,-36.919445]}},{"id":"32261","type":"Feature","properties":{"ident":"SCIL","type":"small_airport","name":"Aucó Airport","elevation_ft":"1420","continent":"SA","iso_country":"CL","iso_region":"CL-CO","municipality":"Illapel","scheduled_service":"no","gps_code":"SCIL"},"geometry":{"type":"Point","coordinates":[-71.110802,-31.577801]}},{"id":"39097","type":"Feature","properties":{"ident":"SCAY","type":"small_airport","name":"Ayacara Airport","elevation_ft":"80","continent":"SA","iso_country":"CL","iso_region":"CL-LL","municipality":"Ayacara","scheduled_service":"no","gps_code":"SCAY","wikipedia_link":"https://en.wikipedia.org/wiki/Ayacara_Airport"},"geometry":{"type":"Point","coordinates":[-72.790275,-42.310832]}},{"id":"39098","type":"Feature","properties":{"ident":"SCAZ","type":"small_airport","name":"Azopardo Airport","elevation_ft":"59","continent":"SA","iso_country":"CL","iso_region":"CL-MA","municipality":"Timaukel","scheduled_service":"no","gps_code":"SCAZ"},"geometry":{"type":"Point","coordinates":[-68.940689,-54.481014]}},{"id":"39087","type":"Feature","properties":{"ident":"SCAA","type":"small_airport","name":"Añorada Airport","elevation_ft":"459","continent":"SA","iso_country":"CL","iso_region":"CL-LL","municipality":"Frutillar","scheduled_service":"no","gps_code":"SCAA","wikipedia_link":"https://en.wikipedia.org/wiki/Andacollo_Airport"},"geometry":{"type":"Point","coordinates":[-73.047501,-41.042778]}},{"id":"39336","type":"Feature","properties":{"ident":"SHBP","type":"heliport","name":"Bahía Los Primos Heliport","elevation_ft":"574","continent":"SA","iso_country":"CL","iso_region":"CL-LI","municipality":"La Estrella","scheduled_service":"no","gps_code":"SHBP"},"geometry":{"type":"Point","coordinates":[-71.535278,-34.110832]}},{"id":"6003","type":"Feature","properties":{"ident":"SCBA","type":"medium_airport","name":"Balmaceda Airport","elevation_ft":"1722","continent":"SA","iso_country":"CL","iso_region":"CL-AI","municipality":"Balmaceda","scheduled_service":"yes","gps_code":"SCBA","iata_code":"BBA","home_link":"https://aeropuertodebalmaceda.cl/","wikipedia_link":"https://en.wikipedia.org/wiki/Balmaceda_Airport"},"geometry":{"type":"Point","coordinates":[-71.689499,-45.915968]}},{"id":"39334","type":"Feature","properties":{"ident":"SHBE","type":"heliport","name":"Banco Exterior Heliport","elevation_ft":"2000","continent":"SA","iso_country":"CL","iso_region":"CL-RM","municipality":"Santiago","scheduled_service":"no","gps_code":"SHBE"},"geometry":{"type":"Point","coordinates":[-70.644997,-33.436111]}},{"id":"39337","type":"Feature","properties":{"ident":"SHBS","type":"heliport","name":"Banco Santander Heliport","elevation_ft":"2067","continent":"SA","iso_country":"CL","iso_region":"CL-RM","municipality":"Santiago","scheduled_service":"no","gps_code":"SHBS"},"geometry":{"type":"Point","coordinates":[-70.65139,-33.436111]}},{"id":"6004","type":"Feature","properties":{"ident":"SCBE","type":"medium_airport","name":"Barriles Airport","elevation_ft":"3475","continent":"SA","iso_country":"CL","iso_region":"CL-AN","municipality":"Tocopilla","scheduled_service":"no","gps_code":"SCBE","iata_code":"TOQ"},"geometry":{"type":"Point","coordinates":[-70.062897,-22.1411]}},{"id":"39346","type":"Feature","properties":{"ident":"SHDG","type":"heliport","name":"Batería Dungenes Nº 1 Heliport","elevation_ft":"25","continent":"SA","iso_country":"CL","iso_region":"CL-MA","municipality":"Magallanes","scheduled_service":"no","gps_code":"SHDG"},"geometry":{"type":"Point","coordinates":[-68.431389,-52.380833]}},{"id":"39106","type":"Feature","properties":{"ident":"SCBV","type":"small_airport","name":"Bellavista Airport","elevation_ft":"885","continent":"SA","iso_country":"CL","iso_region":"CL-ML","municipality":"Rio Claro","scheduled_service":"no","gps_code":"SCBV"},"geometry":{"type":"Point","coordinates":[-71.296669,-35.189724]}},{"id":"39168","type":"Feature","properties":{"ident":"SCIB","type":"small_airport","name":"Butachauques Airport","elevation_ft":"150","continent":"SA","iso_country":"CL","iso_region":"CL-LL","municipality":"Isla Butachauques","scheduled_service":"no","gps_code":"SCIB"},"geometry":{"type":"Point","coordinates":[-73.14222,-42.308334]}},{"id":"30301","type":"Feature","properties":{"ident":"SCAS","type":"small_airport","name":"Cabo 1° Juan Román Airport","elevation_ft":"30","continent":"SA","iso_country":"CL","iso_region":"CL-AI","municipality":"Puerto Aysen","scheduled_service":"no","gps_code":"SCAS","iata_code":"WPA"},"geometry":{"type":"Point","coordinates":[-72.670303,-45.3992]}},{"id":"39339","type":"Feature","properties":{"ident":"SHCB","type":"heliport","name":"Caburga Heliport","elevation_ft":"1558","continent":"SA","iso_country":"CL","iso_region":"CL-AR","municipality":"Pucon","scheduled_service":"no","gps_code":"SHCB"},"geometry":{"type":"Point","coordinates":[-71.760559,-39.166943]}},{"id":"39341","type":"Feature","properties":{"ident":"SHCG","type":"heliport","name":"Cachagua Heliport","elevation_ft":"80","continent":"SA","iso_country":"CL","iso_region":"CL-VS","municipality":"Zapallar","scheduled_service":"no","gps_code":"SHCG"},"geometry":{"type":"Point","coordinates":[-71.454445,-32.578888]}},{"id":"39099","type":"Feature","properties":{"ident":"SCBC","type":"small_airport","name":"Cacique Blanco Airport","elevation_ft":"750","continent":"SA","iso_country":"CL","iso_region":"CL-AI","municipality":"Lago Verde","scheduled_service":"no","gps_code":"SCBC"},"geometry":{"type":"Point","coordinates":[-71.864166,-44.23111]}},{"id":"39196","type":"Feature","properties":{"ident":"SCLF","type":"small_airport","name":"Calcurrupe Airport","elevation_ft":"335","continent":"SA","iso_country":"CL","iso_region":"CL-LR","municipality":"Llifen","scheduled_service":"no","gps_code":"SCLF"},"geometry":{"type":"Point","coordinates":[-72.2369,-40.244202]}},{"id":"6010","type":"Feature","properties":{"ident":"SCCL","type":"small_airport","name":"Caldera Airport","elevation_ft":"180","continent":"SA","iso_country":"CL","iso_region":"CL-AT","municipality":"Caldera","scheduled_service":"no","gps_code":"SCCL"},"geometry":{"type":"Point","coordinates":[-70.795303,-27.0781]}},{"id":"39172","type":"Feature","properties":{"ident":"SCIH","type":"small_airport","name":"Caleta Andrade Airport","elevation_ft":"115","continent":"SA","iso_country":"CL","iso_region":"CL-AI","municipality":"Isla Las Huichas","scheduled_service":"no","gps_code":"SCIH","wikipedia_link":"https://en.wikipedia.org/wiki/Caleta_Blanco_Airport","keywords":"Caleta Blanco"},"geometry":{"type":"Point","coordinates":[-73.508614,-45.147777]}},{"id":"39149","type":"Feature","properties":{"ident":"SCGN","type":"small_airport","name":"Caleta Gonzalo Airport","elevation_ft":"33","continent":"SA","iso_country":"CL","iso_region":"CL-LL","municipality":"Chaiten","scheduled_service":"no","gps_code":"SCGN"},"geometry":{"type":"Point","coordinates":[-72.599724,-42.56361]}},{"id":"32267","type":"Feature","properties":{"ident":"SCPL","type":"small_airport","name":"Calpulli Airport","elevation_ft":"755","continent":"SA","iso_country":"CL","iso_region":"CL-LR","municipality":"Paillaco","scheduled_service":"no","gps_code":"SCPL"},"geometry":{"type":"Point","coordinates":[-72.661697,-40.128899]}},{"id":"1639","type":"Feature","properties":{"ident":"SC1A","type":"small_airport","name":"Canchones West Airport","elevation_ft":"3251","continent":"SA","iso_country":"CL","iso_region":"CL-TA","municipality":"Canchones","scheduled_service":"no","gps_code":"SC1A"},"geometry":{"type":"Point","coordinates":[-69.641502,-20.427099]}},{"id":"6019","type":"Feature","properties":{"ident":"SCFM","type":"medium_airport","name":"Captain Fuentes Martinez Airport","elevation_ft":"104","continent":"SA","iso_country":"CL","iso_region":"CL-MA","municipality":"Porvenir","scheduled_service":"no","gps_code":"SCFM","iata_code":"WPR"},"geometry":{"type":"Point","coordinates":[-70.319199,-53.2537]}},{"id":"39369","type":"Feature","properties":{"ident":"SHHR","type":"heliport","name":"Carabineros de Chile Heliport","elevation_ft":"213","continent":"SA","iso_country":"CL","iso_region":"CL-MA","municipality":"Punta Arenas","scheduled_service":"no","gps_code":"SHHR"},"geometry":{"type":"Point","coordinates":[-70.922226,-53.156387]}},{"id":"512499","type":"Feature","properties":{"ident":"SHCF","type":"heliport","name":"Carlos Cisternas Hospital Heliport","elevation_ft":"7495","continent":"SA","iso_country":"CL","iso_region":"CL-AN","municipality":"Calama","scheduled_service":"no","gps_code":"SHCF","keywords":"17"},"geometry":{"type":"Point","coordinates":[-68.916692,-22.444481]}},{"id":"39222","type":"Feature","properties":{"ident":"SCMY","type":"small_airport","name":"Carolina Airport","elevation_ft":"128","continent":"SA","iso_country":"CL","iso_region":"CL-AN","municipality":"Michilla","scheduled_service":"no","gps_code":"SCMY"},"geometry":{"type":"Point","coordinates":[-70.282501,-22.703611]}},{"id":"6025","type":"Feature","properties":{"ident":"SCIE","type":"medium_airport","name":"Carriel Sur Airport","elevation_ft":"26","continent":"SA","iso_country":"CL","iso_region":"CL-BI","municipality":"Concepcion","scheduled_service":"yes","gps_code":"SCIE","iata_code":"CCP","wikipedia_link":"https://en.wikipedia.org/wiki/Carriel_Sur_International_Airport"},"geometry":{"type":"Point","coordinates":[-73.063103,-36.772701]}},{"id":"39327","type":"Feature","properties":{"ident":"SCZC","type":"small_airport","name":"Casas Viejas Airport","elevation_ft":"262","continent":"SA","iso_country":"CL","iso_region":"CL-VS","municipality":"Zapallar","scheduled_service":"no","gps_code":"SCZC"},"geometry":{"type":"Point","coordinates":[-71.347221,-32.595276]}},{"id":"39383","type":"Feature","properties":{"ident":"SHNC","type":"heliport","name":"Catalina Norte 1 Heliport","elevation_ft":"98","continent":"SA","iso_country":"CL","iso_region":"CL-MA","municipality":"Punta Arenas","scheduled_service":"no","gps_code":"SHNC"},"geometry":{"type":"Point","coordinates":[-68.675552,-52.56361]}},{"id":"39385","type":"Feature","properties":{"ident":"SHNO","type":"heliport","name":"Catalina Norte 2 Heliport","elevation_ft":"30","continent":"SA","iso_country":"CL","iso_region":"CL-MA","municipality":"Punta Arenas","scheduled_service":"no","gps_code":"SHNO"},"geometry":{"type":"Point","coordinates":[-69.663612,-52.575279]}},{"id":"348526","type":"Feature","properties":{"ident":"CL-0013","type":"small_airport","name":"Catapilco Airport","elevation_ft":"309","continent":"SA","iso_country":"CL","iso_region":"CL-VS","municipality":"Zapallar","scheduled_service":"no","gps_code":"SCCP"},"geometry":{"type":"Point","coordinates":[-71.287698,-32.563805]}},{"id":"6027","type":"Feature","properties":{"ident":"SCJO","type":"medium_airport","name":"Cañal Bajo Carlos - Hott Siebert Airport","elevation_ft":"187","continent":"SA","iso_country":"CL","iso_region":"CL-LL","municipality":"Osorno","scheduled_service":"yes","gps_code":"SCJO","iata_code":"ZOS","wikipedia_link":"https://en.wikipedia.org/wiki/Canal_Bajo_Carlos_Hott_Siebert_Airport"},"geometry":{"type":"Point","coordinates":[-73.060997,-40.611198]}},{"id":"39254","type":"Feature","properties":{"ident":"SCPY","type":"small_airport","name":"Cerro Castillo Airport","elevation_ft":"427","continent":"SA","iso_country":"CL","iso_region":"CL-MA","municipality":"Cerro Castillo","scheduled_service":"no","gps_code":"SCPY"},"geometry":{"type":"Point","coordinates":[-72.337502,-51.262222]}},{"id":"39395","type":"Feature","properties":{"ident":"SHSB","type":"heliport","name":"Cerro Sombrero Heliport","elevation_ft":"98","continent":"SA","iso_country":"CL","iso_region":"CL-MA","municipality":"Magallanes","scheduled_service":"no","gps_code":"SHSB"},"geometry":{"type":"Point","coordinates":[-69.288887,-52.766666]}},{"id":"6001","type":"Feature","properties":{"ident":"SCAR","type":"medium_airport","name":"Chacalluta Airport","elevation_ft":"167","continent":"SA","iso_country":"CL","iso_region":"CL-AP","municipality":"Arica","scheduled_service":"yes","gps_code":"SCAR","iata_code":"ARI","wikipedia_link":"https://en.wikipedia.org/wiki/Chacalluta_International_Airport"},"geometry":{"type":"Point","coordinates":[-70.338699,-18.348499]}},{"id":"29774","type":"Feature","properties":{"ident":"SCHA","type":"small_airport","name":"Chamonate Airport","elevation_ft":"984","continent":"SA","iso_country":"CL","iso_region":"CL-AT","municipality":"Copiapo","scheduled_service":"no","gps_code":"SCHA","wikipedia_link":"https://en.wikipedia.org/wiki/Chamonate_Airport","keywords":"CPO"},"geometry":{"type":"Point","coordinates":[-70.413101,-27.2969]}},{"id":"39161","type":"Feature","properties":{"ident":"SCHN","type":"small_airport","name":"Chan Chan Airport","elevation_ft":"457","continent":"SA","iso_country":"CL","iso_region":"CL-LR","municipality":"Choshuenco","scheduled_service":"no","gps_code":"SCHN"},"geometry":{"type":"Point","coordinates":[-72.131401,-39.865799]}},{"id":"6037","type":"Feature","properties":{"ident":"SCRA","type":"medium_airport","name":"Chañaral Airport","elevation_ft":"97","continent":"SA","iso_country":"CL","iso_region":"CL-AT","municipality":"Chañaral","scheduled_service":"no","gps_code":"SCRA","iata_code":"CNR"},"geometry":{"type":"Point","coordinates":[-70.6073,-26.3325]}},{"id":"39153","type":"Feature","properties":{"ident":"SCHC","type":"small_airport","name":"Chicureo Airport","elevation_ft":"1886","continent":"SA","iso_country":"CL","iso_region":"CL-RM","municipality":"Santiago","scheduled_service":"no","gps_code":"SCHC"},"geometry":{"type":"Point","coordinates":[-70.647224,-33.267776]}},{"id":"6006","type":"Feature","properties":{"ident":"SCCC","type":"medium_airport","name":"Chile Chico Airport","elevation_ft":"1070","continent":"SA","iso_country":"CL","iso_region":"CL-AI","municipality":"Chile Chico","scheduled_service":"no","gps_code":"SCCC","iata_code":"CCH"},"geometry":{"type":"Point","coordinates":[-71.686323,-46.5831]}},{"id":"39145","type":"Feature","properties":{"ident":"SCGH","type":"small_airport","name":"Cholguahue Airport","elevation_ft":"732","continent":"SA","iso_country":"CL","iso_region":"CL-BI","municipality":"Los Angeles","scheduled_service":"no","gps_code":"SCGH"},"geometry":{"type":"Point","coordinates":[-72.138611,-37.469723]}},{"id":"39171","type":"Feature","properties":{"ident":"SCIF","type":"small_airport","name":"Chollinco Airport","elevation_ft":"330","continent":"SA","iso_country":"CL","iso_region":"CL-LR","municipality":"Llifen","scheduled_service":"no","gps_code":"SCIF"},"geometry":{"type":"Point","coordinates":[-72.2314,-40.205799]}},{"id":"39154","type":"Feature","properties":{"ident":"SCHD","type":"small_airport","name":"Chumilden Airport","elevation_ft":"66","continent":"SA","iso_country":"CL","iso_region":"CL-LL","municipality":"Chaiten","scheduled_service":"no","gps_code":"SCHD"},"geometry":{"type":"Point","coordinates":[-72.816948,-42.524445]}},{"id":"39129","type":"Feature","properties":{"ident":"SCEK","type":"small_airport","name":"Chépica Airport","elevation_ft":"610","continent":"SA","iso_country":"CL","iso_region":"CL-LI","municipality":"Chepica","scheduled_service":"no","gps_code":"SCEK"},"geometry":{"type":"Point","coordinates":[-71.324722,-34.739723]}},{"id":"314773","type":"Feature","properties":{"ident":"CL-0004","type":"small_airport","name":"Cinco de Enero Airport","elevation_ft":"84","continent":"SA","iso_country":"CL","iso_region":"CL-MA","municipality":"Santa Maria","scheduled_service":"no"},"geometry":{"type":"Point","coordinates":[-70.3521,-52.595]}},{"id":"332832","type":"Feature","properties":{"ident":"CL-0008","type":"heliport","name":"Clinica Alemana Helipad","elevation_ft":"2485","continent":"SA","iso_country":"CL","iso_region":"CL-RM","municipality":"Santiago","scheduled_service":"no","gps_code":"SHCD","wikipedia_link":"https://en.wikipedia.org/wiki/Clinica_Alemana_de_Santiago"},"geometry":{"type":"Point","coordinates":[-70.572969,-33.392103]}},{"id":"348841","type":"Feature","properties":{"ident":"SHUC","type":"heliport","name":"Clinica San Carlos de Apoquindo Heliport","elevation_ft":"3028","continent":"SA","iso_country":"CL","iso_region":"CL-RM","municipality":"Las Condes","scheduled_service":"no","gps_code":"SHUC"},"geometry":{"type":"Point","coordinates":[-70.507904,-33.40064]}},{"id":"332834","type":"Feature","properties":{"ident":"SHIN","type":"heliport","name":"Clínica Indisa Helipad","elevation_ft":"2100","continent":"SA","iso_country":"CL","iso_region":"CL-RM","municipality":"Santiago","scheduled_service":"no","gps_code":"SHIN"},"geometry":{"type":"Point","coordinates":[-70.617778,-33.420833]}},{"id":"39340","type":"Feature","properties":{"ident":"SHCC","type":"heliport","name":"Clínica Las Condes Heliport","elevation_ft":"2461","continent":"SA","iso_country":"CL","iso_region":"CL-RM","municipality":"Santiago","scheduled_service":"no","gps_code":"SHCC"},"geometry":{"type":"Point","coordinates":[-70.53083,-33.385277]}},{"id":"39379","type":"Feature","properties":{"ident":"SHMA","type":"heliport","name":"Clínica Santa María Heliport","elevation_ft":"2028","continent":"SA","iso_country":"CL","iso_region":"CL-RM","municipality":"Santiago","scheduled_service":"no","gps_code":"SHMA"},"geometry":{"type":"Point","coordinates":[-70.628334,-33.43222]}},{"id":"39189","type":"Feature","properties":{"ident":"SCKM","type":"small_airport","name":"Cochamó Airport","elevation_ft":"130","continent":"SA","iso_country":"CL","iso_region":"CL-LL","municipality":"Cochamo","scheduled_service":"no","gps_code":"SCKM"},"geometry":{"type":"Point","coordinates":[-72.300003,-41.483334]}},{"id":"6024","type":"Feature","properties":{"ident":"SCHR","type":"medium_airport","name":"Cochrane Airport","elevation_ft":"643","continent":"SA","iso_country":"CL","iso_region":"CL-AI","municipality":"Cochrane","scheduled_service":"no","gps_code":"SCHR","iata_code":"LGR"},"geometry":{"type":"Point","coordinates":[-72.58815,-47.243591]}},{"id":"39280","type":"Feature","properties":{"ident":"SCSK","type":"small_airport","name":"Colorado Airport","elevation_ft":"1410","continent":"SA","iso_country":"CL","iso_region":"CL-ML","municipality":"San Clemente","scheduled_service":"no","gps_code":"SCSK"},"geometry":{"type":"Point","coordinates":[-71.303612,-35.663055]}},{"id":"6015","type":"Feature","properties":{"ident":"SCEL","type":"large_airport","name":"Comodoro Arturo Merino Benítez International Airport","elevation_ft":"1555","continent":"SA","iso_country":"CL","iso_region":"CL-RM","municipality":"Santiago","scheduled_service":"yes","gps_code":"SCEL","iata_code":"SCL","home_link":"http://www.aeropuertosantiago.cl/ingles/index.php","wikipedia_link":"https://en.wikipedia.org/wiki/Comodoro_Arturo_Merino_Ben%C3%ADtez_International_Airport"},"geometry":{"type":"Point","coordinates":[-70.785797,-33.393002]}},{"id":"39110","type":"Feature","properties":{"ident":"SCCK","type":"small_airport","name":"Contao Airport","elevation_ft":"10","continent":"SA","iso_country":"CL","iso_region":"CL-LL","municipality":"Contao","scheduled_service":"no","gps_code":"SCCK"},"geometry":{"type":"Point","coordinates":[-72.722237,-41.800304]}},{"id":"39163","type":"Feature","properties":{"ident":"SCHP","type":"small_airport","name":"Copihue Airport","elevation_ft":"551","continent":"SA","iso_country":"CL","iso_region":"CL-ML","municipality":"Retiro","scheduled_service":"no","gps_code":"SCHP"},"geometry":{"type":"Point","coordinates":[-71.779724,-36.077499]}},{"id":"6028","type":"Feature","properties":{"ident":"SCKP","type":"small_airport","name":"Coposa Airport","elevation_ft":"12468","continent":"SA","iso_country":"CL","iso_region":"CL-TA","municipality":"Pica","scheduled_service":"no","gps_code":"SCKP","iata_code":"CPP","wikipedia_link":"https://en.wikipedia.org/wiki/Coposa_Airport"},"geometry":{"type":"Point","coordinates":[-68.683502,-20.7505]}},{"id":"39343","type":"Feature","properties":{"ident":"SHCM","type":"heliport","name":"Corporativo Mutual Heliport","elevation_ft":"2100","continent":"SA","iso_country":"CL","iso_region":"CL-RM","municipality":"Santiago","scheduled_service":"no","gps_code":"SHCM"},"geometry":{"type":"Point","coordinates":[-70.637779,-33.440277]}},{"id":"39249","type":"Feature","properties":{"ident":"SCPR","type":"small_airport","name":"Corte Alto Airport","elevation_ft":"416","continent":"SA","iso_country":"CL","iso_region":"CL-LL","municipality":"Purranque","scheduled_service":"no","gps_code":"SCPR"},"geometry":{"type":"Point","coordinates":[-73.169998,-40.943333]}},{"id":"39282","type":"Feature","properties":{"ident":"SCSO","type":"small_airport","name":"Costa del Sol Airport","elevation_ft":"390","continent":"SA","iso_country":"CL","iso_region":"CL-LI","municipality":"Lago Rapel","scheduled_service":"no","gps_code":"SCSO"},"geometry":{"type":"Point","coordinates":[-71.527222,-34.120834]}},{"id":"39102","type":"Feature","properties":{"ident":"SCBN","type":"small_airport","name":"Cotreumo Airport","elevation_ft":"607","continent":"SA","iso_country":"CL","iso_region":"CL-LR","municipality":"Rio Bueno","scheduled_service":"no","gps_code":"SCBN"},"geometry":{"type":"Point","coordinates":[-72.6614,-40.4006]}},{"id":"45087","type":"Feature","properties":{"ident":"SHEJ","type":"heliport","name":"Cuartel Gral. I División De Ejercito Heliport","elevation_ft":"124","continent":"SA","iso_country":"CL","iso_region":"CL-AN","municipality":"Antofagasta","scheduled_service":"no","gps_code":"SHEJ"},"geometry":{"type":"Point","coordinates":[-70.413889,-23.6825]}},{"id":"39372","type":"Feature","properties":{"ident":"SHIQ","type":"heliport","name":"Cuartel Gral. VI División de Ejercito Heliport","elevation_ft":"26","continent":"SA","iso_country":"CL","iso_region":"CL-TA","municipality":"Iquique","scheduled_service":"no","gps_code":"SHIQ"},"geometry":{"type":"Point","coordinates":[-70.144997,-20.23]}},{"id":"39314","type":"Feature","properties":{"ident":"SCVQ","type":"small_airport","name":"Cuatro Pantanos Airport","elevation_ft":"82","continent":"SA","iso_country":"CL","iso_region":"CL-ML","municipality":"Vichuquen","scheduled_service":"no","gps_code":"SCVQ"},"geometry":{"type":"Point","coordinates":[-72.065002,-34.837223]}},{"id":"348511","type":"Feature","properties":{"ident":"SCAI","type":"small_airport","name":"Curacautín Airport","elevation_ft":"1667","continent":"SA","iso_country":"CL","iso_region":"CL-AR","municipality":"Curacautín","scheduled_service":"no","gps_code":"SCAI","wikipedia_link":"https://es.wikipedia.org/wiki/Aeródromo_de_Curacautín"},"geometry":{"type":"Point","coordinates":[-71.923027,-38.431514]}},{"id":"29812","type":"Feature","properties":{"ident":"SCCV","type":"small_airport","name":"Curacaví Airport","elevation_ft":"686","continent":"SA","iso_country":"CL","iso_region":"CL-RM","municipality":"Curacaví","scheduled_service":"no","gps_code":"SCCV"},"geometry":{"type":"Point","coordinates":[-71.165604,-33.4128]}},{"id":"39192","type":"Feature","properties":{"ident":"SCKQ","type":"small_airport","name":"Curimanque Airport","elevation_ft":"1476","continent":"SA","iso_country":"CL","iso_region":"CL-AR","municipality":"Pucon","scheduled_service":"no","gps_code":"SCKQ"},"geometry":{"type":"Point","coordinates":[-72.027222,-39.326946]}},{"id":"45081","type":"Feature","properties":{"ident":"SCYU","type":"small_airport","name":"Cuyumaique Airport","elevation_ft":"443","continent":"SA","iso_country":"CL","iso_region":"CL-LL","municipality":"Purranque","scheduled_service":"no","gps_code":"SCYU"},"geometry":{"type":"Point","coordinates":[-73.011667,-40.940556]}},{"id":"39347","type":"Feature","properties":{"ident":"SHDN","type":"heliport","name":"Daniel 1 Heliport","elevation_ft":"98","continent":"SA","iso_country":"CL","iso_region":"CL-MA","municipality":"Magallanes","scheduled_service":"no","gps_code":"SHDN"},"geometry":{"type":"Point","coordinates":[-68.764999,-52.364723]}},{"id":"45055","type":"Feature","properties":{"ident":"SCBB","type":"small_airport","name":"Del Bío Bío Airport","elevation_ft":"249","continent":"SA","iso_country":"CL","iso_region":"CL-BI","municipality":"Negrete","scheduled_service":"no","gps_code":"SCBB"},"geometry":{"type":"Point","coordinates":[-72.503611,-37.587222]}},{"id":"39349","type":"Feature","properties":{"ident":"SHDP","type":"heliport","name":"Del Pacifico Heliport","elevation_ft":"200","continent":"SA","iso_country":"CL","iso_region":"CL-AR","municipality":"Temuco","scheduled_service":"no","gps_code":"SHDP"},"geometry":{"type":"Point","coordinates":[-72.802498,-38.754166]}},{"id":"6002","type":"Feature","properties":{"ident":"SCAT","type":"medium_airport","name":"Desierto de Atacama Airport","elevation_ft":"670","continent":"SA","iso_country":"CL","iso_region":"CL-AT","municipality":"Copiapo","scheduled_service":"yes","gps_code":"SCAT","iata_code":"CPO","wikipedia_link":"https://en.wikipedia.org/wiki/Desierto_de_Atacama_Airport"},"geometry":{"type":"Point","coordinates":[-70.779198,-27.2612]}},{"id":"6012","type":"Feature","properties":{"ident":"SCDA","type":"medium_airport","name":"Diego Aracena Airport","elevation_ft":"155","continent":"SA","iso_country":"CL","iso_region":"CL-TA","municipality":"Iquique","scheduled_service":"yes","gps_code":"SCDA","iata_code":"IQQ","home_link":"http://www.aeropuertodiegoaracena.cl/EN/Default.aspx#","wikipedia_link":"https://en.wikipedia.org/wiki/Diego_Aracena_International_Airport"},"geometry":{"type":"Point","coordinates":[-70.181297,-20.5352]}},{"id":"39204","type":"Feature","properties":{"ident":"SCLQ","type":"small_airport","name":"Diego Portales Airport","elevation_ft":"250","continent":"SA","iso_country":"CL","iso_region":"CL-VS","municipality":"La Ligua","scheduled_service":"no","gps_code":"SCLQ"},"geometry":{"type":"Point","coordinates":[-71.258888,-32.452499]}},{"id":"348840","type":"Feature","properties":{"ident":"SHUE","type":"heliport","name":"Dinahue Heliport","elevation_ft":"10","continent":"SA","iso_country":"CL","iso_region":"CL-BI","municipality":"Talcahuano","scheduled_service":"no","gps_code":"SHUE"},"geometry":{"type":"Point","coordinates":[-73.106667,-36.770833]}},{"id":"348540","type":"Feature","properties":{"ident":"CL-0014","type":"small_airport","name":"Domeyko Airfield","elevation_ft":"2403","continent":"SA","iso_country":"CL","iso_region":"CL-AT","municipality":"Domeyko","scheduled_service":"no","wikipedia_link":"https://en.wikipedia.org/wiki/Domeyko_Airfield","keywords":"SCDK"},"geometry":{"type":"Point","coordinates":[-70.922703,-28.96787]}},{"id":"348530","type":"Feature","properties":{"ident":"SCDG","type":"small_airport","name":"Don Aliro Garcia Airport","elevation_ft":"697","continent":"SA","iso_country":"CL","iso_region":"CL-LI","municipality":"La Estrella","scheduled_service":"no","gps_code":"SCDG"},"geometry":{"type":"Point","coordinates":[-71.568056,-34.193889]}},{"id":"39117","type":"Feature","properties":{"ident":"SCDD","type":"small_airport","name":"Don Dobri Airport","elevation_ft":"226","continent":"SA","iso_country":"CL","iso_region":"CL-LL","municipality":"Puerto Varas","scheduled_service":"no","gps_code":"SCDD"},"geometry":{"type":"Point","coordinates":[-72.514999,-41.234722]}},{"id":"45089","type":"Feature","properties":{"ident":"SHGR","type":"heliport","name":"Edificio Corpgroup Heliport","elevation_ft":"2448","continent":"SA","iso_country":"CL","iso_region":"CL-RM","municipality":"Las Condes","scheduled_service":"no","gps_code":"SHGR"},"geometry":{"type":"Point","coordinates":[-70.573056,-33.404444]}},{"id":"39407","type":"Feature","properties":{"ident":"SHTC","type":"heliport","name":"Edificio Corporativo CTC Heliport","elevation_ft":"2389","continent":"SA","iso_country":"CL","iso_region":"CL-RM","municipality":"Santiago","scheduled_service":"no","gps_code":"SHTC"},"geometry":{"type":"Point","coordinates":[-70.632525,-33.436944]}},{"id":"39352","type":"Feature","properties":{"ident":"SHEH","type":"heliport","name":"Edificio Huidobro Heliport","elevation_ft":"2470","continent":"SA","iso_country":"CL","iso_region":"CL-RM","municipality":"Santiago","scheduled_service":"no","gps_code":"SHEH"},"geometry":{"type":"Point","coordinates":[-70.572777,-33.403889]}},{"id":"39350","type":"Feature","properties":{"ident":"SHEC","type":"heliport","name":"Edificio Itaú Helipad","elevation_ft":"2270","continent":"SA","iso_country":"CL","iso_region":"CL-RM","municipality":"Santiago","scheduled_service":"no","gps_code":"SHEC","keywords":"Edificio BankBoston"},"geometry":{"type":"Point","coordinates":[-70.593563,-33.416555]}},{"id":"348831","type":"Feature","properties":{"ident":"CL-0016","type":"heliport","name":"Edificio Torre Nueva Santa María Helipad","elevation_ft":"2400","continent":"SA","iso_country":"CL","iso_region":"CL-RM","municipality":"Santiago","scheduled_service":"no","local_code":"ETNSM"},"geometry":{"type":"Point","coordinates":[-70.621952,-33.422742]}},{"id":"39403","type":"Feature","properties":{"ident":"SHSR","type":"heliport","name":"Edificio Torre San Ramón Helipad","elevation_ft":"2133","continent":"SA","iso_country":"CL","iso_region":"CL-RM","municipality":"Santiago","scheduled_service":"no","gps_code":"SHSR"},"geometry":{"type":"Point","coordinates":[-70.606438,-33.420741]}},{"id":"39401","type":"Feature","properties":{"ident":"SHSM","type":"heliport","name":"Edificio Torre Santa María Helipad","elevation_ft":"2329","continent":"SA","iso_country":"CL","iso_region":"CL-RM","municipality":"Santiago","scheduled_service":"no","gps_code":"SHSM"},"geometry":{"type":"Point","coordinates":[-70.62236,-33.423132]}},{"id":"332835","type":"Feature","properties":{"ident":"SHEB","type":"heliport","name":"Ejército Bicentenario Helipad","elevation_ft":"1821","continent":"SA","iso_country":"CL","iso_region":"CL-RM","municipality":"Santiago","scheduled_service":"no","gps_code":"SHEB"},"geometry":{"type":"Point","coordinates":[-70.657424,-33.457784]}},{"id":"39312","type":"Feature","properties":{"ident":"SCVK","type":"small_airport","name":"El Alamo Airport","elevation_ft":"33","continent":"SA","iso_country":"CL","iso_region":"CL-ML","municipality":"Vichuquen","scheduled_service":"no","gps_code":"SCVK"},"geometry":{"type":"Point","coordinates":[-72.022224,-34.847778]}},{"id":"39088","type":"Feature","properties":{"ident":"SCAB","type":"small_airport","name":"El Alba Airport","elevation_ft":"450","continent":"SA","iso_country":"CL","iso_region":"CL-RM","municipality":"La Lumbrera","scheduled_service":"no","gps_code":"SCAB","wikipedia_link":"https://en.wikipedia.org/wiki/El_Alba/La_Lumbrera_Airport"},"geometry":{"type":"Point","coordinates":[-71.289877,-33.658694]}},{"id":"39120","type":"Feature","properties":{"ident":"SCDL","type":"small_airport","name":"El Algarrobo Airport","elevation_ft":"951","continent":"SA","iso_country":"CL","iso_region":"CL-VS","municipality":"Cabildo","scheduled_service":"no","gps_code":"SCDL"},"geometry":{"type":"Point","coordinates":[-70.993057,-32.471943]}},{"id":"39274","type":"Feature","properties":{"ident":"SCRT","type":"small_airport","name":"El Almendro Airport","elevation_ft":"486","continent":"SA","iso_country":"CL","iso_region":"CL-ML","municipality":"Retiro","scheduled_service":"no","gps_code":"SCRT"},"geometry":{"type":"Point","coordinates":[-71.793335,-35.960556]}},{"id":"39124","type":"Feature","properties":{"ident":"SCEA","type":"small_airport","name":"El Amarillo Airport","elevation_ft":"1083","continent":"SA","iso_country":"CL","iso_region":"CL-LL","municipality":"Chaiten","scheduled_service":"no","gps_code":"SCEA"},"geometry":{"type":"Point","coordinates":[-72.478333,-43.006111]}},{"id":"45056","type":"Feature","properties":{"ident":"SCCE","type":"small_airport","name":"El Arenal Airport","elevation_ft":"397","continent":"SA","iso_country":"CL","iso_region":"CL-ML","municipality":"Cauquenes","scheduled_service":"no","gps_code":"SCCE"},"geometry":{"type":"Point","coordinates":[-72.055833,-35.896389]}},{"id":"39132","type":"Feature","properties":{"ident":"SCEV","type":"small_airport","name":"El Avellano Airport","elevation_ft":"489","continent":"SA","iso_country":"CL","iso_region":"CL-LL","municipality":"Frutillar","scheduled_service":"no","gps_code":"SCEV","iata_code":"FRT"},"geometry":{"type":"Point","coordinates":[-73.050003,-41.117001]}},{"id":"308227","type":"Feature","properties":{"ident":"SCBU","type":"small_airport","name":"El Baúl Airstrip","elevation_ft":"3070","continent":"SA","iso_country":"CL","iso_region":"CL-ML","municipality":"Molina","scheduled_service":"no","gps_code":"SCBU"},"geometry":{"type":"Point","coordinates":[-70.9108,-35.341435]}},{"id":"39259","type":"Feature","properties":{"ident":"SCQL","type":"small_airport","name":"El Boco Airport","elevation_ft":"459","continent":"SA","iso_country":"CL","iso_region":"CL-VS","municipality":"Quillota","scheduled_service":"no","gps_code":"SCQL"},"geometry":{"type":"Point","coordinates":[-71.246391,-32.851112]}},{"id":"39100","type":"Feature","properties":{"ident":"SCBD","type":"small_airport","name":"El Boldal Airport","elevation_ft":"574","continent":"SA","iso_country":"CL","iso_region":"CL-LI","municipality":"Santa Cruz","scheduled_service":"no","gps_code":"SCBD"},"geometry":{"type":"Point","coordinates":[-71.206108,-34.684444]}},{"id":"39107","type":"Feature","properties":{"ident":"SCCA","type":"small_airport","name":"El Boldo Airport","elevation_ft":"525","continent":"SA","iso_country":"CL","iso_region":"CL-ML","municipality":"Cauquenes","scheduled_service":"no","gps_code":"SCCA"},"geometry":{"type":"Point","coordinates":[-72.224998,-35.97139]}},{"id":"6005","type":"Feature","properties":{"ident":"SCBQ","type":"small_airport","name":"El Bosque Airport","elevation_ft":"1844","continent":"SA","iso_country":"CL","iso_region":"CL-RM","municipality":"Santiago","scheduled_service":"no","gps_code":"SCBQ"},"geometry":{"type":"Point","coordinates":[-70.6884,-33.561798]}},{"id":"39278","type":"Feature","properties":{"ident":"SCSH","type":"small_airport","name":"El Budi Airport","elevation_ft":"82","continent":"SA","iso_country":"CL","iso_region":"CL-AR","municipality":"Teodoro Schmidt","scheduled_service":"no","gps_code":"SCSH"},"geometry":{"type":"Point","coordinates":[-73.169998,-39.062778]}},{"id":"39090","type":"Feature","properties":{"ident":"SCAE","type":"small_airport","name":"El Buitre Airport","elevation_ft":"328","continent":"SA","iso_country":"CL","iso_region":"CL-AP","municipality":"Arica","scheduled_service":"no","gps_code":"SCAE"},"geometry":{"type":"Point","coordinates":[-70.290707,-18.508938]}},{"id":"39184","type":"Feature","properties":{"ident":"SCKD","type":"small_airport","name":"El Cardal Airport","elevation_ft":"525","continent":"SA","iso_country":"CL","iso_region":"CL-LR","municipality":"Rio Bueno","scheduled_service":"no","gps_code":"SCKD"},"geometry":{"type":"Point","coordinates":[-72.684998,-40.4678]}},{"id":"45076","type":"Feature","properties":{"ident":"SCRZ","type":"small_airport","name":"El Carrizal Airport","elevation_ft":"492","continent":"SA","iso_country":"CL","iso_region":"CL-LI","municipality":"Marchigue","scheduled_service":"no","gps_code":"SCRZ"},"geometry":{"type":"Point","coordinates":[-71.706111,-34.443333]}},{"id":"39355","type":"Feature","properties":{"ident":"SHEQ","type":"heliport","name":"El Conquistador Heliport","elevation_ft":"1670","continent":"SA","iso_country":"CL","iso_region":"CL-RM","municipality":"Santiago","scheduled_service":"no","gps_code":"SHEQ"},"geometry":{"type":"Point","coordinates":[-70.650558,-33.370556]}},{"id":"39127","type":"Feature","properties":{"ident":"SCEG","type":"small_airport","name":"El Corte Airport","elevation_ft":"1024","continent":"SA","iso_country":"CL","iso_region":"CL-RM","municipality":"Talagante","scheduled_service":"no","gps_code":"SCEG"},"geometry":{"type":"Point","coordinates":[-70.913055,-33.709999]}},{"id":"39128","type":"Feature","properties":{"ident":"SCEH","type":"small_airport","name":"El Huachi Airport","elevation_ft":"1558","continent":"SA","iso_country":"CL","iso_region":"CL-BI","municipality":"Santa Barbara","scheduled_service":"no","gps_code":"SCEH","wikipedia_link":"https://en.wikipedia.org/wiki/El_Huachi_Airport"},"geometry":{"type":"Point","coordinates":[-71.753891,-37.647221]}},{"id":"39305","type":"Feature","properties":{"ident":"SCVC","type":"small_airport","name":"El Indio Airport","elevation_ft":"11975","continent":"SA","iso_country":"CL","iso_region":"CL-CO","municipality":"Vicuña","scheduled_service":"no","gps_code":"SCVC"},"geometry":{"type":"Point","coordinates":[-70.046112,-29.834444]}},{"id":"39296","type":"Feature","properties":{"ident":"SCUL","type":"small_airport","name":"El Litral Airport","elevation_ft":"180","continent":"SA","iso_country":"CL","iso_region":"CL-BI","municipality":"Bulnes","scheduled_service":"no","gps_code":"SCUL"},"geometry":{"type":"Point","coordinates":[-72.42083,-36.79361]}},{"id":"6007","type":"Feature","properties":{"ident":"SCCF","type":"medium_airport","name":"El Loa Airport","elevation_ft":"7543","continent":"SA","iso_country":"CL","iso_region":"CL-AN","municipality":"Calama","scheduled_service":"yes","gps_code":"SCCF","iata_code":"CJC","wikipedia_link":"https://en.wikipedia.org/wiki/El_Loa_Airport"},"geometry":{"type":"Point","coordinates":[-68.903603,-22.498199]}},{"id":"39354","type":"Feature","properties":{"ident":"SHEM","type":"heliport","name":"El Mercurio Heliport","elevation_ft":"2247","continent":"SA","iso_country":"CL","iso_region":"CL-RM","municipality":"Santiago","scheduled_service":"no","gps_code":"SHEM"},"geometry":{"type":"Point","coordinates":[-70.595833,-33.381111]}},{"id":"30305","type":"Feature","properties":{"ident":"SCPV","type":"small_airport","name":"El Mirador Airport","elevation_ft":"430","continent":"SA","iso_country":"CL","iso_region":"CL-LL","municipality":"Puerto Varas","scheduled_service":"no","gps_code":"SCPV","iata_code":"PUX"},"geometry":{"type":"Point","coordinates":[-72.946701,-41.3494]}},{"id":"39180","type":"Feature","properties":{"ident":"SCJV","type":"small_airport","name":"El Parrón Airport","elevation_ft":"200","continent":"SA","iso_country":"CL","iso_region":"CL-ML","municipality":"San Javier","scheduled_service":"no","gps_code":"SCJV"},"geometry":{"type":"Point","coordinates":[-71.776108,-35.548054]}},{"id":"348539","type":"Feature","properties":{"ident":"SCDK","type":"small_airport","name":"El Patagual Airport","elevation_ft":"93","continent":"SA","iso_country":"CL","iso_region":"CL-BI","municipality":"Concepcion","scheduled_service":"no","gps_code":"SCDK"},"geometry":{"type":"Point","coordinates":[-72.982733,-37.025519]}},{"id":"525286","type":"Feature","properties":{"ident":"SCUU","type":"small_airport","name":"El Peral Airport","elevation_ft":"1064","continent":"SA","iso_country":"CL","iso_region":"CL-CO","scheduled_service":"no","gps_code":"SCUU"},"geometry":{"type":"Point","coordinates":[-71.243344,-31.653369]}},{"id":"348524","type":"Feature","properties":{"ident":"SCBL","type":"small_airport","name":"El Porvenir Airport","elevation_ft":"988","continent":"SA","iso_country":"CL","iso_region":"CL-VS","municipality":"Casablanca","scheduled_service":"no","gps_code":"SCBL"},"geometry":{"type":"Point","coordinates":[-71.525278,-33.273056]}},{"id":"30265","type":"Feature","properties":{"ident":"SCEP","type":"small_airport","name":"El Principal Airport","elevation_ft":"2592","continent":"SA","iso_country":"CL","iso_region":"CL-RM","municipality":"Pirque","scheduled_service":"no","gps_code":"SCEP"},"geometry":{"type":"Point","coordinates":[-70.5103,-33.724998]}},{"id":"45074","type":"Feature","properties":{"ident":"SCRS","type":"small_airport","name":"El Rosario Airport","elevation_ft":"804","continent":"SA","iso_country":"CL","iso_region":"CL-VS","municipality":"Cartagena","scheduled_service":"no","gps_code":"SCRS"},"geometry":{"type":"Point","coordinates":[-71.405556,-33.488889]}},{"id":"30378","type":"Feature","properties":{"ident":"SCSI","type":"small_airport","name":"El Salar Airport","elevation_ft":"7556","continent":"SA","iso_country":"CL","iso_region":"CL-AN","municipality":"Salar De Atacama","scheduled_service":"no","gps_code":"SCSL"},"geometry":{"type":"Point","coordinates":[-68.305,-23.648899]}},{"id":"39130","type":"Feature","properties":{"ident":"SCEO","type":"small_airport","name":"El Salto Airport","elevation_ft":"564","continent":"SA","iso_country":"CL","iso_region":"CL-ML","municipality":"Parral","scheduled_service":"no","gps_code":"SCEO"},"geometry":{"type":"Point","coordinates":[-71.857498,-36.13028]}},{"id":"45077","type":"Feature","properties":{"ident":"SCSP","type":"small_airport","name":"El Sobrante Airport","elevation_ft":"2559","continent":"SA","iso_country":"CL","iso_region":"CL-VS","municipality":"Petorca","scheduled_service":"no","gps_code":"SCSP"},"geometry":{"type":"Point","coordinates":[-70.8,-32.223611]}},{"id":"39131","type":"Feature","properties":{"ident":"SCET","type":"small_airport","name":"El Tambo Airport","elevation_ft":"748","continent":"SA","iso_country":"CL","iso_region":"CL-LI","municipality":"San Vicente De Tagua Tagua","scheduled_service":"no","gps_code":"SCET"},"geometry":{"type":"Point","coordinates":[-71.014168,-34.475555]}},{"id":"39294","type":"Feature","properties":{"ident":"SCTW","type":"small_airport","name":"El Tapihue Airport","elevation_ft":"935","continent":"SA","iso_country":"CL","iso_region":"CL-VS","municipality":"Casablanca","scheduled_service":"no","gps_code":"SCTW"},"geometry":{"type":"Point","coordinates":[-71.336113,-33.320278]}},{"id":"6043","type":"Feature","properties":{"ident":"SCTE","type":"medium_airport","name":"El Tepual Airport","elevation_ft":"294","continent":"SA","iso_country":"CL","iso_region":"CL-LL","municipality":"Puerto Montt","scheduled_service":"yes","gps_code":"SCTE","iata_code":"PMC","wikipedia_link":"https://en.wikipedia.org/wiki/El_Tepual_Airport"},"geometry":{"type":"Point","coordinates":[-73.094002,-41.4389]}},{"id":"32137","type":"Feature","properties":{"ident":"SCOV","type":"small_airport","name":"El Tuqui Airport","elevation_ft":"1100","continent":"SA","iso_country":"CL","iso_region":"CL-CO","municipality":"Ovalle","scheduled_service":"no","gps_code":"SCOV","iata_code":"OVL"},"geometry":{"type":"Point","coordinates":[-71.175598,-30.5592]}},{"id":"39308","type":"Feature","properties":{"ident":"SCVG","type":"small_airport","name":"El Vergel Airport","elevation_ft":"820","continent":"SA","iso_country":"CL","iso_region":"CL-LR","municipality":"Riñihue","scheduled_service":"no","gps_code":"SCVG"},"geometry":{"type":"Point","coordinates":[-72.488297,-39.829399]}},{"id":"39114","type":"Feature","properties":{"ident":"SCCR","type":"small_airport","name":"Enrique Mayer Soto Airport","elevation_ft":"4","continent":"SA","iso_country":"CL","iso_region":"CL-AI","municipality":"Caleta Tortel","scheduled_service":"no","gps_code":"SCCR"},"geometry":{"type":"Point","coordinates":[-73.533028,-47.787079]}},{"id":"39125","type":"Feature","properties":{"ident":"SCEB","type":"small_airport","name":"Entrada Baker Airport","elevation_ft":"1640","continent":"SA","iso_country":"CL","iso_region":"CL-AI","municipality":"Entrada Baker","scheduled_service":"no","gps_code":"SCEB"},"geometry":{"type":"Point","coordinates":[-71.976112,-47.184166]}},{"id":"39133","type":"Feature","properties":{"ident":"SCEY","type":"small_airport","name":"Entrada Mayer Airport","elevation_ft":"1550","continent":"SA","iso_country":"CL","iso_region":"CL-AI","municipality":"Entrada Mayer","scheduled_service":"no","gps_code":"SCEY"},"geometry":{"type":"Point","coordinates":[-72.32759,-48.201452]}},{"id":"39353","type":"Feature","properties":{"ident":"SHEI","type":"heliport","name":"Escuela de Investigaciones Policiales Heliport","elevation_ft":"1608","continent":"SA","iso_country":"CL","iso_region":"CL-RM","municipality":"Santiago","scheduled_service":"no","gps_code":"SHEI"},"geometry":{"type":"Point","coordinates":[-70.716667,-33.459446]}},{"id":"39351","type":"Feature","properties":{"ident":"SHEE","type":"heliport","name":"Esmeralda Heliport","elevation_ft":"574","continent":"SA","iso_country":"CL","iso_region":"CL-ML","municipality":"Yerbas Buenas","scheduled_service":"no","gps_code":"SHEE"},"geometry":{"type":"Point","coordinates":[-71.50972,-35.720001]}},{"id":"39356","type":"Feature","properties":{"ident":"SHES","type":"heliport","name":"Eso Heliport","elevation_ft":"7861","continent":"SA","iso_country":"CL","iso_region":"CL-AN","municipality":"Antofagasta","scheduled_service":"no","gps_code":"SHES"},"geometry":{"type":"Point","coordinates":[-70.38472,-24.638334]}},{"id":"39206","type":"Feature","properties":{"ident":"SCLS","type":"small_airport","name":"Esperanza Airport","elevation_ft":"1230","continent":"SA","iso_country":"CL","iso_region":"CL-AR","municipality":"Lautaro","scheduled_service":"no","gps_code":"SCLS"},"geometry":{"type":"Point","coordinates":[-72.145836,-38.548889]}},{"id":"39234","type":"Feature","properties":{"ident":"SCOA","type":"small_airport","name":"Estancia Los Loros Airport","elevation_ft":"820","continent":"SA","iso_country":"CL","iso_region":"CL-CO","municipality":"Ovalle","scheduled_service":"no","gps_code":"SCOA"},"geometry":{"type":"Point","coordinates":[-71.618332,-30.789444]}},{"id":"39266","type":"Feature","properties":{"ident":"SCRE","type":"small_airport","name":"Estancia Río Cisnes Airport","elevation_ft":"2150","continent":"SA","iso_country":"CL","iso_region":"CL-AI","municipality":"Rio Cisnes","scheduled_service":"no","gps_code":"SCRE"},"geometry":{"type":"Point","coordinates":[-71.321663,-44.5]}},{"id":"39328","type":"Feature","properties":{"ident":"SCZE","type":"small_airport","name":"Estero Seco Airport","elevation_ft":"2461","continent":"SA","iso_country":"CL","iso_region":"CL-RM","municipality":"Pirque","scheduled_service":"no","gps_code":"SCZE"},"geometry":{"type":"Point","coordinates":[-70.549446,-33.744999]}},{"id":"6041","type":"Feature","properties":{"ident":"SCTB","type":"small_airport","name":"Eulogio Sánchez Airport","elevation_ft":"2129","continent":"SA","iso_country":"CL","iso_region":"CL-RM","municipality":"Santiago","scheduled_service":"no","gps_code":"SCTB"},"geometry":{"type":"Point","coordinates":[-70.5467,-33.456299]}},{"id":"39134","type":"Feature","properties":{"ident":"SCFC","type":"small_airport","name":"Fachinal Airport","elevation_ft":"693","continent":"SA","iso_country":"CL","iso_region":"CL-AI","municipality":"Fachinal","scheduled_service":"no","gps_code":"SCFC"},"geometry":{"type":"Point","coordinates":[-72.218714,-46.548343]}},{"id":"32326","type":"Feature","properties":{"ident":"SCSB","type":"small_airport","name":"Franco Bianco Airport","elevation_ft":"104","continent":"SA","iso_country":"CL","iso_region":"CL-MA","municipality":"Cerro Sombrero","scheduled_service":"no","gps_code":"SCSB","iata_code":"SMB"},"geometry":{"type":"Point","coordinates":[-69.333603,-52.736698]}},{"id":"39137","type":"Feature","properties":{"ident":"SCFJ","type":"small_airport","name":"Fray Jorge Airport","elevation_ft":"492","continent":"SA","iso_country":"CL","iso_region":"CL-CO","municipality":"Ovalle","scheduled_service":"no","gps_code":"SCFJ"},"geometry":{"type":"Point","coordinates":[-71.578613,-30.68]}},{"id":"39135","type":"Feature","properties":{"ident":"SCFF","type":"small_airport","name":"Freirina Airport","elevation_ft":"738","continent":"SA","iso_country":"CL","iso_region":"CL-AT","municipality":"Freirina","scheduled_service":"no","gps_code":"SCFF"},"geometry":{"type":"Point","coordinates":[-71.061943,-28.526388]}},{"id":"39140","type":"Feature","properties":{"ident":"SCFR","type":"small_airport","name":"Frutillar Airport","elevation_ft":"469","continent":"SA","iso_country":"CL","iso_region":"CL-LL","municipality":"Frutillar","scheduled_service":"no","gps_code":"SCFR"},"geometry":{"type":"Point","coordinates":[-73.06472,-41.130833]}},{"id":"39138","type":"Feature","properties":{"ident":"SCFK","type":"small_airport","name":"Fundo El Carmen Airport","elevation_ft":"557","continent":"SA","iso_country":"CL","iso_region":"CL-BI","municipality":"Chillan","scheduled_service":"no","gps_code":"SCFK"},"geometry":{"type":"Point","coordinates":[-72.01667,-36.641388]}},{"id":"45065","type":"Feature","properties":{"ident":"SCNA","type":"small_airport","name":"Fundo La Caña Airport","elevation_ft":"525","continent":"SA","iso_country":"CL","iso_region":"CL-ML","municipality":"Linares","scheduled_service":"no","gps_code":"SCNA"},"geometry":{"type":"Point","coordinates":[-71.597222,-35.976389]}},{"id":"29883","type":"Feature","properties":{"ident":"SCFL","type":"small_airport","name":"Fundo Loma Larga Airport","elevation_ft":"869","continent":"SA","iso_country":"CL","iso_region":"CL-VS","municipality":"Casablanca","scheduled_service":"no","gps_code":"SCFL"},"geometry":{"type":"Point","coordinates":[-71.379204,-33.279999]}},{"id":"39136","type":"Feature","properties":{"ident":"SCFI","type":"small_airport","name":"Fundo Tehuén Airport","elevation_ft":"377","continent":"SA","iso_country":"CL","iso_region":"CL-LL","municipality":"Frutillar","scheduled_service":"no","gps_code":"SCFI"},"geometry":{"type":"Point","coordinates":[-73.126663,-41.095001]}},{"id":"6020","type":"Feature","properties":{"ident":"SCFT","type":"small_airport","name":"Futaleufú Airport","elevation_ft":"1148","continent":"SA","iso_country":"CL","iso_region":"CL-LL","municipality":"Futaleufu","scheduled_service":"no","gps_code":"SCFT","iata_code":"FFU"},"geometry":{"type":"Point","coordinates":[-71.851097,-43.189201]}},{"id":"29885","type":"Feature","properties":{"ident":"SCST","type":"small_airport","name":"Gamboa Airport","elevation_ft":"151","continent":"SA","iso_country":"CL","iso_region":"CL-LL","municipality":"Castro","scheduled_service":"no","gps_code":"SCST","iata_code":"WCA"},"geometry":{"type":"Point","coordinates":[-73.772797,-42.490299]}},{"id":"39169","type":"Feature","properties":{"ident":"SCIC","type":"small_airport","name":"General Freire Airport","elevation_ft":"722","continent":"SA","iso_country":"CL","iso_region":"CL-ML","municipality":"Curico","scheduled_service":"no","gps_code":"SCIC"},"geometry":{"type":"Point","coordinates":[-71.216393,-34.966667]}},{"id":"39194","type":"Feature","properties":{"ident":"SCLA","type":"small_airport","name":"General Tovarías Airport","elevation_ft":"699","continent":"SA","iso_country":"CL","iso_region":"CL-AR","municipality":"Lautaro","scheduled_service":"no","gps_code":"SCLA"},"geometry":{"type":"Point","coordinates":[-72.45472,-38.542778]}},{"id":"39361","type":"Feature","properties":{"ident":"SHGE","type":"heliport","name":"Gertrudis Echeñique Heliport","elevation_ft":"2270","continent":"SA","iso_country":"CL","iso_region":"CL-RM","municipality":"Santiago","scheduled_service":"no","gps_code":"SHGE"},"geometry":{"type":"Point","coordinates":[-70.589722,-33.413612]}},{"id":"45060","type":"Feature","properties":{"ident":"SCGF","type":"small_airport","name":"Golfo Azul Airport","elevation_ft":"486","continent":"SA","iso_country":"CL","iso_region":"CL-LR","municipality":"Futrono","scheduled_service":"no","gps_code":"SCGF"},"geometry":{"type":"Point","coordinates":[-72.283611,-40.140833]}},{"id":"6008","type":"Feature","properties":{"ident":"SCCH","type":"medium_airport","name":"Gral. Bernardo O´Higgins Airport","elevation_ft":"495","continent":"SA","iso_country":"CL","iso_region":"CL-BI","municipality":"Chillan","scheduled_service":"no","gps_code":"SCCH","iata_code":"YAI","wikipedia_link":"https://en.wikipedia.org/wiki/General_Bernardo_O'Higgins_Airport"},"geometry":{"type":"Point","coordinates":[-72.031403,-36.5825]}},{"id":"39360","type":"Feature","properties":{"ident":"SHGA","type":"heliport","name":"Gral. Humberto Arriagada Heliport","elevation_ft":"1903","continent":"SA","iso_country":"CL","iso_region":"CL-RM","municipality":"Santiago","scheduled_service":"no","gps_code":"SHGA"},"geometry":{"type":"Point","coordinates":[-70.606941,-33.447498]}},{"id":"39165","type":"Feature","properties":{"ident":"SCHU","type":"small_airport","name":"Gran Cañon Airport","elevation_ft":"230","continent":"SA","iso_country":"CL","iso_region":"CL-AT","municipality":"Huasco","scheduled_service":"no","gps_code":"SCHU"},"geometry":{"type":"Point","coordinates":[-71.146667,-28.098888]}},{"id":"39144","type":"Feature","properties":{"ident":"SCGB","type":"small_airport","name":"Guadaba Airport","elevation_ft":"272","continent":"SA","iso_country":"CL","iso_region":"CL-AR","municipality":"Los Sauces","scheduled_service":"no","gps_code":"SCGB"},"geometry":{"type":"Point","coordinates":[-72.929443,-37.977779]}},{"id":"6023","type":"Feature","properties":{"ident":"SCGZ","type":"medium_airport","name":"Guardiamarina Zañartu Airport","elevation_ft":"88","continent":"SA","iso_country":"CL","iso_region":"CL-MA","municipality":"Puerto Williams","scheduled_service":"no","gps_code":"SCGZ","iata_code":"WPU","keywords":"Ensign Zañartu"},"geometry":{"type":"Point","coordinates":[-67.626297,-54.931099]}},{"id":"39159","type":"Feature","properties":{"ident":"SCHL","type":"small_airport","name":"Hacienda Lipangue Airport","elevation_ft":"1745","continent":"SA","iso_country":"CL","iso_region":"CL-RM","municipality":"Lampa","scheduled_service":"no","gps_code":"SCHL"},"geometry":{"type":"Point","coordinates":[-70.91111,-33.335278]}},{"id":"39363","type":"Feature","properties":{"ident":"SHHE","type":"heliport","name":"Helicopters Heliport","elevation_ft":"1837","continent":"SA","iso_country":"CL","iso_region":"CL-LI","municipality":"Machali","scheduled_service":"no","gps_code":"SHHE"},"geometry":{"type":"Point","coordinates":[-70.715836,-34.210556]}},{"id":"39362","type":"Feature","properties":{"ident":"SHHC","type":"heliport","name":"Hospital Clínico Regional de Concepción Heliport","elevation_ft":"151","continent":"SA","iso_country":"CL","iso_region":"CL-BI","municipality":"Concepcion","scheduled_service":"no","gps_code":"SHHC"},"geometry":{"type":"Point","coordinates":[-73.035004,-36.820835]}},{"id":"39365","type":"Feature","properties":{"ident":"SHHI","type":"heliport","name":"Hospital de Carabineros Heliport","elevation_ft":"2426","continent":"SA","iso_country":"CL","iso_region":"CL-RM","municipality":"Santiago","scheduled_service":"no","gps_code":"SHHI","keywords":"DIPRECA, Hospital del Imponente"},"geometry":{"type":"Point","coordinates":[-70.528879,-33.417763]}},{"id":"39345","type":"Feature","properties":{"ident":"SHCY","type":"heliport","name":"Hospital de Coyhaique Heliport","elevation_ft":"915","continent":"SA","iso_country":"CL","iso_region":"CL-AI","municipality":"Coyhaique","scheduled_service":"no","gps_code":"SHCY"},"geometry":{"type":"Point","coordinates":[-72.075554,-45.56889]}},{"id":"348809","type":"Feature","properties":{"ident":"SHAO","type":"heliport","name":"Hospital de Ovalle Heliport","elevation_ft":"1033","continent":"SA","iso_country":"CL","iso_region":"CL-CO","municipality":"Ovalle","scheduled_service":"no","gps_code":"SHAO","keywords":"http://www.airmate.aero/php/airport_page.php?page=airport_page&code=SHAO"},"geometry":{"type":"Point","coordinates":[-71.191728,-30.578565]}},{"id":"39370","type":"Feature","properties":{"ident":"SHHS","type":"heliport","name":"Hospital del Salvador Heliport","elevation_ft":"1910","continent":"SA","iso_country":"CL","iso_region":"CL-RM","municipality":"Santiago","scheduled_service":"no","gps_code":"SHHS"},"geometry":{"type":"Point","coordinates":[-70.621109,-33.436111]}},{"id":"39402","type":"Feature","properties":{"ident":"SHSO","type":"heliport","name":"Hospital Dr Luis Tisné Brousse Helipad","elevation_ft":"2083","continent":"SA","iso_country":"CL","iso_region":"CL-RM","municipality":"Santiago","scheduled_service":"no","gps_code":"SHSO","home_link":"http://www.hsoriente.cl/","keywords":"Hospital Santiago Oriente"},"geometry":{"type":"Point","coordinates":[-70.57894,-33.500187]}},{"id":"39364","type":"Feature","properties":{"ident":"SHHF","type":"heliport","name":"Hospital FACH Heliport","elevation_ft":"2574","continent":"SA","iso_country":"CL","iso_region":"CL-RM","municipality":"Santiago","scheduled_service":"no","gps_code":"SHHF"},"geometry":{"type":"Point","coordinates":[-70.545874,-33.397124]}},{"id":"39367","type":"Feature","properties":{"ident":"SHHM","type":"heliport","name":"Hospital Militar Heliport","elevation_ft":"2067","continent":"SA","iso_country":"CL","iso_region":"CL-RM","municipality":"Santiago","scheduled_service":"no","gps_code":"SHHM"},"geometry":{"type":"Point","coordinates":[-70.603333,-33.415279]}},{"id":"39368","type":"Feature","properties":{"ident":"SHHN","type":"heliport","name":"Hospital Naval Almirante Nef Heliport","elevation_ft":"200","continent":"SA","iso_country":"CL","iso_region":"CL-VS","municipality":"Viña Del Mar","scheduled_service":"no","gps_code":"SHHN"},"geometry":{"type":"Point","coordinates":[-71.535835,-33.996666]}},{"id":"39335","type":"Feature","properties":{"ident":"SHBL","type":"heliport","name":"Hospital Ramón Barros Luco Heliport","elevation_ft":"1805","continent":"SA","iso_country":"CL","iso_region":"CL-RM","municipality":"Santiago","scheduled_service":"no","gps_code":"SHBL"},"geometry":{"type":"Point","coordinates":[-70.644447,-33.485279]}},{"id":"348844","type":"Feature","properties":{"ident":"SHSN","type":"heliport","name":"Hospital Regional de Copiapó San José del Carmen Helipad","elevation_ft":"1404","continent":"SA","iso_country":"CL","iso_region":"CL-AT","municipality":"Copiapó","scheduled_service":"no","gps_code":"SHSN"},"geometry":{"type":"Point","coordinates":[-70.322049,-27.373597]}},{"id":"39404","type":"Feature","properties":{"ident":"SHSS","type":"heliport","name":"Hospital Regional de Temuco Heliport","elevation_ft":"410","continent":"SA","iso_country":"CL","iso_region":"CL-AR","municipality":"Temuco","scheduled_service":"no","gps_code":"SHSS"},"geometry":{"type":"Point","coordinates":[-72.598335,-38.735832]}},{"id":"39358","type":"Feature","properties":{"ident":"SHFE","type":"heliport","name":"Hospital San Camilo Heliport","elevation_ft":"2155","continent":"SA","iso_country":"CL","iso_region":"CL-VS","municipality":"San Felipe","scheduled_service":"no","gps_code":"SHFE"},"geometry":{"type":"Point","coordinates":[-70.709999,-32.748333]}},{"id":"348845","type":"Feature","properties":{"ident":"SHSJ","type":"heliport","name":"Hospital San José Helipad","elevation_ft":"303","continent":"SA","iso_country":"CL","iso_region":"CL-LL","municipality":"Osorno","scheduled_service":"no","gps_code":"SHSJ"},"geometry":{"type":"Point","coordinates":[-73.127543,-40.58905]}},{"id":"39373","type":"Feature","properties":{"ident":"SHJO","type":"heliport","name":"Hospital San José Heliport","elevation_ft":"1868","continent":"SA","iso_country":"CL","iso_region":"CL-RM","municipality":"Santiago","scheduled_service":"no","gps_code":"SHJO"},"geometry":{"type":"Point","coordinates":[-70.652222,-33.408611]}},{"id":"39304","type":"Feature","properties":{"ident":"SCVB","type":"small_airport","name":"Hospital Villa Baviera Airport","elevation_ft":"1040","continent":"SA","iso_country":"CL","iso_region":"CL-ML","municipality":"Parral","scheduled_service":"no","gps_code":"SCVB"},"geometry":{"type":"Point","coordinates":[-71.563332,-36.400276]}},{"id":"39166","type":"Feature","properties":{"ident":"SCHW","type":"small_airport","name":"Hualaihué Airport","elevation_ft":"30","continent":"SA","iso_country":"CL","iso_region":"CL-LL","municipality":"Hualaihue","scheduled_service":"no","gps_code":"SCHW"},"geometry":{"type":"Point","coordinates":[-72.689445,-42.02861]}},{"id":"32273","type":"Feature","properties":{"ident":"SCVN","type":"small_airport","name":"Huancara Airport","elevation_ft":"1968","continent":"SA","iso_country":"CL","iso_region":"CL-CO","municipality":"Vicuña","scheduled_service":"no","gps_code":"SCVN"},"geometry":{"type":"Point","coordinates":[-70.742083,-30.032615]}},{"id":"39240","type":"Feature","properties":{"ident":"SCOY","type":"small_airport","name":"Huayanay Airport","elevation_ft":"164","continent":"SA","iso_country":"CL","iso_region":"CL-CO","municipality":"Ovalle","scheduled_service":"no","gps_code":"SCOY"},"geometry":{"type":"Point","coordinates":[-71.532219,-30.430555]}},{"id":"39158","type":"Feature","properties":{"ident":"SCHK","type":"small_airport","name":"Hueicolla Airport","elevation_ft":"59","continent":"SA","iso_country":"CL","iso_region":"CL-LR","municipality":"La Union","scheduled_service":"no","gps_code":"SCHK"},"geometry":{"type":"Point","coordinates":[-73.654404,-40.1586]}},{"id":"39257","type":"Feature","properties":{"ident":"SCQI","type":"small_airport","name":"Icalma Airport","elevation_ft":"3806","continent":"SA","iso_country":"CL","iso_region":"CL-AR","municipality":"Lonquimay","scheduled_service":"no","gps_code":"SCMC","wikipedia_link":"https://en.wikipedia.org/wiki/Icalma_Airport","keywords":"SCQI"},"geometry":{"type":"Point","coordinates":[-71.218067,-38.733339]}},{"id":"45090","type":"Feature","properties":{"ident":"SHIS","type":"heliport","name":"Isidora 3000 Heliport","elevation_ft":"2510","continent":"SA","iso_country":"CL","iso_region":"CL-RM","municipality":"Las Condes","scheduled_service":"no","gps_code":"SHIS"},"geometry":{"type":"Point","coordinates":[-70.598112,-33.414011]}},{"id":"39167","type":"Feature","properties":{"ident":"SCIA","type":"small_airport","name":"Isla Apiao Airport","elevation_ft":"250","continent":"SA","iso_country":"CL","iso_region":"CL-LL","municipality":"Isla Apiao","scheduled_service":"no","gps_code":"SCIA"},"geometry":{"type":"Point","coordinates":[-73.212219,-42.599724]}},{"id":"29980","type":"Feature","properties":{"ident":"SCIM","type":"small_airport","name":"Isla Mocha Airport","elevation_ft":"52","continent":"SA","iso_country":"CL","iso_region":"CL-BI","municipality":"Isla Mocha","scheduled_service":"no","gps_code":"SCIM"},"geometry":{"type":"Point","coordinates":[-73.868896,-38.384998]}},{"id":"6021","type":"Feature","properties":{"ident":"SCFX","type":"small_airport","name":"Isla San Felix Airport","elevation_ft":"165","continent":"SA","iso_country":"CL","iso_region":"CL-AT","municipality":"Isla San Felix","scheduled_service":"no","gps_code":"SCFX"},"geometry":{"type":"Point","coordinates":[-80.096199,-26.2939]}},{"id":"39174","type":"Feature","properties":{"ident":"SCIK","type":"small_airport","name":"Isla Talcan Airport","elevation_ft":"45","continent":"SA","iso_country":"CL","iso_region":"CL-LL","municipality":"Isla Talcan","scheduled_service":"no","gps_code":"SCIK"},"geometry":{"type":"Point","coordinates":[-72.966861,-42.744357]}},{"id":"39177","type":"Feature","properties":{"ident":"SCIT","type":"small_airport","name":"Iván Martinez Airport","elevation_ft":"144","continent":"SA","iso_country":"CL","iso_region":"CL-MA","municipality":"Isla Tierra Del Fuego","scheduled_service":"no","gps_code":"SCIT"},"geometry":{"type":"Point","coordinates":[-70.032799,-52.955002]}},{"id":"39178","type":"Feature","properties":{"ident":"SCJC","type":"small_airport","name":"James Conrad Airport","elevation_ft":"528","continent":"SA","iso_country":"CL","iso_region":"CL-BI","municipality":"Ranguelmo","scheduled_service":"no","gps_code":"SCJC"},"geometry":{"type":"Point","coordinates":[-72.773331,-36.581112]}},{"id":"45092","type":"Feature","properties":{"ident":"SHRE","type":"heliport","name":"Jose Miguel Carrera Heliport","elevation_ft":"2034","continent":"SA","iso_country":"CL","iso_region":"CL-RM","municipality":"Santiago","scheduled_service":"no","gps_code":"SHRE"},"geometry":{"type":"Point","coordinates":[-70.655,-33.441389]}},{"id":"525314","type":"Feature","properties":{"ident":"SCJS","type":"small_airport","name":"José Abel Sepúlveda Aerodrome","elevation_ft":"486","continent":"SA","iso_country":"CL","iso_region":"CL-BI","scheduled_service":"no","gps_code":"SCJS"},"geometry":{"type":"Point","coordinates":[-72.05951,-36.234129]}},{"id":"32257","type":"Feature","properties":{"ident":"SCAU","type":"small_airport","name":"Juan Enrique Airport","elevation_ft":"1263","continent":"SA","iso_country":"CL","iso_region":"CL-RM","municipality":"Paine","scheduled_service":"no","gps_code":"SCAU"},"geometry":{"type":"Point","coordinates":[-70.885597,-33.8936]}},{"id":"39179","type":"Feature","properties":{"ident":"SCJK","type":"small_airport","name":"Juan Kemp Airport","elevation_ft":"459","continent":"SA","iso_country":"CL","iso_region":"CL-LL","municipality":"Osorno","scheduled_service":"no","gps_code":"SCJK"},"geometry":{"type":"Point","coordinates":[-72.368889,-40.884445]}},{"id":"39374","type":"Feature","properties":{"ident":"SHKI","type":"heliport","name":"Kipreos Heliport","elevation_ft":"1575","continent":"SA","iso_country":"CL","iso_region":"CL-RM","municipality":"Santiago","scheduled_service":"no","gps_code":"SHKI"},"geometry":{"type":"Point","coordinates":[-70.744446,-33.560276]}},{"id":"39197","type":"Feature","properties":{"ident":"SCLG","type":"small_airport","name":"La Aguada Airport","elevation_ft":"246","continent":"SA","iso_country":"CL","iso_region":"CL-ML","municipality":"Pencahue","scheduled_service":"no","gps_code":"SCLG"},"geometry":{"type":"Point","coordinates":[-71.776947,-35.342777]}},{"id":"314783","type":"Feature","properties":{"ident":"SCQP","type":"medium_airport","name":"La Araucanía Airport","elevation_ft":"333","continent":"SA","iso_country":"CL","iso_region":"CL-AR","municipality":"Temuco","scheduled_service":"yes","gps_code":"SCQP","iata_code":"ZCO","wikipedia_link":"https://en.wikipedia.org/wiki/La_Araucan%C3%ADa_International_Airport"},"geometry":{"type":"Point","coordinates":[-72.6515,-38.9259]}},{"id":"39333","type":"Feature","properties":{"ident":"SHAU","type":"heliport","name":"La Aurora Heliport","elevation_ft":"696","continent":"SA","iso_country":"CL","iso_region":"CL-RM","municipality":"Curacavi","scheduled_service":"no","gps_code":"SHAU"},"geometry":{"type":"Point","coordinates":[-71.023056,-33.425278]}},{"id":"332837","type":"Feature","properties":{"ident":"SHME","type":"heliport","name":"La Cabaña Heliport","elevation_ft":"59","continent":"SA","iso_country":"CL","iso_region":"CL-RM","municipality":"San Pedro","scheduled_service":"no","gps_code":"SHME"},"geometry":{"type":"Point","coordinates":[-71.388481,-33.974615]}},{"id":"39324","type":"Feature","properties":{"ident":"SCYC","type":"small_airport","name":"La Capilla Airport","elevation_ft":"485","continent":"SA","iso_country":"CL","iso_region":"CL-LL","municipality":"Puyehue","scheduled_service":"no","gps_code":"SCYC"},"geometry":{"type":"Point","coordinates":[-72.762222,-40.627777]}},{"id":"39187","type":"Feature","properties":{"ident":"SCKK","type":"small_airport","name":"La Cascada Airport","elevation_ft":"1804","continent":"SA","iso_country":"CL","iso_region":"CL-ML","municipality":"Molina","scheduled_service":"no","gps_code":"SCKK"},"geometry":{"type":"Point","coordinates":[-71.106667,-35.384998]}},{"id":"39255","type":"Feature","properties":{"ident":"SCQC","type":"small_airport","name":"La Colmena Airport","elevation_ft":"823","continent":"SA","iso_country":"CL","iso_region":"CL-AR","municipality":"Quino","scheduled_service":"no","gps_code":"SCQC"},"geometry":{"type":"Point","coordinates":[-72.586945,-38.333057]}},{"id":"32263","type":"Feature","properties":{"ident":"SCLE","type":"small_airport","name":"La Escondida Airport","elevation_ft":"10289","continent":"SA","iso_country":"CL","iso_region":"CL-AN","municipality":"Antofagasta","scheduled_service":"no","gps_code":"SCLE"},"geometry":{"type":"Point","coordinates":[-69.131699,-24.294701]}},{"id":"39215","type":"Feature","properties":{"ident":"SCMH","type":"small_airport","name":"La Esperanza Airport","elevation_ft":"540","continent":"SA","iso_country":"CL","iso_region":"CL-LI","municipality":"Marchigue","scheduled_service":"no","gps_code":"SCMH"},"geometry":{"type":"Point","coordinates":[-71.558334,-34.287224]}},{"id":"39270","type":"Feature","properties":{"ident":"SCRL","type":"small_airport","name":"La Estrella Airport","elevation_ft":"397","continent":"SA","iso_country":"CL","iso_region":"CL-LI","municipality":"Rapel","scheduled_service":"no","gps_code":"SCRL"},"geometry":{"type":"Point","coordinates":[-71.481667,-34.201111]}},{"id":"6040","type":"Feature","properties":{"ident":"SCSE","type":"medium_airport","name":"La Florida Airport","elevation_ft":"481","continent":"SA","iso_country":"CL","iso_region":"CL-CO","municipality":"La Serena-Coquimbo","scheduled_service":"yes","gps_code":"SCSE","iata_code":"LSC","wikipedia_link":"https://en.wikipedia.org/wiki/La_Florida_Airport_(Chile)","keywords":"COW"},"geometry":{"type":"Point","coordinates":[-71.199501,-29.916201]}},{"id":"6038","type":"Feature","properties":{"ident":"SCRG","type":"medium_airport","name":"La Independencia Airport","elevation_ft":"1446","continent":"SA","iso_country":"CL","iso_region":"CL-LI","municipality":"Rancagua","scheduled_service":"no","gps_code":"SCRG","home_link":"https://www.dgac.gob.cl/aerodromo-la-independencia-entra-en-funcionamiento/","wikipedia_link":"https://en.wikipedia.org/wiki/Rancagua_de_la_Independencia_Airport","keywords":"QRC"},"geometry":{"type":"Point","coordinates":[-70.775703,-34.173698]}},{"id":"39199","type":"Feature","properties":{"ident":"SCLJ","type":"small_airport","name":"La Junta Airport","elevation_ft":"120","continent":"SA","iso_country":"CL","iso_region":"CL-AI","municipality":"La Junta","scheduled_service":"no","gps_code":"SCLJ"},"geometry":{"type":"Point","coordinates":[-72.413055,-43.975277]}},{"id":"39207","type":"Feature","properties":{"ident":"SCLU","type":"small_airport","name":"La Laguna Airport","elevation_ft":"528","continent":"SA","iso_country":"CL","iso_region":"CL-LI","municipality":"Marchigue","scheduled_service":"no","gps_code":"SCLU"},"geometry":{"type":"Point","coordinates":[-71.663887,-34.352501]}},{"id":"39289","type":"Feature","properties":{"ident":"SCTM","type":"small_airport","name":"La Montaña Airport","elevation_ft":"1969","continent":"SA","iso_country":"CL","iso_region":"CL-ML","municipality":"Curico","scheduled_service":"no","gps_code":"SCTM"},"geometry":{"type":"Point","coordinates":[-70.9333,-34.9689]}},{"id":"39297","type":"Feature","properties":{"ident":"SCUM","type":"small_airport","name":"La Obra Airport","elevation_ft":"673","continent":"SA","iso_country":"CL","iso_region":"CL-ML","municipality":"Cumpeo","scheduled_service":"no","gps_code":"SCUM"},"geometry":{"type":"Point","coordinates":[-71.330276,-35.300556]}},{"id":"39377","type":"Feature","properties":{"ident":"SHLP","type":"heliport","name":"La Parva Heliport","elevation_ft":"9080","continent":"SA","iso_country":"CL","iso_region":"CL-RM","municipality":"Farellones","scheduled_service":"no","gps_code":"SHLP"},"geometry":{"type":"Point","coordinates":[-70.283333,-33.328888]}},{"id":"39109","type":"Feature","properties":{"ident":"SCCG","type":"small_airport","name":"La Pelícana Airport","elevation_ft":"2790","continent":"SA","iso_country":"CL","iso_region":"CL-CO","municipality":"Combarbala","scheduled_service":"no","gps_code":"SCCG"},"geometry":{"type":"Point","coordinates":[-70.954445,-31.063889]}},{"id":"39209","type":"Feature","properties":{"ident":"SCLY","type":"small_airport","name":"La Playa Airport","elevation_ft":"32","continent":"SA","iso_country":"CL","iso_region":"CL-BI","municipality":"Arauco","scheduled_service":"no","gps_code":"SCLY"},"geometry":{"type":"Point","coordinates":[-73.233055,-37.216389]}},{"id":"45071","type":"Feature","properties":{"ident":"SCPT","type":"small_airport","name":"La Puerta Airport","elevation_ft":"509","continent":"SA","iso_country":"CL","iso_region":"CL-LI","municipality":"Santa Cruz","scheduled_service":"no","gps_code":"SCPT"},"geometry":{"type":"Point","coordinates":[-71.375833,-34.613056]}},{"id":"39139","type":"Feature","properties":{"ident":"SCFO","type":"small_airport","name":"La Reforma Airport","elevation_ft":"853","continent":"SA","iso_country":"CL","iso_region":"CL-ML","municipality":"Pelarco","scheduled_service":"no","gps_code":"SCFO"},"geometry":{"type":"Point","coordinates":[-71.281113,-35.458057]}},{"id":"45075","type":"Feature","properties":{"ident":"SCRV","type":"small_airport","name":"La Verónica Airport","elevation_ft":"1280","continent":"SA","iso_country":"CL","iso_region":"CL-AR","municipality":"Vilcún","scheduled_service":"no","gps_code":"SCRV"},"geometry":{"type":"Point","coordinates":[-72.128889,-38.611389]}},{"id":"39309","type":"Feature","properties":{"ident":"SCVH","type":"small_airport","name":"La Victoria de Chacabuco Airport","elevation_ft":"2139","continent":"SA","iso_country":"CL","iso_region":"CL-RM","municipality":"Santiago","scheduled_service":"no","gps_code":"SCVH"},"geometry":{"type":"Point","coordinates":[-70.708885,-33.050835]}},{"id":"39208","type":"Feature","properties":{"ident":"SCLV","type":"small_airport","name":"La Viña Airport","elevation_ft":"870","continent":"SA","iso_country":"CL","iso_region":"CL-CO","municipality":"Guangali","scheduled_service":"no","gps_code":"SCLV"},"geometry":{"type":"Point","coordinates":[-71.398056,-32.138054]}},{"id":"39103","type":"Feature","properties":{"ident":"SCBR","type":"small_airport","name":"Lago Brown Airport","elevation_ft":"540","continent":"SA","iso_country":"CL","iso_region":"CL-AI","municipality":"Lago Brown","scheduled_service":"no","gps_code":"SCBR"},"geometry":{"type":"Point","coordinates":[-72.317497,-47.391945]}},{"id":"39200","type":"Feature","properties":{"ident":"SCLK","type":"small_airport","name":"Lago Colico Airport","elevation_ft":"1148","continent":"SA","iso_country":"CL","iso_region":"CL-AR","municipality":"Cunco","scheduled_service":"no","gps_code":"SCLK"},"geometry":{"type":"Point","coordinates":[-72.074165,-39.057499]}},{"id":"348808","type":"Feature","properties":{"ident":"SHPM","type":"heliport","name":"Lago La Paloma Heliport","elevation_ft":"351","continent":"SA","iso_country":"CL","iso_region":"CL-AI","municipality":"Coyahique","scheduled_service":"no","gps_code":"SHPM"},"geometry":{"type":"Point","coordinates":[-72.146251,-45.922804]}},{"id":"39315","type":"Feature","properties":{"ident":"SCVS","type":"small_airport","name":"Lago Vargas Airport","elevation_ft":"56","continent":"SA","iso_country":"CL","iso_region":"CL-AI","municipality":"Cochrane","scheduled_service":"no","gps_code":"SCVS"},"geometry":{"type":"Point","coordinates":[-73.071039,-47.679513]}},{"id":"39306","type":"Feature","properties":{"ident":"SCVE","type":"small_airport","name":"Lago Verde Airport","elevation_ft":"1020","continent":"SA","iso_country":"CL","iso_region":"CL-AI","municipality":"Lago Verde","scheduled_service":"no","gps_code":"SCVE"},"geometry":{"type":"Point","coordinates":[-71.916664,-44.270832]}},{"id":"39175","type":"Feature","properties":{"ident":"SCIO","type":"small_airport","name":"Laguna Redonda Airport","elevation_ft":"1970","continent":"SA","iso_country":"CL","iso_region":"CL-AI","municipality":"Villa O'Higgins","scheduled_service":"no","gps_code":"SCIO"},"geometry":{"type":"Point","coordinates":[-72.799614,-48.933578]}},{"id":"39267","type":"Feature","properties":{"ident":"SCRF","type":"small_airport","name":"Laguna San Rafael Airport","elevation_ft":"20","continent":"SA","iso_country":"CL","iso_region":"CL-AI","municipality":"Laguna San Rafael","scheduled_service":"no","gps_code":"SCRF"},"geometry":{"type":"Point","coordinates":[-73.849998,-46.638889]}},{"id":"39376","type":"Feature","properties":{"ident":"SHLC","type":"heliport","name":"Lan Courier Heliport","elevation_ft":"1565","continent":"SA","iso_country":"CL","iso_region":"CL-RM","municipality":"Santiago","scheduled_service":"no","gps_code":"SHLC"},"geometry":{"type":"Point","coordinates":[-70.750556,-33.38389]}},{"id":"39147","type":"Feature","properties":{"ident":"SCGL","type":"small_airport","name":"Las Aguilas Airport","elevation_ft":"450","continent":"SA","iso_country":"CL","iso_region":"CL-LI","municipality":"Rapel","scheduled_service":"no","gps_code":"SCGL"},"geometry":{"type":"Point","coordinates":[-71.531113,-34.169167]}},{"id":"45063","type":"Feature","properties":{"ident":"SCMR","type":"small_airport","name":"Las Aguilas Oriente Airport","elevation_ft":"450","continent":"SA","iso_country":"CL","iso_region":"CL-LI","municipality":"Rapel","scheduled_service":"no","gps_code":"SCMR"},"geometry":{"type":"Point","coordinates":[-71.531111,-34.169167]}},{"id":"39091","type":"Feature","properties":{"ident":"SCAJ","type":"small_airport","name":"Las Alpacas Airport","elevation_ft":"550","continent":"SA","iso_country":"CL","iso_region":"CL-ML","municipality":"Retiro","scheduled_service":"no","gps_code":"SCAJ"},"geometry":{"type":"Point","coordinates":[-71.763054,-36.145279]}},{"id":"39375","type":"Feature","properties":{"ident":"SHLA","type":"heliport","name":"Las Americas Heliport","elevation_ft":"2126","continent":"SA","iso_country":"CL","iso_region":"CL-RM","municipality":"Santiago","scheduled_service":"no","gps_code":"SHLA"},"geometry":{"type":"Point","coordinates":[-70.643333,-33.435833]}},{"id":"39235","type":"Feature","properties":{"ident":"SCOC","type":"small_airport","name":"Las Araucarias Airport","elevation_ft":"600","continent":"SA","iso_country":"CL","iso_region":"CL-LL","municipality":"Puerto Octay","scheduled_service":"no","gps_code":"SCOC"},"geometry":{"type":"Point","coordinates":[-72.659721,-40.993057]}},{"id":"39322","type":"Feature","properties":{"ident":"SCXR","type":"small_airport","name":"Las Bandurrias Airport","elevation_ft":"328","continent":"SA","iso_country":"CL","iso_region":"CL-LR","municipality":"Lago Ranco","scheduled_service":"no","gps_code":"SCXR"},"geometry":{"type":"Point","coordinates":[-72.224998,-40.32]}},{"id":"6047","type":"Feature","properties":{"ident":"SCTT","type":"medium_airport","name":"Las Breas Airport","elevation_ft":"2580","continent":"SA","iso_country":"CL","iso_region":"CL-AN","municipality":"Taltal","scheduled_service":"no","gps_code":"SCTT","iata_code":"TTC"},"geometry":{"type":"Point","coordinates":[-70.3759,-25.564301]}},{"id":"45086","type":"Feature","properties":{"ident":"SHBC","type":"heliport","name":"Las Brisas De Chicureo Heliport","elevation_ft":"1175","continent":"SA","iso_country":"CL","iso_region":"CL-RM","municipality":"Santiago","scheduled_service":"no","gps_code":"SHBC"},"geometry":{"type":"Point","coordinates":[-70.696111,-33.239722]}},{"id":"39321","type":"Feature","properties":{"ident":"SCXB","type":"small_airport","name":"Las Brujas Airport","elevation_ft":"1483","continent":"SA","iso_country":"CL","iso_region":"CL-CO","municipality":"Salamanca","scheduled_service":"no","gps_code":"SCXB"},"geometry":{"type":"Point","coordinates":[-71.011108,-31.786667]}},{"id":"39366","type":"Feature","properties":{"ident":"SHHL","type":"heliport","name":"Las Condes Heliport","continent":"SA","iso_country":"CL","iso_region":"CL-RM","municipality":"Santiago","scheduled_service":"no","gps_code":"SHHL"},"geometry":{"type":"Point","coordinates":[-70.524399,-33.373299]}},{"id":"6049","type":"Feature","properties":{"ident":"SCVL","type":"small_airport","name":"Las Marías Airport","elevation_ft":"13","continent":"SA","iso_country":"CL","iso_region":"CL-LR","municipality":"Valdivia","scheduled_service":"yes","gps_code":"SCVL","wikipedia_link":"https://en.wikipedia.org/wiki/Las_Marias_Airport"},"geometry":{"type":"Point","coordinates":[-73.241699,-39.796902]}},{"id":"39201","type":"Feature","properties":{"ident":"SCLM","type":"small_airport","name":"Las Mercedes Airport","elevation_ft":"246","continent":"SA","iso_country":"CL","iso_region":"CL-ML","municipality":"San Javier","scheduled_service":"no","gps_code":"SCLM"},"geometry":{"type":"Point","coordinates":[-71.880836,-35.5]}},{"id":"39229","type":"Feature","properties":{"ident":"SCNM","type":"small_airport","name":"Las Misiones Airport","elevation_ft":"252","continent":"SA","iso_country":"CL","iso_region":"CL-BI","municipality":"Cañete","scheduled_service":"no","gps_code":"SCNM","wikipedia_link":"https://en.wikipedia.org/wiki/Las_Misiones_Airport"},"geometry":{"type":"Point","coordinates":[-73.383614,-37.776112]}},{"id":"45064","type":"Feature","properties":{"ident":"SCMS","type":"small_airport","name":"Las Moras Airport","elevation_ft":"512","continent":"SA","iso_country":"CL","iso_region":"CL-ML","municipality":"Longavi","scheduled_service":"no","gps_code":"SCMS"},"geometry":{"type":"Point","coordinates":[-71.594444,-36.010278]}},{"id":"39260","type":"Feature","properties":{"ident":"SCQM","type":"small_airport","name":"Las Quemas Airport","elevation_ft":"250","continent":"SA","iso_country":"CL","iso_region":"CL-LL","municipality":"Osorno","scheduled_service":"no","gps_code":"SCQM","wikipedia_link":"https://en.wikipedia.org/wiki/Osorno_Airport"},"geometry":{"type":"Point","coordinates":[-73.127792,-40.638332]}},{"id":"39378","type":"Feature","properties":{"ident":"SHLS","type":"heliport","name":"Las Salinas Heliport","elevation_ft":"10","continent":"SA","iso_country":"CL","iso_region":"CL-VS","municipality":"Viña Del Mar","scheduled_service":"no","gps_code":"SHLS"},"geometry":{"type":"Point","coordinates":[-71.547226,-32.995834]}},{"id":"6035","type":"Feature","properties":{"ident":"SCQT","type":"small_airport","name":"LasTacas Airport","elevation_ft":"140","continent":"SA","iso_country":"CL","iso_region":"CL-CO","municipality":"Quebrada Las Tacas","scheduled_service":"no","gps_code":"SCQT"},"geometry":{"type":"Point","coordinates":[-71.364098,-30.096399]}},{"id":"39202","type":"Feature","properties":{"ident":"SCLO","type":"small_airport","name":"Leones Airport","elevation_ft":"705","continent":"SA","iso_country":"CL","iso_region":"CL-AI","municipality":"Chile Chico","scheduled_service":"no","gps_code":"SCLO"},"geometry":{"type":"Point","coordinates":[-72.818336,-46.765556]}},{"id":"39258","type":"Feature","properties":{"ident":"SCQK","type":"small_airport","name":"Lequecahue Airport","elevation_ft":"220","continent":"SA","iso_country":"CL","iso_region":"CL-BI","municipality":"Tirua","scheduled_service":"no","gps_code":"SCQK"},"geometry":{"type":"Point","coordinates":[-73.48978,-38.362655]}},{"id":"39190","type":"Feature","properties":{"ident":"SCKN","type":"small_airport","name":"Licancel Airport","elevation_ft":"59","continent":"SA","iso_country":"CL","iso_region":"CL-ML","municipality":"Licanten","scheduled_service":"no","gps_code":"SCKN"},"geometry":{"type":"Point","coordinates":[-72.01889,-34.989166]}},{"id":"39325","type":"Feature","properties":{"ident":"SCYL","type":"small_airport","name":"Licán Airport","elevation_ft":"625","continent":"SA","iso_country":"CL","iso_region":"CL-LR","municipality":"Puyehue","scheduled_service":"no","gps_code":"SCYL"},"geometry":{"type":"Point","coordinates":[-72.411102,-40.641399]}},{"id":"6031","type":"Feature","properties":{"ident":"SCNT","type":"medium_airport","name":"Lieutenant Julio Gallardo Airport","elevation_ft":"217","continent":"SA","iso_country":"CL","iso_region":"CL-MA","municipality":"Puerto Natales","scheduled_service":"yes","gps_code":"SCNT","iata_code":"PNT"},"geometry":{"type":"Point","coordinates":[-72.529078,-51.67067]}},{"id":"39188","type":"Feature","properties":{"ident":"SCKL","type":"small_airport","name":"Lipangui Airport","elevation_ft":"1558","continent":"SA","iso_country":"CL","iso_region":"CL-RM","municipality":"Lampa","scheduled_service":"no","gps_code":"SCKL"},"geometry":{"type":"Point","coordinates":[-70.849998,-33.331112]}},{"id":"39293","type":"Feature","properties":{"ident":"SCTU","type":"small_airport","name":"Litueche Airport","elevation_ft":"787","continent":"SA","iso_country":"CL","iso_region":"CL-LI","municipality":"Litueche","scheduled_service":"no","gps_code":"SCTU"},"geometry":{"type":"Point","coordinates":[-71.715836,-34.110554]}},{"id":"30081","type":"Feature","properties":{"ident":"SCLD","type":"small_airport","name":"Llanada Grande Airport","elevation_ft":"1001","continent":"SA","iso_country":"CL","iso_region":"CL-LL","municipality":"Llanada Grande","scheduled_service":"no","gps_code":"SCLD"},"geometry":{"type":"Point","coordinates":[-71.934402,-41.866699]}},{"id":"39182","type":"Feature","properties":{"ident":"SCKB","type":"small_airport","name":"Llollenorte Airport","elevation_ft":"1641","continent":"SA","iso_country":"CL","iso_region":"CL-AR","municipality":"Lago Caburga","scheduled_service":"no","gps_code":"SCKB"},"geometry":{"type":"Point","coordinates":[-71.68972,-39.057499]}},{"id":"39387","type":"Feature","properties":{"ident":"SHOV","type":"heliport","name":"Lo Ovalle Heliport","elevation_ft":"919","continent":"SA","iso_country":"CL","iso_region":"CL-VS","municipality":"Casablanca","scheduled_service":"no","gps_code":"SHOV"},"geometry":{"type":"Point","coordinates":[-71.368332,-33.250832]}},{"id":"39116","type":"Feature","properties":{"ident":"SCCU","type":"small_airport","name":"Lolco Airport","elevation_ft":"2132","continent":"SA","iso_country":"CL","iso_region":"CL-AR","municipality":"Lonquimay","scheduled_service":"no","gps_code":"SCCU"},"geometry":{"type":"Point","coordinates":[-71.423889,-38.158054]}},{"id":"39142","type":"Feature","properties":{"ident":"SCFU","type":"small_airport","name":"Loncopan Airport","elevation_ft":"886","continent":"SA","iso_country":"CL","iso_region":"CL-LR","municipality":"Futrono","scheduled_service":"no","gps_code":"SCFU"},"geometry":{"type":"Point","coordinates":[-72.537804,-40.066399]}},{"id":"39299","type":"Feature","properties":{"ident":"SCUP","type":"small_airport","name":"Lontuecito Airport","elevation_ft":"1066","continent":"SA","iso_country":"CL","iso_region":"CL-ML","municipality":"Cumpeo","scheduled_service":"no","gps_code":"SCUP"},"geometry":{"type":"Point","coordinates":[-71.236389,-35.282223]}},{"id":"39205","type":"Feature","properties":{"ident":"SCLR","type":"small_airport","name":"Los Alerces Airport","elevation_ft":"345","continent":"SA","iso_country":"CL","iso_region":"CL-LL","municipality":"Chaiten","scheduled_service":"no","gps_code":"SCLR"},"geometry":{"type":"Point","coordinates":[-72.64524,-42.780893]}},{"id":"39141","type":"Feature","properties":{"ident":"SCFS","type":"small_airport","name":"Los Calafates Airport","elevation_ft":"82","continent":"SA","iso_country":"CL","iso_region":"CL-LL","municipality":"Chonchi","scheduled_service":"no","gps_code":"SCFS"},"geometry":{"type":"Point","coordinates":[-73.896667,-42.67889]}},{"id":"39126","type":"Feature","properties":{"ident":"SCED","type":"small_airport","name":"Los Cedros Airport","elevation_ft":"305","continent":"SA","iso_country":"CL","iso_region":"CL-ML","municipality":"Sagrada Familia","scheduled_service":"no","gps_code":"SCED"},"geometry":{"type":"Point","coordinates":[-71.585281,-35.154999]}},{"id":"45088","type":"Feature","properties":{"ident":"SHFA","type":"heliport","name":"Los Cerrillos Military Heliport","elevation_ft":"1703","continent":"SA","iso_country":"CL","iso_region":"CL-RM","municipality":"Santiago","scheduled_service":"no","gps_code":"SHFA"},"geometry":{"type":"Point","coordinates":[-70.695278,-33.496389]}},{"id":"45068","type":"Feature","properties":{"ident":"SCOI","type":"small_airport","name":"Los Coipos Airport","elevation_ft":"318","continent":"SA","iso_country":"CL","iso_region":"CL-ML","municipality":"Hualanne","scheduled_service":"no","gps_code":"SCOI"},"geometry":{"type":"Point","coordinates":[-71.660833,-34.912778]}},{"id":"32259","type":"Feature","properties":{"ident":"SCGO","type":"small_airport","name":"Los Confines Airport","elevation_ft":"240","continent":"SA","iso_country":"CL","iso_region":"CL-AR","municipality":"Angol","scheduled_service":"no","gps_code":"SCGO"},"geometry":{"type":"Point","coordinates":[-72.687202,-37.794701]}},{"id":"39212","type":"Feature","properties":{"ident":"SCME","type":"small_airport","name":"Los Cuatro Diablos Airport","elevation_ft":"660","continent":"SA","iso_country":"CL","iso_region":"CL-RM","municipality":"Melipilla","scheduled_service":"no","gps_code":"SCME"},"geometry":{"type":"Point","coordinates":[-71.143333,-33.676109]}},{"id":"39148","type":"Feature","properties":{"ident":"SCGM","type":"small_airport","name":"Los Gomeros Airport","elevation_ft":"1034","continent":"SA","iso_country":"CL","iso_region":"CL-LI","municipality":"Rengo","scheduled_service":"no","gps_code":"SCGM"},"geometry":{"type":"Point","coordinates":[-70.881943,-34.361111]}},{"id":"39152","type":"Feature","properties":{"ident":"SCGY","type":"small_airport","name":"Los Guayes Airport","elevation_ft":"1312","continent":"SA","iso_country":"CL","iso_region":"CL-AR","municipality":"Cunco","scheduled_service":"no","gps_code":"SCGY"},"geometry":{"type":"Point","coordinates":[-71.993614,-39.053055]}},{"id":"39186","type":"Feature","properties":{"ident":"SCKI","type":"small_airport","name":"Los Lirios Airport","elevation_ft":"820","continent":"SA","iso_country":"CL","iso_region":"CL-ML","municipality":"Curico","scheduled_service":"no","gps_code":"SCKI"},"geometry":{"type":"Point","coordinates":[-71.201385,-34.903889]}},{"id":"39326","type":"Feature","properties":{"ident":"SCYR","type":"small_airport","name":"Los Maitenes Airport","elevation_ft":"538","continent":"SA","iso_country":"CL","iso_region":"CL-ML","municipality":"Retiro","scheduled_service":"no","gps_code":"SCYR"},"geometry":{"type":"Point","coordinates":[-71.741112,-36.031666]}},{"id":"39318","type":"Feature","properties":{"ident":"SCVV","type":"small_airport","name":"Los Maitenes de Villa Vieja Airport","elevation_ft":"147","continent":"SA","iso_country":"CL","iso_region":"CL-LR","municipality":"La Union","scheduled_service":"no","gps_code":"SCVV"},"geometry":{"type":"Point","coordinates":[-72.980365,-40.317423]}},{"id":"39218","type":"Feature","properties":{"ident":"SCMO","type":"small_airport","name":"Los Monos Airport","elevation_ft":"574","continent":"SA","iso_country":"CL","iso_region":"CL-ML","municipality":"Molina","scheduled_service":"no","gps_code":"SCMO"},"geometry":{"type":"Point","coordinates":[-71.41861,-35.190277]}},{"id":"39261","type":"Feature","properties":{"ident":"SCQR","type":"small_airport","name":"Los Morros Airport","elevation_ft":"7","continent":"SA","iso_country":"CL","iso_region":"CL-BI","municipality":"Cobquecura","scheduled_service":"no","gps_code":"SCQR"},"geometry":{"type":"Point","coordinates":[-72.804443,-36.134445]}},{"id":"39247","type":"Feature","properties":{"ident":"SCPO","type":"small_airport","name":"Los Paltos Airport","elevation_ft":"869","continent":"SA","iso_country":"CL","iso_region":"CL-LI","municipality":"Quinta Tilcoco","scheduled_service":"no","gps_code":"SCPO"},"geometry":{"type":"Point","coordinates":[-70.964165,-34.328056]}},{"id":"45085","type":"Feature","properties":{"ident":"SHAL","type":"heliport","name":"Los Paltos Heliport","elevation_ft":"298","continent":"SA","iso_country":"CL","iso_region":"CL-RM","municipality":"Isla De Maipo","scheduled_service":"no","gps_code":"SHAL"},"geometry":{"type":"Point","coordinates":[-70.930278,-33.725556]}},{"id":"39195","type":"Feature","properties":{"ident":"SCLB","type":"small_airport","name":"Los Pehuenches Airport","elevation_ft":"587","continent":"SA","iso_country":"CL","iso_region":"CL-BI","municipality":"Lebu","scheduled_service":"no","gps_code":"SCLB"},