{"type":"FeatureCollection","features":[{"id":"41015","type":"Feature","properties":{"ident":"SK-471","type":"small_airport","name":"Acaricuara Airport","elevation_ft":"587","continent":"SA","iso_country":"CO","iso_region":"CO-VAU","municipality":"Acaricuara","scheduled_service":"no","iata_code":"ARF","local_code":"ARF"},"geometry":{"type":"Point","coordinates":[-70.133333,0.533333]}},{"id":"507944","type":"Feature","properties":{"ident":"SQKS","type":"small_airport","name":"Aerodromo Los Campanos","elevation_ft":"92","continent":"SA","iso_country":"CO","iso_region":"CO-ATL","municipality":"Tubará","scheduled_service":"no","gps_code":"SQKS","home_link":"https://aeroclubloscampanos.com.co"},"geometry":{"type":"Point","coordinates":[-75.032145,10.883168]}},{"id":"40874","type":"Feature","properties":{"ident":"SK-398","type":"small_airport","name":"Aerosport Airport","elevation_ft":"958","continent":"SA","iso_country":"CO","iso_region":"CO-TOL","municipality":"Flandes","scheduled_service":"no","local_code":"FLD"},"geometry":{"type":"Point","coordinates":[-74.834722,4.183889]}},{"id":"40880","type":"Feature","properties":{"ident":"SK-400","type":"small_airport","name":"Agua Blanca Airport","elevation_ft":"1068","continent":"SA","iso_country":"CO","iso_region":"CO-TOL","municipality":"Espinal","scheduled_service":"no","local_code":"AGB"},"geometry":{"type":"Point","coordinates":[-74.895833,4.185556]}},{"id":"40896","type":"Feature","properties":{"ident":"SK-399","type":"small_airport","name":"Agua Blanca Airport","elevation_ft":"1920","continent":"SA","iso_country":"CO","iso_region":"CO-TOL","municipality":"Piedras","scheduled_service":"no","local_code":"ABT"},"geometry":{"type":"Point","coordinates":[-74.993333,4.467222]}},{"id":"6142","type":"Feature","properties":{"ident":"SKOC","type":"medium_airport","name":"Aguas Claras Airport","elevation_ft":"3850","continent":"SA","iso_country":"CO","iso_region":"CO-NSA","municipality":"Ocaña","scheduled_service":"no","gps_code":"SKOC","iata_code":"OCV","local_code":"OCV","wikipedia_link":"https://en.wikipedia.org/wiki/Aguas_Claras_Airport"},"geometry":{"type":"Point","coordinates":[-73.3583,8.31506]}},{"id":"337006","type":"Feature","properties":{"ident":"CO-0058","type":"small_airport","name":"Airport Hacienda Nápoles","elevation_ft":"775","continent":"SA","iso_country":"CO","iso_region":"CO-ANT","municipality":"Puerto Triunfo","scheduled_service":"no","gps_code":"SQFQ","home_link":"http://www.haciendanapoles.com/","wikipedia_link":"https://en.wikipedia.org/wiki/Hacienda_N%C3%A1poles"},"geometry":{"type":"Point","coordinates":[-74.728632,5.922102]}},{"id":"6162","type":"Feature","properties":{"ident":"SKSO","type":"small_airport","name":"Alberto Lleras Camargo Airport","elevation_ft":"8155","continent":"SA","iso_country":"CO","iso_region":"CO-BOY","municipality":"Sogamoso","scheduled_service":"no","gps_code":"SKSO","iata_code":"SOX","local_code":"SOX","wikipedia_link":"https://en.wikipedia.org/wiki/Alberto_Lleras_Camargo_Airport"},"geometry":{"type":"Point","coordinates":[-72.9703,5.67732]}},{"id":"30613","type":"Feature","properties":{"ident":"SKAD","type":"small_airport","name":"Alcides Fernández Airport","elevation_ft":"50","continent":"SA","iso_country":"CO","iso_region":"CO-CHO","municipality":"Acandí","scheduled_service":"no","gps_code":"SKAD","iata_code":"ACD","local_code":"ACD","wikipedia_link":"https://en.wikipedia.org/wiki/Alcides_Fern%C3%A1ndez_Airport"},"geometry":{"type":"Point","coordinates":[-77.274106,8.497847]}},{"id":"41001","type":"Feature","properties":{"ident":"SK-188","type":"small_airport","name":"Alfemar Airport","elevation_ft":"23","continent":"SA","iso_country":"CO","iso_region":"CO-CHO","municipality":"Jurado","scheduled_service":"no","local_code":"ALR"},"geometry":{"type":"Point","coordinates":[-77.667303,7.008728]}},{"id":"6110","type":"Feature","properties":{"ident":"SKCL","type":"medium_airport","name":"Alfonso Bonilla Aragon International Airport","elevation_ft":"3162","continent":"SA","iso_country":"CO","iso_region":"CO-VAC","municipality":"Cali","scheduled_service":"yes","gps_code":"SKCL","iata_code":"CLO","local_code":"CLO","home_link":"https://www.aerocali.com.co/","wikipedia_link":"https://en.wikipedia.org/wiki/Alfonso_Bonilla_Arag%C3%B3n_International_Airport","keywords":"Palmaseca International, 02-20"},"geometry":{"type":"Point","coordinates":[-76.3816,3.54322]}},{"id":"6176","type":"Feature","properties":{"ident":"SKVP","type":"medium_airport","name":"Alfonso López Pumarejo Airport","elevation_ft":"483","continent":"SA","iso_country":"CO","iso_region":"CO-CES","municipality":"Valledupar","scheduled_service":"yes","gps_code":"SKVP","iata_code":"VUP","local_code":"VUP","wikipedia_link":"https://en.wikipedia.org/wiki/Valledupar_Airport"},"geometry":{"type":"Point","coordinates":[-73.2495,10.435]}},{"id":"6130","type":"Feature","properties":{"ident":"SKLT","type":"medium_airport","name":"Alfredo Vásquez Cobo International Airport","elevation_ft":"277","continent":"SA","iso_country":"CO","iso_region":"CO-AMA","municipality":"Leticia","scheduled_service":"yes","gps_code":"SKLT","iata_code":"LET","local_code":"LET","wikipedia_link":"https://en.wikipedia.org/wiki/V%C3%A1squez_Cobo_International_Airport"},"geometry":{"type":"Point","coordinates":[-69.9432,-4.19355]}},{"id":"40848","type":"Feature","properties":{"ident":"SK-255","type":"small_airport","name":"Algarrobo Airport","elevation_ft":"379","continent":"SA","iso_country":"CO","iso_region":"CO-MAG","municipality":"Fundación","scheduled_service":"no","local_code":"FUN"},"geometry":{"type":"Point","coordinates":[-74.053611,10.235833]}},{"id":"6159","type":"Feature","properties":{"ident":"SKRH","type":"medium_airport","name":"Almirante Padilla Airport","elevation_ft":"43","continent":"SA","iso_country":"CO","iso_region":"CO-LAG","municipality":"Riohacha","scheduled_service":"yes","gps_code":"SKRH","iata_code":"RCH","local_code":"RCH","wikipedia_link":"https://en.wikipedia.org/wiki/Riohacha_Airport"},"geometry":{"type":"Point","coordinates":[-72.926,11.5262]}},{"id":"40640","type":"Feature","properties":{"ident":"SK-049","type":"small_airport","name":"Altamira Airport","elevation_ft":"467","continent":"SA","iso_country":"CO","iso_region":"CO-CAS","municipality":"Orocue","scheduled_service":"no","local_code":"ALT"},"geometry":{"type":"Point","coordinates":[-71.638611,4.758611]}},{"id":"30620","type":"Feature","properties":{"ident":"SKAM","type":"small_airport","name":"Amalfi Airport","elevation_ft":"5507","continent":"SA","iso_country":"CO","iso_region":"CO-ANT","municipality":"Amalfi","scheduled_service":"no","gps_code":"SKAM","iata_code":"AFI","local_code":"AFI","wikipedia_link":"https://en.wikipedia.org/wiki/Amalfi_Airport_(Colombia)"},"geometry":{"type":"Point","coordinates":[-75.047334,6.895033]}},{"id":"40763","type":"Feature","properties":{"ident":"SK-143","type":"small_airport","name":"Ana María Airport","elevation_ft":"331","continent":"SA","iso_country":"CO","iso_region":"CO-CES","municipality":"Codazzi","scheduled_service":"no","local_code":"ANN"},"geometry":{"type":"Point","coordinates":[-73.283611,10.0375]}},{"id":"40767","type":"Feature","properties":{"ident":"SK-271","type":"small_airport","name":"Andalucía Airport","elevation_ft":"784","continent":"SA","iso_country":"CO","iso_region":"CO-MET","municipality":"Villavicencio","scheduled_service":"no","local_code":"VVM"},"geometry":{"type":"Point","coordinates":[-73.299444,3.988056]}},{"id":"40885","type":"Feature","properties":{"ident":"SK-401","type":"small_airport","name":"Aniversario Estra Airport","elevation_ft":"1058","continent":"SA","iso_country":"CO","iso_region":"CO-TOL","municipality":"El Espinal","scheduled_service":"no","local_code":"ESS"},"geometry":{"type":"Point","coordinates":[-74.910833,4.123056]}},{"id":"6154","type":"Feature","properties":{"ident":"SKPS","type":"medium_airport","name":"Antonio Nariño Airport","elevation_ft":"5951","continent":"SA","iso_country":"CO","iso_region":"CO-NAR","municipality":"Chachagüí","scheduled_service":"yes","gps_code":"SKPS","iata_code":"PSO","local_code":"PSO","wikipedia_link":"https://en.wikipedia.org/wiki/Antonio_Nari%C3%B1o_Airport","keywords":"Pasto"},"geometry":{"type":"Point","coordinates":[-77.2915,1.39625]}},{"id":"6127","type":"Feature","properties":{"ident":"SKLC","type":"medium_airport","name":"Antonio Roldán Betancur Airport","elevation_ft":"46","continent":"SA","iso_country":"CO","iso_region":"CO-ANT","municipality":"Carepa","scheduled_service":"yes","gps_code":"SKLC","iata_code":"APO","local_code":"APO","wikipedia_link":"https://en.wikipedia.org/wiki/Antonio_Rold%C3%A1n_Betancur_Airport"},"geometry":{"type":"Point","coordinates":[-76.7164,7.81196]}},{"id":"45147","type":"Feature","properties":{"ident":"CO-0046","type":"heliport","name":"Apotema Heliport","continent":"SA","iso_country":"CO","iso_region":"CO-CUN","municipality":"Bogotá","scheduled_service":"no","local_code":"APT"},"geometry":{"type":"Point","coordinates":[-74.039444,4.693333]}},{"id":"353305","type":"Feature","properties":{"ident":"CO-0066","type":"small_airport","name":"Arabia Airport","elevation_ft":"486","continent":"SA","iso_country":"CO","iso_region":"CO-GUA","municipality":"Barranco Minas","scheduled_service":"no"},"geometry":{"type":"Point","coordinates":[-69.046761,3.60726]}},{"id":"40676","type":"Feature","properties":{"ident":"SK-050","type":"small_airport","name":"Araguanen Airport","elevation_ft":"784","continent":"SA","iso_country":"CO","iso_region":"CO-CAS","municipality":"Yopal","scheduled_service":"no","local_code":"ARG"},"geometry":{"type":"Point","coordinates":[-72.283056,5.413056]}},{"id":"30615","type":"Feature","properties":{"ident":"SKAC","type":"small_airport","name":"Araracuara Airport","elevation_ft":"1250","continent":"SA","iso_country":"CO","iso_region":"CO-CAQ","municipality":"Araracuara","scheduled_service":"no","gps_code":"SKAC","iata_code":"ACR","local_code":"ACR","wikipedia_link":"https://en.wikipedia.org/wiki/Araracuara_Airport"},"geometry":{"type":"Point","coordinates":[-72.398011,-0.600854]}},{"id":"41073","type":"Feature","properties":{"ident":"SK-005","type":"small_airport","name":"Arboletes Airport","elevation_ft":"13","continent":"SA","iso_country":"CO","iso_region":"CO-ANT","municipality":"Arboletes","scheduled_service":"no","iata_code":"ARO","local_code":"ARO","wikipedia_link":"https://fr.wikipedia.org/wiki/A%C3%A9roport_d%27Arboletes"},"geometry":{"type":"Point","coordinates":[-76.422676,8.855118]}},{"id":"41025","type":"Feature","properties":{"ident":"ACM","type":"small_airport","name":"Arica Airport","elevation_ft":"316","continent":"SA","iso_country":"CO","iso_region":"CO-AMA","municipality":"Arica","scheduled_service":"no","iata_code":"ACM","wikipedia_link":"https://en.wikipedia.org/wiki/Arica_Airport_(Colombia)"},"geometry":{"type":"Point","coordinates":[-71.75935,-2.143713]}},{"id":"40934","type":"Feature","properties":{"ident":"SK-402","type":"small_airport","name":"Ataco Airport","elevation_ft":"1506","continent":"SA","iso_country":"CO","iso_region":"CO-TOL","municipality":"Ataco","scheduled_service":"no","local_code":"ATC"},"geometry":{"type":"Point","coordinates":[-75.411111,3.570833]}},{"id":"41044","type":"Feature","properties":{"ident":"SK-144","type":"small_airport","name":"Ayacucho Airport","elevation_ft":"415","continent":"SA","iso_country":"CO","iso_region":"CO-CES","municipality":"Ayacucho","scheduled_service":"no","iata_code":"AYC","local_code":"AYC"},"geometry":{"type":"Point","coordinates":[-73.616667,8.6]}},{"id":"41059","type":"Feature","properties":{"ident":"SK-198","type":"small_airport","name":"Ayapel Airport","elevation_ft":"120","continent":"SA","iso_country":"CO","iso_region":"CO-COR","municipality":"Ayapel","scheduled_service":"no","iata_code":"AYA","local_code":"AYA","wikipedia_link":"https://en.wikipedia.org/wiki/Ayapel_Airport"},"geometry":{"type":"Point","coordinates":[-75.15,8.3]}},{"id":"41080","type":"Feature","properties":{"ident":"SK-189","type":"small_airport","name":"Bahia Cupica Airport","elevation_ft":"200","continent":"NA","iso_country":"CO","iso_region":"CO-CHO","municipality":"Bahía Cupica","scheduled_service":"no","local_code":"BHF"},"geometry":{"type":"Point","coordinates":[-77.3263,6.55]}},{"id":"505194","type":"Feature","properties":{"ident":"CO-0080","type":"small_airport","name":"Balboa Airport","elevation_ft":"226","continent":"SA","iso_country":"CO","iso_region":"CO-CHO","municipality":"Unguía","scheduled_service":"no"},"geometry":{"type":"Point","coordinates":[-77.14141,8.27745]}},{"id":"40665","type":"Feature","properties":{"ident":"SK-051","type":"small_airport","name":"Banco Airport","elevation_ft":"689","continent":"SA","iso_country":"CO","iso_region":"CO-CAS","municipality":"Nunchia","scheduled_service":"no","local_code":"BAN"},"geometry":{"type":"Point","coordinates":[-72.063056,5.463056]}},{"id":"45125","type":"Feature","properties":{"ident":"CO-0024","type":"heliport","name":"Banco Cafetero Heliport","continent":"SA","iso_country":"CO","iso_region":"CO-CAL","municipality":"Manizales","scheduled_service":"no","local_code":"BAA"},"geometry":{"type":"Point","coordinates":[-75.528889,5.070278]}},{"id":"45130","type":"Feature","properties":{"ident":"CO-0029","type":"heliport","name":"Banco De La Republica Heliport","continent":"SA","iso_country":"CO","iso_region":"CO-ATL","municipality":"Barranquilla","scheduled_service":"no","local_code":"BAE"},"geometry":{"type":"Point","coordinates":[-74.789167,10.989444]}},{"id":"45129","type":"Feature","properties":{"ident":"CO-0028","type":"heliport","name":"Banco De La Republica Heliport","continent":"SA","iso_country":"CO","iso_region":"CO-CUN","municipality":"Girardot","scheduled_service":"no","local_code":"BAO"},"geometry":{"type":"Point","coordinates":[-74.810833,4.299444]}},{"id":"45128","type":"Feature","properties":{"ident":"CO-0027","type":"heliport","name":"Banco De La Republica Heliport","continent":"SA","iso_country":"CO","iso_region":"CO-ANT","municipality":"Caucasia","scheduled_service":"no","local_code":"1BD"},"geometry":{"type":"Point","coordinates":[-75.197778,7.989722]}},{"id":"45121","type":"Feature","properties":{"ident":"CO-0020","type":"heliport","name":"Banco De La Republica Heliport","continent":"SA","iso_country":"CO","iso_region":"CO-ANT","municipality":"Medellín","scheduled_service":"no","local_code":"BAC"},"geometry":{"type":"Point","coordinates":[-75.573889,6.252778]}},{"id":"45109","type":"Feature","properties":{"ident":"CO-0008","type":"heliport","name":"Banco De La Republica Heliport","continent":"SA","iso_country":"CO","iso_region":"CO-VAC","municipality":"Cali","scheduled_service":"no","local_code":"BNE"},"geometry":{"type":"Point","coordinates":[-76.408889,3.634167]}},{"id":"45106","type":"Feature","properties":{"ident":"CO-0005","type":"heliport","name":"Banco De La Republica Heliport","continent":"SA","iso_country":"CO","iso_region":"CO-CHO","municipality":"Condoto","scheduled_service":"no","local_code":"1BA"},"geometry":{"type":"Point","coordinates":[-76.649444,5.1]}},{"id":"45105","type":"Feature","properties":{"ident":"CO-0004","type":"heliport","name":"Banco De La Republica Heliport","continent":"SA","iso_country":"CO","iso_region":"CO-CHO","municipality":"Quibdo","scheduled_service":"no","local_code":"BND"},"geometry":{"type":"Point","coordinates":[-76.665,5.6975]}},{"id":"45104","type":"Feature","properties":{"ident":"CO-0003","type":"heliport","name":"Banco De La Republica Heliport","continent":"SA","iso_country":"CO","iso_region":"CO-NAR","municipality":"Pasto","scheduled_service":"no","local_code":"BNC"},"geometry":{"type":"Point","coordinates":[-77.28,1.196944]}},{"id":"45103","type":"Feature","properties":{"ident":"CO-0002","type":"heliport","name":"Banco De La Republica Heliport","continent":"SA","iso_country":"CO","iso_region":"CO-NAR","municipality":"Barbacoas","scheduled_service":"no","local_code":"BAS"},"geometry":{"type":"Point","coordinates":[-78.142222,1.672222]}},{"id":"45139","type":"Feature","properties":{"ident":"CO-0038","type":"heliport","name":"Banco De Occidente Heliport","continent":"SA","iso_country":"CO","iso_region":"CO-CUN","municipality":"Bogotá","scheduled_service":"no","local_code":"BAI"},"geometry":{"type":"Point","coordinates":[-74.087222,4.617778]}},{"id":"45108","type":"Feature","properties":{"ident":"CO-0007","type":"heliport","name":"Banco De Occidente Heliport","continent":"SA","iso_country":"CO","iso_region":"CO-VAC","municipality":"Cali","scheduled_service":"no","local_code":"BAT"},"geometry":{"type":"Point","coordinates":[-76.535556,3.451111]}},{"id":"45124","type":"Feature","properties":{"ident":"CO-0023","type":"heliport","name":"Banco Popular Heliport","continent":"SA","iso_country":"CO","iso_region":"CO-ANT","municipality":"Medellín","scheduled_service":"no","local_code":"BAP"},"geometry":{"type":"Point","coordinates":[-75.570833,6.252222]}},{"id":"6134","type":"Feature","properties":{"ident":"SKMG","type":"medium_airport","name":"Baracoa Airport","elevation_ft":"178","continent":"SA","iso_country":"CO","iso_region":"CO-BOL","municipality":"Magangué","scheduled_service":"no","gps_code":"SKMG","iata_code":"MGN","local_code":"MGN","wikipedia_link":"https://en.wikipedia.org/wiki/Baracoa_Regional_Airport"},"geometry":{"type":"Point","coordinates":[-74.8461,9.28474]}},{"id":"40814","type":"Feature","properties":{"ident":"SK-377","type":"small_airport","name":"Barbosa Airport","elevation_ft":"5176","continent":"SA","iso_country":"CO","iso_region":"CO-SAN","municipality":"Barbosa","scheduled_service":"no","local_code":"BSA"},"geometry":{"type":"Point","coordinates":[-73.611389,5.943333]}},{"id":"41033","type":"Feature","properties":{"ident":"SK-272","type":"small_airport","name":"Barranca De Upia Airport","elevation_ft":"670","continent":"SA","iso_country":"CO","iso_region":"CO-MET","municipality":"Barranca De Upia","scheduled_service":"no","iata_code":"BAC","local_code":"BAC"},"geometry":{"type":"Point","coordinates":[-72.966667,4.583333]}},{"id":"40570","type":"Feature","properties":{"ident":"SK-209","type":"small_airport","name":"Barranco Minas Airport","elevation_ft":"430","continent":"SA","iso_country":"CO","iso_region":"CO-GUA","municipality":"Barranco Minas","scheduled_service":"no","gps_code":"SKBM","iata_code":"NBB"},"geometry":{"type":"Point","coordinates":[-69.808151,3.490691]}},{"id":"41017","type":"Feature","properties":{"ident":"SK-222","type":"small_airport","name":"Barrancominas Airport","elevation_ft":"1500","continent":"SA","iso_country":"CO","iso_region":"CO-GUA","municipality":"Barrancominas","scheduled_service":"no","local_code":"BMG"},"geometry":{"type":"Point","coordinates":[-70.333333,3.333333]}},{"id":"40679","type":"Feature","properties":{"ident":"SK-225","type":"small_airport","name":"Barranquillita Airport","elevation_ft":"742","continent":"SA","iso_country":"CO","iso_region":"CO-GUV","municipality":"Miraflores","scheduled_service":"no","local_code":"BOL"},"geometry":{"type":"Point","coordinates":[-72.325833,1.546667]}},{"id":"45117","type":"Feature","properties":{"ident":"CO-0016","type":"heliport","name":"Baru Heliport","continent":"SA","iso_country":"CO","iso_region":"CO-BOL","municipality":"Cartagena","scheduled_service":"no","local_code":"BAU"},"geometry":{"type":"Point","coordinates":[-75.616667,10.210278]}},{"id":"40818","type":"Feature","properties":{"ident":"SK-145","type":"small_airport","name":"Base Principal Celta Airport","elevation_ft":"317","continent":"SA","iso_country":"CO","iso_region":"CO-CES","municipality":"Aguachica","scheduled_service":"no","local_code":"AGY"},"geometry":{"type":"Point","coordinates":[-73.631667,8.2025]}},{"id":"45146","type":"Feature","properties":{"ident":"CO-0045","type":"heliport","name":"Bavaria Heliport","continent":"SA","iso_country":"CO","iso_region":"CO-CUN","municipality":"Bogotá","scheduled_service":"no","local_code":"BAV"},"geometry":{"type":"Point","coordinates":[-74.047222,4.677778]}},{"id":"32308","type":"Feature","properties":{"ident":"SKBE","type":"small_airport","name":"Becerril Airport","elevation_ft":"433","continent":"SA","iso_country":"CO","iso_region":"CO-CES","municipality":"Becerril","scheduled_service":"no","gps_code":"SKBE","local_code":"BEC"},"geometry":{"type":"Point","coordinates":[-73.2744,9.66278]}},{"id":"40831","type":"Feature","properties":{"ident":"SK-146","type":"small_airport","name":"Bella Cruz - San Juan Airport","elevation_ft":"141","continent":"NA","iso_country":"CO","iso_region":"CO-CES","municipality":"La Gloria","scheduled_service":"no","local_code":"LGL"},"geometry":{"type":"Point","coordinates":[-73.726693,8.621196]}},{"id":"40691","type":"Feature","properties":{"ident":"SK-273","type":"small_airport","name":"Bello Horizonte Airport","elevation_ft":"578","continent":"SA","iso_country":"CO","iso_region":"CO-MET","municipality":"Puerto López","scheduled_service":"no","local_code":"PLE"},"geometry":{"type":"Point","coordinates":[-72.504167,4.291667]}},{"id":"40581","type":"Feature","properties":{"ident":"SK-472","type":"small_airport","name":"Belén De Inambú Airport","elevation_ft":"567","continent":"SA","iso_country":"CO","iso_region":"CO-VAU","municipality":"Mitu","scheduled_service":"no","local_code":"MIB"},"geometry":{"type":"Point","coordinates":[-70.184722,0.470833]}},{"id":"45127","type":"Feature","properties":{"ident":"CO-0026","type":"heliport","name":"Beneficencia Del Tolima Heliport","continent":"SA","iso_country":"CO","iso_region":"CO-TOL","municipality":"Ibagué","scheduled_service":"no","local_code":"BEE"},"geometry":{"type":"Point","coordinates":[-75.241667,4.443889]}},{"id":"45137","type":"Feature","properties":{"ident":"CO-0036","type":"heliport","name":"Beneficiencia De Cundinamarca Heliport","continent":"SA","iso_country":"CO","iso_region":"CO-CUN","municipality":"Bogotá","scheduled_service":"no"},"geometry":{"type":"Point","coordinates":[-74.096667,4.638611]}},{"id":"6141","type":"Feature","properties":{"ident":"SKNV","type":"medium_airport","name":"Benito Salas Airport","elevation_ft":"1464","continent":"SA","iso_country":"CO","iso_region":"CO-HUI","municipality":"Neiva","scheduled_service":"yes","gps_code":"SKNV","iata_code":"NVA","local_code":"NVA","wikipedia_link":"https://en.wikipedia.org/wiki/Benito_Salas_Airport","keywords":"La Manguita"},"geometry":{"type":"Point","coordinates":[-75.294,2.95015]}},{"id":"40923","type":"Feature","properties":{"ident":"SK-231","type":"small_airport","name":"Berlín Airport","elevation_ft":"1145","continent":"SA","iso_country":"CO","iso_region":"CO-HUI","municipality":"Villavieja","scheduled_service":"no","local_code":"BJA"},"geometry":{"type":"Point","coordinates":[-75.173611,3.4025]}},{"id":"41064","type":"Feature","properties":{"ident":"SKBR","type":"small_airport","name":"Berástegui Airport","elevation_ft":"38","continent":"SA","iso_country":"CO","iso_region":"CO-COR","municipality":"Berástegui","scheduled_service":"no","gps_code":"SKBR","local_code":"BIC","wikipedia_link":"https://en.wikipedia.org/wiki/Ber%C3%A1stegui_Airport"},"geometry":{"type":"Point","coordinates":[-75.682189,8.885319]}},{"id":"40860","type":"Feature","properties":{"ident":"SK-147","type":"small_airport","name":"Bethania Airport","elevation_ft":"426","continent":"SA","iso_country":"CO","iso_region":"CO-CES","municipality":"El Copey","scheduled_service":"no","local_code":"CES"},"geometry":{"type":"Point","coordinates":[-74.425,10.116667]}},{"id":"40660","type":"Feature","properties":{"ident":"SK-052","type":"small_airport","name":"Bizerta Airport","elevation_ft":"637","continent":"SA","iso_country":"CO","iso_region":"CO-CAS","municipality":"Nunchia","scheduled_service":"no","local_code":"BIZ"},"geometry":{"type":"Point","coordinates":[-71.993611,5.4225]}},{"id":"41007","type":"Feature","properties":{"ident":"SK-359","type":"small_airport","name":"Bocas De Satinga Airport","elevation_ft":"18","continent":"SA","iso_country":"CO","iso_region":"CO-NAR","municipality":"Bocas De Satinga","scheduled_service":"no","local_code":"BDS"},"geometry":{"type":"Point","coordinates":[-78.316667,2.35]}},{"id":"40603","type":"Feature","properties":{"ident":"SK-473","type":"small_airport","name":"Bocoa Querari Airport","elevation_ft":"626","continent":"SA","iso_country":"CO","iso_region":"CO-VAU","municipality":"Mitu","scheduled_service":"no","local_code":"MBQ"},"geometry":{"type":"Point","coordinates":[-70.799444,1.5975]}},{"id":"517147","type":"Feature","properties":{"ident":"CO-0082","type":"heliport","name":"Bogota Police Academy Heliport","elevation_ft":"8421","continent":"SA","iso_country":"CO","iso_region":"CO-DC","municipality":"Bogotá","scheduled_service":"no"},"geometry":{"type":"Point","coordinates":[-74.132313,4.589189]}},{"id":"40878","type":"Feature","properties":{"ident":"SK-403","type":"small_airport","name":"Boluca Airport","elevation_ft":"988","continent":"SA","iso_country":"CO","iso_region":"CO-TOL","municipality":"Venadillo","scheduled_service":"no","local_code":"BNI"},"geometry":{"type":"Point","coordinates":[-74.891944,4.693611]}},{"id":"40628","type":"Feature","properties":{"ident":"SK-053","type":"small_airport","name":"Buena Vista Airport","elevation_ft":"457","continent":"SA","iso_country":"CO","iso_region":"CO-CAS","municipality":"Orocue","scheduled_service":"no","local_code":"OCU"},"geometry":{"type":"Point","coordinates":[-71.502222,4.836111]}},{"id":"6103","type":"Feature","properties":{"ident":"SKBN","type":"small_airport","name":"Buenavista Airport","elevation_ft":"850","continent":"SA","iso_country":"CO","iso_region":"CO-LAG","municipality":"Fonseca","scheduled_service":"no","gps_code":"SKBN","local_code":"BVA","wikipedia_link":"https://en.wikipedia.org/wiki/Buenavista_Air_Base"},"geometry":{"type":"Point","coordinates":[-72.9004,10.8879]}},{"id":"40611","type":"Feature","properties":{"ident":"SK-474","type":"small_airport","name":"Buenos Aires Airport","elevation_ft":"518","continent":"SA","iso_country":"CO","iso_region":"CO-VAU","municipality":"Mitu","scheduled_service":"no","local_code":"MTN"},"geometry":{"type":"Point","coordinates":[-71.0075,0.020278]}},{"id":"40994","type":"Feature","properties":{"ident":"SK-378","type":"small_airport","name":"Buenos Aires Airport","elevation_ft":"63","continent":"SA","iso_country":"CO","iso_region":"CO-SAN","municipality":"Puerto Wilches","scheduled_service":"no","local_code":"BNO"},"geometry":{"type":"Point","coordinates":[-76.746111,7.463889]}},{"id":"40822","type":"Feature","properties":{"ident":"SK-148","type":"small_airport","name":"Buenos Aires Airport","elevation_ft":"224","continent":"SA","iso_country":"CO","iso_region":"CO-CES","municipality":"Pailitas","scheduled_service":"no","local_code":"BNP"},"geometry":{"type":"Point","coordinates":[-73.6725,9.02]}},{"id":"41002","type":"Feature","properties":{"ident":"SK-190","type":"small_airport","name":"Cabo Marzo Airport","elevation_ft":"87","continent":"SA","iso_country":"CO","iso_region":"CO-CHO","municipality":"Jurado","scheduled_service":"no","local_code":"CAM"},"geometry":{"type":"Point","coordinates":[-77.680556,6.881389]}},{"id":"40657","type":"Feature","properties":{"ident":"SK-475","type":"small_airport","name":"Cachiporro Airport","elevation_ft":"557","continent":"SA","iso_country":"CO","iso_region":"CO-VAU","municipality":"Mitu","scheduled_service":"no","local_code":"MCP"},"geometry":{"type":"Point","coordinates":[-71.926389,0.554167]}},{"id":"45141","type":"Feature","properties":{"ident":"CO-0040","type":"heliport","name":"Caja De Vivienda Militar Heliport","continent":"SA","iso_country":"CO","iso_region":"CO-ANT","municipality":"Medellín","scheduled_service":"no","local_code":"CAJ"},"geometry":{"type":"Point","coordinates":[-74.083333,4.646389]}},{"id":"45136","type":"Feature","properties":{"ident":"CO-0035","type":"heliport","name":"Caja De Vivienda Militar Heliport","continent":"SA","iso_country":"CO","iso_region":"CO-CUN","municipality":"Bogotá","scheduled_service":"no"},"geometry":{"type":"Point","coordinates":[-74.0975,4.646389]}},{"id":"40693","type":"Feature","properties":{"ident":"SK-226","type":"small_airport","name":"Calamar Airport","elevation_ft":"846","continent":"SA","iso_country":"CO","iso_region":"CO-GUV","municipality":"San José Del Guaviare","scheduled_service":"no","local_code":"CLM"},"geometry":{"type":"Point","coordinates":[-72.533333,1.955556]}},{"id":"40796","type":"Feature","properties":{"ident":"SK-149","type":"small_airport","name":"Calenturitas Airport","elevation_ft":"195","continent":"SA","iso_country":"CO","iso_region":"CO-CES","municipality":"La Loma","scheduled_service":"no","gps_code":"SKAL","local_code":"LLO","wikipedia_link":"https://en.wikipedia.org/wiki/Calenturitas_Airport"},"geometry":{"type":"Point","coordinates":[-73.495134,9.652073]}},{"id":"40898","type":"Feature","properties":{"ident":"SK-404","type":"small_airport","name":"Calicanto Airport","elevation_ft":"2024","continent":"SA","iso_country":"CO","iso_region":"CO-TOL","municipality":"Alvarado","scheduled_service":"no","local_code":"CAT"},"geometry":{"type":"Point","coordinates":[-75.01,4.488611]}},{"id":"40819","type":"Feature","properties":{"ident":"SK-150","type":"small_airport","name":"Calima Airport","elevation_ft":"400","continent":"SA","iso_country":"CO","iso_region":"CO-CES","municipality":"Aguachica","scheduled_service":"no","local_code":"CAL"},"geometry":{"type":"Point","coordinates":[-73.645833,8.283333]}},{"id":"45134","type":"Feature","properties":{"ident":"CO-0033","type":"heliport","name":"Camara De Comercio De Bogota Heliport","continent":"SA","iso_country":"CO","iso_region":"CO-CUN","municipality":"Bogotá","scheduled_service":"no","local_code":"1CA"},"geometry":{"type":"Point","coordinates":[-74.106944,4.657222]}},{"id":"6108","type":"Feature","properties":{"ident":"SKCC","type":"medium_airport","name":"Camilo Daza International Airport","elevation_ft":"1096","continent":"SA","iso_country":"CO","iso_region":"CO-NSA","municipality":"Cúcuta","scheduled_service":"yes","gps_code":"SKCC","iata_code":"CUC","local_code":"CUC","wikipedia_link":"https://en.wikipedia.org/wiki/Camilo_Daza_International_Airport"},"geometry":{"type":"Point","coordinates":[-72.5115,7.92757]}},{"id":"40930","type":"Feature","properties":{"ident":"SK-232","type":"small_airport","name":"Campo Alegre Airport","elevation_ft":"1760","continent":"SA","iso_country":"CO","iso_region":"CO-HUI","municipality":"Campo Alegre","scheduled_service":"no","local_code":"CMP"},"geometry":{"type":"Point","coordinates":[-75.34,2.663056]}},{"id":"40736","type":"Feature","properties":{"ident":"SK-151","type":"small_airport","name":"Campo Alegre Airport","elevation_ft":"677","continent":"SA","iso_country":"CO","iso_region":"CO-CES","municipality":"Valledupa","scheduled_service":"no","local_code":"VAP"},"geometry":{"type":"Point","coordinates":[-73.148056,10.6475]}},{"id":"40843","type":"Feature","properties":{"ident":"SK-379","type":"small_airport","name":"Campo Capote Airport","elevation_ft":"310","continent":"SA","iso_country":"CO","iso_region":"CO-SAN","municipality":"Velez","scheduled_service":"no","local_code":"CAC"},"geometry":{"type":"Point","coordinates":[-73.916667,6.75]}},{"id":"40761","type":"Feature","properties":{"ident":"SK-274","type":"small_airport","name":"Canaima Airport","elevation_ft":"761","continent":"SA","iso_country":"CO","iso_region":"CO-MET","municipality":"Villavicencio","scheduled_service":"no","local_code":"CMA"},"geometry":{"type":"Point","coordinates":[-73.266944,4.118056]}},{"id":"40609","type":"Feature","properties":{"ident":"SK-476","type":"small_airport","name":"Cananari Airport","elevation_ft":"645","continent":"SA","iso_country":"CO","iso_region":"CO-VAU","municipality":"Mitu","scheduled_service":"no","local_code":"MCI"},"geometry":{"type":"Point","coordinates":[-70.928611,0.545]}},{"id":"41053","type":"Feature","properties":{"ident":"SK-275","type":"small_airport","name":"Candilejas Airport","elevation_ft":"1000","continent":"SA","iso_country":"CO","iso_region":"CO-MET","municipality":"Candilejas","scheduled_service":"no","iata_code":"CJD","local_code":"CJD"},"geometry":{"type":"Point","coordinates":[-74.583333,2.066667]}},{"id":"40594","type":"Feature","properties":{"ident":"SK-477","type":"small_airport","name":"Cano Coló Airport","elevation_ft":"696","continent":"SA","iso_country":"CO","iso_region":"CO-VAU","municipality":"Mitu","scheduled_service":"no","local_code":"MOL"},"geometry":{"type":"Point","coordinates":[-70.443333,0.365]}},{"id":"6169","type":"Feature","properties":{"ident":"SKTQ","type":"medium_airport","name":"Captain Ernesto Esguerra Cubides Air Base","elevation_ft":"585","continent":"SA","iso_country":"CO","iso_region":"CO-CAQ","municipality":"Tres Esquinas","scheduled_service":"no","gps_code":"SKTQ","iata_code":"TQS","local_code":"TQS","wikipedia_link":"https://en.wikipedia.org/wiki/Captain_Ernesto_Esguerra_Cubides_Air_Base"},"geometry":{"type":"Point","coordinates":[-75.234,0.7459]}},{"id":"30845","type":"Feature","properties":{"ident":"SKCA","type":"small_airport","name":"Capurganá Airport","elevation_ft":"49","continent":"SA","iso_country":"CO","iso_region":"CO-CHO","municipality":"Acandí","scheduled_service":"no","gps_code":"SKCA","iata_code":"CPB","local_code":"CPB","wikipedia_link":"https://en.wikipedia.org/wiki/Capurgan%C3%A1_Airport"},"geometry":{"type":"Point","coordinates":[-77.350262,8.632169]}},{"id":"41049","type":"Feature","properties":{"ident":"SK-277","type":"small_airport","name":"Caquetania Airport","elevation_ft":"900","continent":"SA","iso_country":"CO","iso_region":"CO-MET","municipality":"Caquetania","scheduled_service":"no","iata_code":"CQT","local_code":"CQT"},"geometry":{"type":"Point","coordinates":[-74.216667,2.033333]}},{"id":"351498","type":"Feature","properties":{"ident":"CO-0063","type":"small_airport","name":"Caranacoa Airport","continent":"SA","iso_country":"CO","iso_region":"CO-GUA","municipality":"Caranacoa","scheduled_service":"no"},"geometry":{"type":"Point","coordinates":[-68.92068,2.43252]}},{"id":"30816","type":"Feature","properties":{"ident":"SKCI","type":"small_airport","name":"Carimagua Airport","elevation_ft":"700","continent":"SA","iso_country":"CO","iso_region":"CO-MET","municipality":"Puerto López","scheduled_service":"no","gps_code":"SKCI","iata_code":"CCO","local_code":"CCO","wikipedia_link":"https://en.wikipedia.org/wiki/Carimagua_Airport"},"geometry":{"type":"Point","coordinates":[-71.3364,4.56417]}},{"id":"353413","type":"Feature","properties":{"ident":"CO-0072","type":"heliport","name":"Carlos Haime University Hospital Helipad","elevation_ft":"20","continent":"SA","iso_country":"CO","iso_region":"CO-BOL","municipality":"Serena del Mar","scheduled_service":"no"},"geometry":{"type":"Point","coordinates":[-75.46766,10.5084]}},{"id":"32309","type":"Feature","properties":{"ident":"SKCB","type":"small_airport","name":"Carmen De Bolivar Airport","elevation_ft":"590","continent":"SA","iso_country":"CO","iso_region":"CO-BOL","municipality":"Carmen De Bolivar","scheduled_service":"no","gps_code":"SKCB","local_code":"CBR","wikipedia_link":"https://en.wikipedia.org/wiki/El_Carmen_de_Bol%C3%ADvar_Airport"},"geometry":{"type":"Point","coordinates":[-75.1261,9.68417]}},{"id":"353412","type":"Feature","properties":{"ident":"CO-0071","type":"heliport","name":"Cartagena Naval Heliport","elevation_ft":"3","continent":"SA","iso_country":"CO","iso_region":"CO-BOL","municipality":"Cartagena de Indias","scheduled_service":"no"},"geometry":{"type":"Point","coordinates":[-75.54756,10.41375]}},{"id":"30862","type":"Feature","properties":{"ident":"SKCR","type":"small_airport","name":"Carurú Airport","elevation_ft":"820","continent":"SA","iso_country":"CO","iso_region":"CO-VAU","municipality":"Carurú","scheduled_service":"no","gps_code":"SKCR","iata_code":"CUO","local_code":"CRU","wikipedia_link":"https://en.wikipedia.org/wiki/Carur%C3%BA_Airport"},"geometry":{"type":"Point","coordinates":[-71.297343,1.013822]}},{"id":"40753","type":"Feature","properties":{"ident":"SK-152","type":"small_airport","name":"Casacara Cayta Airport","elevation_ft":"321","continent":"SA","iso_country":"CO","iso_region":"CO-CES","municipality":"Codazzi","scheduled_service":"no","local_code":"CAG"},"geometry":{"type":"Point","coordinates":[-73.253056,9.928056]}},{"id":"32313","type":"Feature","properties":{"ident":"SKMN","type":"small_airport","name":"Casanare Airport","elevation_ft":"600","continent":"SA","iso_country":"CO","iso_region":"CO-CAS","municipality":"Maní","scheduled_service":"no","gps_code":"SKMN","local_code":"MNI"},"geometry":{"type":"Point","coordinates":[-72.2667,4.83333]}},{"id":"40970","type":"Feature","properties":{"ident":"SK-448","type":"small_airport","name":"Castilla Central Airport","elevation_ft":"3304","continent":"SA","iso_country":"CO","iso_region":"CO-VAC","municipality":"Pradera","scheduled_service":"no","local_code":"CST"},"geometry":{"type":"Point","coordinates":[-76.283056,3.361667]}},{"id":"41011","type":"Feature","properties":{"ident":"SK-511","type":"small_airport","name":"Casuarito Airport","elevation_ft":"245","continent":"SA","iso_country":"CO","iso_region":"CO-VID","municipality":"Casuarito","scheduled_service":"no","iata_code":"CSR","local_code":"CSR"},"geometry":{"type":"Point","coordinates":[-68.133333,5.833333]}},{"id":"6128","type":"Feature","properties":{"ident":"SKLG","type":"small_airport","name":"Caucaya Airport","elevation_ft":"573","continent":"SA","iso_country":"CO","iso_region":"CO-PUT","municipality":"Puerto Leguízamo","scheduled_service":"yes","gps_code":"SKLG","iata_code":"LQM","local_code":"LQM","wikipedia_link":"https://en.wikipedia.org/wiki/Caucay%C3%A1_Airport"},"geometry":{"type":"Point","coordinates":[-74.7708,-0.182278]}},{"id":"40983","type":"Feature","properties":{"ident":"SK-449","type":"small_airport","name":"Cavasa Airport","elevation_ft":"3151","continent":"SA","iso_country":"CO","iso_region":"CO-VAC","municipality":"Candelaria","scheduled_service":"no","local_code":"CVS"},"geometry":{"type":"Point","coordinates":[-76.406944,3.409444]}},{"id":"40792","type":"Feature","properties":{"ident":"SK-276","type":"small_airport","name":"Caño Blanco Airport","elevation_ft":"803","continent":"SA","iso_country":"CO","iso_region":"CO-MET","municipality":"Fuente De Oro","scheduled_service":"no","local_code":"FTE"},"geometry":{"type":"Point","coordinates":[-73.463333,3.29]}},{"id":"351499","type":"Feature","properties":{"ident":"CO-0064","type":"small_airport","name":"Caño Colorado Airport","elevation_ft":"294","continent":"SA","iso_country":"CO","iso_region":"CO-GUA","municipality":"Caño Colorado","scheduled_service":"no"},"geometry":{"type":"Point","coordinates":[-68.35831,2.27219]}},{"id":"40634","type":"Feature","properties":{"ident":"SK-054","type":"small_airport","name":"Caño Garza Airport","elevation_ft":"544","continent":"SA","iso_country":"CO","iso_region":"CO-CAS","municipality":"Paz de Ariporo","scheduled_service":"no","gps_code":"SKAA","local_code":"PAZ","wikipedia_link":"https://en.wikipedia.org/wiki/Ca%C3%B1o_Garza_Airport"},"geometry":{"type":"Point","coordinates":[-71.589444,5.591667]}},{"id":"40613","type":"Feature","properties":{"ident":"SK-055","type":"small_airport","name":"Caño Grande Airport","elevation_ft":"426","continent":"NA","iso_country":"CO","iso_region":"CO-CAS","municipality":"San Luis de Palenque","scheduled_service":"no","local_code":"CAA"},"geometry":{"type":"Point","coordinates":[-71.141944,5.1725]}},{"id":"353304","type":"Feature","properties":{"ident":"CO-0065","type":"small_airport","name":"Cejal Airport","elevation_ft":"322","continent":"SA","iso_country":"CO","iso_region":"CO-VID","municipality":"Cejal","scheduled_service":"no"},"geometry":{"type":"Point","coordinates":[-68.33819,3.99822]}},{"id":"40557","type":"Feature","properties":{"ident":"SK-512","type":"small_airport","name":"Centro Administrativo Airport","elevation_ft":"274","continent":"SA","iso_country":"CO","iso_region":"CO-VID","municipality":"Santa Rita","scheduled_service":"no","local_code":"CAO"},"geometry":{"type":"Point","coordinates":[-67.866615,5.335174]}},{"id":"45107","type":"Feature","properties":{"ident":"CO-0006","type":"heliport","name":"Centro Administrativo Municipal Heliport","continent":"SA","iso_country":"CO","iso_region":"CO-VAC","municipality":"Cali","scheduled_service":"no","local_code":"CEA"},"geometry":{"type":"Point","coordinates":[-76.536944,3.456389]}},{"id":"45144","type":"Feature","properties":{"ident":"CO-0043","type":"heliport","name":"Centro Comercial Andino Heliport","elevation_ft":"8396","continent":"SA","iso_country":"CO","iso_region":"CO-DC","municipality":"Bogotá","scheduled_service":"no","local_code":"CER"},"geometry":{"type":"Point","coordinates":[-74.056111,4.669167]}},{"id":"45138","type":"Feature","properties":{"ident":"CO-0037","type":"heliport","name":"Centro Internacional Tequendama Heliport","continent":"SA","iso_country":"CO","iso_region":"CO-CUN","municipality":"Bogotá","scheduled_service":"no","local_code":"CEN"},"geometry":{"type":"Point","coordinates":[-74.088333,4.617222]}},{"id":"40700","type":"Feature","properties":{"ident":"SK-248","type":"small_airport","name":"Cerrejón Central Airport","elevation_ft":"395","continent":"SA","iso_country":"CO","iso_region":"CO-LAG","municipality":"Barrancas","scheduled_service":"no","local_code":"BCA"},"geometry":{"type":"Point","coordinates":[-72.695,11.038056]}},{"id":"40868","type":"Feature","properties":{"ident":"SK-405","type":"small_airport","name":"Cerritos Airport","elevation_ft":"756","continent":"SA","iso_country":"CO","iso_region":"CO-TOL","municipality":"Ambalema","scheduled_service":"no","local_code":"CRR"},"geometry":{"type":"Point","coordinates":[-74.78,4.844722]}},{"id":"40764","type":"Feature","properties":{"ident":"SK-153","type":"small_airport","name":"Cerro De Piedra Airport","elevation_ft":"572","continent":"SA","iso_country":"CO","iso_region":"CO-CES","municipality":"La Jagua De Ibirico","scheduled_service":"no","local_code":"LJD"},"geometry":{"type":"Point","coordinates":[-73.293889,9.562222]}},{"id":"40969","type":"Feature","properties":{"ident":"SK-450","type":"small_airport","name":"Chambimbal Airport","elevation_ft":"3078","continent":"SA","iso_country":"CO","iso_region":"CO-VAC","municipality":"San Pedro","scheduled_service":"no","local_code":"CHB"},"geometry":{"type":"Point","coordinates":[-76.2775,3.973056]}},{"id":"40617","type":"Feature","properties":{"ident":"SK-056","type":"small_airport","name":"Chaparrito Airport","elevation_ft":"456","continent":"SA","iso_country":"CO","iso_region":"CO-CAS","municipality":"Paz De Ariporo","scheduled_service":"no","local_code":"PZR"},"geometry":{"type":"Point","coordinates":[-71.217222,5.56]}},{"id":"40963","type":"Feature","properties":{"ident":"SK-199","type":"small_airport","name":"Chapinero Airport","elevation_ft":"2360","continent":"SA","iso_country":"CO","iso_region":"CO-COR","municipality":"Tierralta","scheduled_service":"no","local_code":"CHR"},"geometry":{"type":"Point","coordinates":[-76.079722,7.346944]}},{"id":"40892","type":"Feature","properties":{"ident":"SK-406","type":"small_airport","name":"Chicoral - Estra Airport","elevation_ft":"1248","continent":"SA","iso_country":"CO","iso_region":"CO-TOL","municipality":"Chicoral","scheduled_service":"no","local_code":"CHA"},"geometry":{"type":"Point","coordinates":[-74.969722,4.202222]}},{"id":"41055","type":"Feature","properties":{"ident":"SK-256","type":"small_airport","name":"Chivolo Airport","elevation_ft":"560","continent":"SA","iso_country":"CO","iso_region":"CO-MAG","municipality":"Chivolo","scheduled_service":"no","iata_code":"IVO","local_code":"IVO"},"geometry":{"type":"Point","coordinates":[-74.683333,10.016667]}},{"id":"6125","type":"Feature","properties":{"ident":"SKIO","type":"small_airport","name":"Cicuco Airport","elevation_ft":"65","continent":"SA","iso_country":"CO","iso_region":"CO-BOL","municipality":"Limón","scheduled_service":"no","gps_code":"SKIO","local_code":"CIO","wikipedia_link":"https://en.wikipedia.org/wiki/Cicuco_Airport"},"geometry":{"type":"Point","coordinates":[-74.6523,9.26878]}},{"id":"30831","type":"Feature","properties":{"ident":"SKCM","type":"small_airport","name":"Cimitarra Airport","elevation_ft":"740","continent":"SA","iso_country":"CO","iso_region":"CO-SAN","municipality":"Cimitarra","scheduled_service":"no","gps_code":"SKCM","iata_code":"CIM","local_code":"CIM","wikipedia_link":"https://en.wikipedia.org/wiki/Cimitarra_Airport"},"geometry":{"type":"Point","coordinates":[-73.970658,6.367484]}},{"id":"40690","type":"Feature","properties":{"ident":"SK-368","type":"small_airport","name":"Cinera Airport","elevation_ft":"233","continent":"SA","iso_country":"CO","iso_region":"CO-NSA","municipality":"Cúcuta","scheduled_service":"no","local_code":"CRA"},"geometry":{"type":"Point","coordinates":[-72.5,8.2]}},{"id":"40838","type":"Feature","properties":{"ident":"SK-044","type":"small_airport","name":"Ciudad Yari Airport","elevation_ft":"950","continent":"SA","iso_country":"CO","iso_region":"CO-CAQ","municipality":"San Vicente Del Caguán","scheduled_service":"no","local_code":"CDY"},"geometry":{"type":"Point","coordinates":[-73.866667,1.583333]}},{"id":"40713","type":"Feature","properties":{"ident":"SK-057","type":"small_airport","name":"Ciénaga Airport","elevation_ft":"5270","continent":"SA","iso_country":"CO","iso_region":"CO-CAS","municipality":"Yopal","scheduled_service":"no","local_code":"YPL"},"geometry":{"type":"Point","coordinates":[-72.868611,5.248056]}},{"id":"45143","type":"Feature","properties":{"ident":"CO-0042","type":"heliport","name":"Clinica Shaio Heliport","continent":"SA","iso_country":"CO","iso_region":"CO-CUN","municipality":"Bogotá","scheduled_service":"no","local_code":"CLI"},"geometry":{"type":"Point","coordinates":[-74.0675,4.700833]}},{"id":"353411","type":"Feature","properties":{"ident":"CO-0070","type":"small_airport","name":"Cocosolo Airport","elevation_ft":"20","continent":"SA","iso_country":"CO","iso_region":"CO-BOL","municipality":"Cartagena de Indias","scheduled_service":"no"},"geometry":{"type":"Point","coordinates":[-75.50218,10.35052]}},{"id":"45113","type":"Feature","properties":{"ident":"CO-0012","type":"heliport","name":"Cofa Buga Heliport","continent":"SA","iso_country":"CO","iso_region":"CO-VAC","municipality":"Buga","scheduled_service":"no","local_code":"COB"},"geometry":{"type":"Point","coordinates":[-76.305833,3.895556]}},{"id":"45116","type":"Feature","properties":{"ident":"CO-0015","type":"heliport","name":"Cofa Montenegro Heliport","continent":"SA","iso_country":"CO","iso_region":"CO-QUI","municipality":"Montenegro","scheduled_service":"no","local_code":"1CO"},"geometry":{"type":"Point","coordinates":[-75.786389,4.508333]}},{"id":"45115","type":"Feature","properties":{"ident":"CO-0014","type":"heliport","name":"Cofa Roldanillo Heliport","continent":"SA","iso_country":"CO","iso_region":"CO-VAC","municipality":"Roldanillo","scheduled_service":"no","local_code":"ICR"},"geometry":{"type":"Point","coordinates":[-76.143333,4.413611]}},{"id":"45114","type":"Feature","properties":{"ident":"CO-0013","type":"heliport","name":"Cofa-Palmira Heliport","continent":"SA","iso_country":"CO","iso_region":"CO-VAC","municipality":"Palmira","scheduled_service":"no","local_code":"COA"},"geometry":{"type":"Point","coordinates":[-76.305556,3.514722]}},{"id":"40704","type":"Feature","properties":{"ident":"SK-058","type":"small_airport","name":"Colegial Airport","elevation_ft":"585","continent":"SA","iso_country":"CO","iso_region":"CO-CAS","municipality":"Villanueva","scheduled_service":"no","local_code":"VNL"},"geometry":{"type":"Point","coordinates":[-72.760278,4.487222]}},{"id":"40871","type":"Feature","properties":{"ident":"SK-210","type":"small_airport","name":"Colombaima Airport","elevation_ft":"745","continent":"SA","iso_country":"CO","iso_region":"CO-CUN","municipality":"Beltran","scheduled_service":"no","local_code":"COL"},"geometry":{"type":"Point","coordinates":[-74.805,4.739167]}},{"id":"40756","type":"Feature","properties":{"ident":"SK-380","type":"small_airport","name":"Comuneros Airport","elevation_ft":"5138","continent":"SA","iso_country":"CO","iso_region":"CO-SAN","municipality":"El Socorro","scheduled_service":"no","local_code":"ELS"},"geometry":{"type":"Point","coordinates":[-73.256389,6.386667]}},{"id":"40865","type":"Feature","properties":{"ident":"SK-257","type":"small_airport","name":"Corral Nuevo Airport","elevation_ft":"124","continent":"SA","iso_country":"CO","iso_region":"CO-MAG","municipality":"Plato","scheduled_service":"no","local_code":"CRN"},"geometry":{"type":"Point","coordinates":[-74.645833,9.693611]}},{"id":"40711","type":"Feature","properties":{"ident":"SK-249","type":"small_airport","name":"Cotoprix Airport","elevation_ft":"192","continent":"SA","iso_country":"CO","iso_region":"CO-LAG","municipality":"Riohacha","scheduled_service":"no","local_code":"CTP"},"geometry":{"type":"Point","coordinates":[-72.836111,11.223611]}},{"id":"6114","type":"Feature","properties":{"ident":"SKCV","type":"medium_airport","name":"Coveñas Airport","elevation_ft":"31","continent":"SA","iso_country":"CO","iso_region":"CO-SUC","municipality":"Coveñas","scheduled_service":"no","gps_code":"SKCV","iata_code":"CVE","local_code":"CVE","wikipedia_link":"https://en.wikipedia.org/wiki/Cove%C3%B1as_Airport"},"geometry":{"type":"Point","coordinates":[-75.6913,9.40092]}},{"id":"6111","type":"Feature","properties":{"ident":"SKCN","type":"small_airport","name":"Cravo Norte Airport","elevation_ft":"341","continent":"SA","iso_country":"CO","iso_region":"CO-ARA","municipality":"Cravo Norte","scheduled_service":"no","gps_code":"SKCN","iata_code":"RAV","local_code":"RAV","home_link":"https://www.aerocivil.gov.co/aeropuertos/Pages/cravo-norte.aspx","wikipedia_link":"https://en.wikipedia.org/wiki/Cravo_Norte_Airport"},"geometry":{"type":"Point","coordinates":[-70.21137,6.316404]}},{"id":"40917","type":"Feature","properties":{"ident":"SK-407","type":"small_airport","name":"Cruz Verde Airport","elevation_ft":"3039","continent":"SA","iso_country":"CO","iso_region":"CO-TOL","municipality":"Ibague","scheduled_service":"no","gps_code":"SKCE","local_code":"CVT","wikipedia_link":"https://en.wikipedia.org/wiki/Cruz_Verde_Airport"},"geometry":{"type":"Point","coordinates":[-75.14,4.41]}},{"id":"40606","type":"Feature","properties":{"ident":"SK-513","type":"small_airport","name":"Cumachagua Airport","elevation_ft":"433","continent":"SA","iso_country":"CO","iso_region":"CO-VID","municipality":"Santa Rosalìa","scheduled_service":"no","local_code":"CAV"},"geometry":{"type":"Point","coordinates":[-70.883333,4.016667]}},{"id":"40569","type":"Feature","properties":{"ident":"SK-514","type":"small_airport","name":"Cumaribo Airport","elevation_ft":"550","continent":"SA","iso_country":"CO","iso_region":"CO-VID","municipality":"Cumaribo","scheduled_service":"no","gps_code":"SKUM","local_code":"PCE","wikipedia_link":"https://en.wikipedia.org/wiki/Cumaribo_Airport"},"geometry":{"type":"Point","coordinates":[-69.7807,4.4483]}},{"id":"45099","type":"Feature","properties":{"ident":"SKCP","type":"small_airport","name":"Cupica Airport","continent":"SA","iso_country":"CO","iso_region":"CO-CHO","municipality":"Bahía Solano","scheduled_service":"no","gps_code":"SKCP","iata_code":"BHF","wikipedia_link":"https://en.wikipedia.org/wiki/Cupica_Airport"},"geometry":{"type":"Point","coordinates":[-77.493643,6.694817]}},{"id":"41027","type":"Feature","properties":{"ident":"SK-059","type":"small_airport","name":"Currillo Airport","elevation_ft":"495","continent":"SA","iso_country":"CO","iso_region":"CO-CAS","municipality":"Currillo","scheduled_service":"no","iata_code":"CUI","local_code":"CUI"},"geometry":{"type":"Point","coordinates":[-72,4.666667]}},{"id":"40698","type":"Feature","properties":{"ident":"SK-060","type":"small_airport","name":"Cusiana Airport","elevation_ft":"847","continent":"SA","iso_country":"CO","iso_region":"CO-CAS","municipality":"Tauramena","scheduled_service":"no","local_code":"CUS"},"geometry":{"type":"Point","coordinates":[-72.636667,4.973889]}},{"id":"40988","type":"Feature","properties":{"ident":"SK-451","type":"small_airport","name":"Darien Calima Airport","elevation_ft":"7417","continent":"SA","iso_country":"CO","iso_region":"CO-VAC","municipality":"Darien","scheduled_service":"no","local_code":"DAR"},"geometry":{"type":"Point","coordinates":[-76.516667,3.95]}},{"id":"45131","type":"Feature","properties":{"ident":"CO-0030","type":"heliport","name":"Drummond Heliport","continent":"SA","iso_country":"CO","iso_region":"CO-MAG","municipality":"Cienaga","scheduled_service":"no","local_code":"DRU"},"geometry":{"type":"Point","coordinates":[-74.211111,11.059722]}},{"id":"40662","type":"Feature","properties":{"ident":"SK-061","type":"small_airport","name":"Dumacita Airport","elevation_ft":"492","continent":"SA","iso_country":"CO","iso_region":"CO-CAS","municipality":"Maní","scheduled_service":"no","local_code":"MIN"},"geometry":{"type":"Point","coordinates":[-72.04,4.481667]}},{"id":"45149","type":"Feature","properties":{"ident":"CO-0048","type":"heliport","name":"Ecopetrol Heliport","continent":"SA","iso_country":"CO","iso_region":"CO-SAN","municipality":"Barrancabermeja","scheduled_service":"no","local_code":"ECO"},"geometry":{"type":"Point","coordinates":[-73.865,7.0775]}},{"id":"6164","type":"Feature","properties":{"ident":"SKSV","type":"medium_airport","name":"Eduardo Falla Solano Airport","elevation_ft":"920","continent":"SA","iso_country":"CO","iso_region":"CO-CAQ","municipality":"San Vicente Del Caguán","scheduled_service":"yes","gps_code":"SKSV","iata_code":"SVI","local_code":"SVI","wikipedia_link":"https://en.wikipedia.org/wiki/Eduardo_Falla_Solano_Airport"},"geometry":{"type":"Point","coordinates":[-74.7663,2.15217]}},{"id":"40904","type":"Feature","properties":{"ident":"SK-408","type":"small_airport","name":"El Aceituno Airport","elevation_ft":"2131","continent":"SA","iso_country":"CO","iso_region":"CO-TOL","municipality":"Ibague","scheduled_service":"no","local_code":"ECB"},"geometry":{"type":"Point","coordinates":[-75.024167,4.347222]}},{"id":"40909","type":"Feature","properties":{"ident":"SK-393","type":"small_airport","name":"El Algarrobo Airport","elevation_ft":"56","continent":"SA","iso_country":"CO","iso_region":"CO-SUC","municipality":"San Marcos","scheduled_service":"no","local_code":"EAS"},"geometry":{"type":"Point","coordinates":[-75.070833,8.501111]}},{"id":"6116","type":"Feature","properties":{"ident":"SKEB","type":"medium_airport","name":"El Bagre Airport","elevation_ft":"180","continent":"SA","iso_country":"CO","iso_region":"CO-ANT","municipality":"El Bagre","scheduled_service":"no","gps_code":"SKEB","iata_code":"EBG","local_code":"EBG","wikipedia_link":"https://en.wikipedia.org/wiki/El_Bagre_Airport","keywords":"El Tomin Airport"},"geometry":{"type":"Point","coordinates":[-74.8089,7.59647]}},{"id":"40629","type":"Feature","properties":{"ident":"SK-062","type":"small_airport","name":"El Boral Airport","elevation_ft":"427","continent":"SA","iso_country":"CO","iso_region":"CO-CAS","municipality":"Orocue","scheduled_service":"no","local_code":"ORR"},"geometry":{"type":"Point","coordinates":[-71.503333,4.734722]}},{"id":"40788","type":"Feature","properties":{"ident":"SK-155","type":"small_airport","name":"El Bosque Airport","elevation_ft":"249","continent":"SA","iso_country":"CO","iso_region":"CO-CES","municipality":"San Alberto","scheduled_service":"no","local_code":"SAR"},"geometry":{"type":"Point","coordinates":[-73.448333,7.810556]}},{"id":"40643","type":"Feature","properties":{"ident":"SK-063","type":"small_airport","name":"El Caimán Airport","elevation_ft":"485","continent":"SA","iso_country":"CO","iso_region":"CO-CAS","municipality":"Orocue","scheduled_service":"no","local_code":"ORE"},"geometry":{"type":"Point","coordinates":[-71.683889,4.856389]}},{"id":"519298","type":"Feature","properties":{"ident":"SQIR","type":"small_airport","name":"El Cairano Airport","elevation_ft":"10","continent":"SA","iso_country":"CO","iso_region":"CO-ATL","municipality":"El Cairano","scheduled_service":"no","gps_code":"SQIR"},"geometry":{"type":"Point","coordinates":[-75.264825,10.712573]}},{"id":"40781","type":"Feature","properties":{"ident":"SK-278","type":"small_airport","name":"El Cairo Airport","elevation_ft":"849","continent":"SA","iso_country":"CO","iso_region":"CO-MET","municipality":"Castilla La Nueva","scheduled_service":"no","local_code":"ELC"},"geometry":{"type":"Point","coordinates":[-73.385833,3.773056]}},{"id":"40614","type":"Feature","properties":{"ident":"SK-064","type":"small_airport","name":"El Cairo Airport","elevation_ft":"460","continent":"SA","iso_country":"CO","iso_region":"CO-CAS","municipality":"Hato Corozal","scheduled_service":"no","local_code":"HCO"},"geometry":{"type":"Point","coordinates":[-71.204444,6.064722]}},{"id":"6172","type":"Feature","properties":{"ident":"SKUI","type":"medium_airport","name":"El Caraño Airport","elevation_ft":"204","continent":"SA","iso_country":"CO","iso_region":"CO-CHO","municipality":"Quibdó","scheduled_service":"yes","gps_code":"SKUI","iata_code":"UIB","local_code":"UIB","wikipedia_link":"https://en.wikipedia.org/wiki/El_Cara%C3%B1o_Airport"},"geometry":{"type":"Point","coordinates":[-76.6412,5.69076]}},{"id":"40803","type":"Feature","properties":{"ident":"SK-381","type":"small_airport","name":"El Carmen Airport","elevation_ft":"956","continent":"SA","iso_country":"CO","iso_region":"CO-SAN","municipality":"El Carmen","scheduled_service":"no","local_code":"ECC"},"geometry":{"type":"Point","coordinates":[-73.554444,6.740556]}},{"id":"40857","type":"Feature","properties":{"ident":"SK-258","type":"small_airport","name":"El Carmen Airport","elevation_ft":"88","continent":"SA","iso_country":"CO","iso_region":"CO-MAG","municipality":"Guamal","scheduled_service":"no","local_code":"ECM"},"geometry":{"type":"Point","coordinates":[-74.211944,9.170278]}},{"id":"40916","type":"Feature","properties":{"ident":"SK-200","type":"small_airport","name":"El Cebruno Airport","elevation_ft":"81","continent":"SA","iso_country":"CO","iso_region":"CO-COR","municipality":"Ayapel","scheduled_service":"no","local_code":"CEB"},"geometry":{"type":"Point","coordinates":[-75.132222,8.329167]}},{"id":"40946","type":"Feature","properties":{"ident":"SK-372","type":"small_airport","name":"El Cedrito Airport","elevation_ft":"4366","continent":"SA","iso_country":"CO","iso_region":"CO-QUI","municipality":"Armenia","scheduled_service":"no","local_code":"ARE"},"geometry":{"type":"Point","coordinates":[-75.723889,4.556944]}},{"id":"41084","type":"Feature","properties":{"ident":"SK-360","type":"small_airport","name":"El Charco Airport","elevation_ft":"25","continent":"SA","iso_country":"CO","iso_region":"CO-NAR","municipality":"El Charco","scheduled_service":"no","gps_code":"SKEH","iata_code":"ECR","local_code":"ECR"},"geometry":{"type":"Point","coordinates":[-78.094167,2.449444]}},{"id":"40562","type":"Feature","properties":{"ident":"SK-515","type":"small_airport","name":"El Cimarrón Airport","elevation_ft":"359","continent":"SA","iso_country":"CO","iso_region":"CO-VID","municipality":"La Primavera","scheduled_service":"no","local_code":"LPR"},"geometry":{"type":"Point","coordinates":[-69.264444,5.939722]}},{"id":"40773","type":"Feature","properties":{"ident":"SK-279","type":"small_airport","name":"El Convento Airport","elevation_ft":"843","continent":"SA","iso_country":"CO","iso_region":"CO-MET","municipality":"Villavicencio","scheduled_service":"no","local_code":"VIC"},"geometry":{"type":"Point","coordinates":[-73.355556,4.026944]}},{"id":"40845","type":"Feature","properties":{"ident":"SK-259","type":"small_airport","name":"El Coraje Airport","elevation_ft":"260","continent":"SA","iso_country":"CO","iso_region":"CO-MAG","municipality":"Ariguani","scheduled_service":"no","local_code":"AUR"},"geometry":{"type":"Point","coordinates":[-74.02,10.038056]}},{"id":"40618","type":"Feature","properties":{"ident":"SK-065","type":"small_airport","name":"El Danubio Airport","elevation_ft":"480","continent":"SA","iso_country":"CO","iso_region":"CO-CAS","municipality":"Hato Corozal","scheduled_service":"no","local_code":"HTC"},"geometry":{"type":"Point","coordinates":[-71.224722,6.261111]}},{"id":"519297","type":"Feature","properties":{"ident":"SQED","type":"small_airport","name":"El Delirio Airport","elevation_ft":"427","continent":"SA","iso_country":"CO","iso_region":"CO-ARA","municipality":"El Delirio","scheduled_service":"no","gps_code":"SQED"},"geometry":{"type":"Point","coordinates":[-70.880857,6.982348]}},{"id":"40666","type":"Feature","properties":{"ident":"SK-066","type":"small_airport","name":"El Deshecho Airport","elevation_ft":"840","continent":"SA","iso_country":"CO","iso_region":"CO-CAS","municipality":"Nunchia","scheduled_service":"no","local_code":"NUN"},"geometry":{"type":"Point","coordinates":[-72.067778,5.621944]}},{"id":"40887","type":"Feature","properties":{"ident":"SK-409","type":"small_airport","name":"El Diamante Airport","elevation_ft":"1268","continent":"SA","iso_country":"CO","iso_region":"CO-TOL","municipality":"Alvarado","scheduled_service":"no","local_code":"ALV"},"geometry":{"type":"Point","coordinates":[-74.939167,4.571667]}},{"id":"40956","type":"Feature","properties":{"ident":"SK-375","type":"small_airport","name":"El Diamante Airport","elevation_ft":"3891","continent":"SA","iso_country":"CO","iso_region":"CO-RIS","municipality":"Pereira","scheduled_service":"no","local_code":"PEP"},"geometry":{"type":"Point","coordinates":[-75.845278,4.823611]}},{"id":"40737","type":"Feature","properties":{"ident":"SK-280","type":"small_airport","name":"El Diamante Airport","elevation_ft":"698","continent":"SA","iso_country":"CO","iso_region":"CO-MET","municipality":"Villavicencio","scheduled_service":"no","local_code":"VCC"},"geometry":{"type":"Point","coordinates":[-73.176667,3.893333]}},{"id":"6104","type":"Feature","properties":{"ident":"SKBO","type":"large_airport","name":"El Dorado International Airport","elevation_ft":"8361","continent":"SA","iso_country":"CO","iso_region":"CO-DC","municipality":"Bogota","scheduled_service":"yes","gps_code":"SKBO","iata_code":"BOG","local_code":"BOG","home_link":"https://eldorado.aero/","wikipedia_link":"https://en.wikipedia.org/wiki/El_Dorado_International_Airport","keywords":"Cundinamarca"},"geometry":{"type":"Point","coordinates":[-74.1469,4.70159]}},{"id":"6099","type":"Feature","properties":{"ident":"SKAR","type":"medium_airport","name":"El Eden Airport","elevation_ft":"3990","continent":"SA","iso_country":"CO","iso_region":"CO-QUI","municipality":"Armenia","scheduled_service":"yes","gps_code":"SKAR","iata_code":"AXM","local_code":"AXM","wikipedia_link":"https://en.wikipedia.org/wiki/El_Ed%C3%A9n_Airport"},"geometry":{"type":"Point","coordinates":[-75.7664,4.45278]}},{"id":"40728","type":"Feature","properties":{"ident":"SK-281","type":"small_airport","name":"El Edén Airport","elevation_ft":"632","continent":"SA","iso_country":"CO","iso_region":"CO-MET","municipality":"Cabuyaro","scheduled_service":"no","local_code":"CYO"},"geometry":{"type":"Point","coordinates":[-73.074167,4.304167]}},{"id":"40859","type":"Feature","properties":{"ident":"SK-260","type":"small_airport","name":"El Edén Airport","elevation_ft":"165","continent":"SA","iso_country":"CO","iso_region":"CO-MAG","municipality":"Santana","scheduled_service":"no","local_code":"STA"},"geometry":{"type":"Point","coordinates":[-74.339167,9.519722]}},{"id":"6155","type":"Feature","properties":{"ident":"SKPV","type":"medium_airport","name":"El Embrujo Airport","elevation_ft":"10","continent":"NA","iso_country":"CO","iso_region":"CO-SAP","municipality":"Providencia","scheduled_service":"yes","gps_code":"SKPV","iata_code":"PVA","local_code":"PVA","wikipedia_link":"https://en.wikipedia.org/wiki/El_Embrujo_Airport"},"geometry":{"type":"Point","coordinates":[-81.357977,13.357461]}},{"id":"41037","type":"Feature","properties":{"ident":"SK-002","type":"small_airport","name":"El Encanto Airport","elevation_ft":"420","continent":"SA","iso_country":"CO","iso_region":"CO-AMA","municipality":"El Encanto","scheduled_service":"no","iata_code":"ECO","local_code":"ECO"},"geometry":{"type":"Point","coordinates":[-73.204722,-1.753333]}},{"id":"40910","type":"Feature","properties":{"ident":"SK-410","type":"small_airport","name":"El Escobal Airport","elevation_ft":"2479","continent":"SA","iso_country":"CO","iso_region":"CO-TOL","municipality":"Ibague","scheduled_service":"no","local_code":"EET"},"geometry":{"type":"Point","coordinates":[-75.070833,4.395556]}},{"id":"40555","type":"Feature","properties":{"ident":"SK-030","type":"small_airport","name":"El Esfuerzo Airport","elevation_ft":"44","continent":"SA","iso_country":"CO","iso_region":"CO-ATL","municipality":"Manatí","scheduled_service":"no","local_code":"EEA"},"geometry":{"type":"Point","coordinates":[-74.9623,10.4552]}},{"id":"40876","type":"Feature","properties":{"ident":"SK-411","type":"small_airport","name":"El Espinal Airport","elevation_ft":"1031","continent":"SA","iso_country":"CO","iso_region":"CO-TOL","municipality":"El Espinal","scheduled_service":"no","local_code":"ESP"},"geometry":{"type":"Point","coordinates":[-74.871111,4.150556]}},{"id":"40862","type":"Feature","properties":{"ident":"SK-039","type":"small_airport","name":"El Espino Airport","elevation_ft":"7123","continent":"SA","iso_country":"CO","iso_region":"CO-BOY","municipality":"El Espino","scheduled_service":"no","local_code":"EEB"},"geometry":{"type":"Point","coordinates":[-72.504635,6.48813]}},{"id":"342467","type":"Feature","properties":{"ident":"EEB","type":"small_airport","name":"El Espino Airport","elevation_ft":"7126","continent":"SA","iso_country":"CO","iso_region":"CO-BOY","municipality":"El Espino","scheduled_service":"no","local_code":"EEB","keywords":"SQSY"},"geometry":{"type":"Point","coordinates":[-72.50388,6.4884]}},{"id":"40568","type":"Feature","properties":{"ident":"SK-516","type":"small_airport","name":"El Gavilán Airport","elevation_ft":"381","continent":"SA","iso_country":"CO","iso_region":"CO-VID","municipality":"La Primavera","scheduled_service":"no","local_code":"LPG"},"geometry":{"type":"Point","coordinates":[-69.737222,5.226667]}},{"id":"40997","type":"Feature","properties":{"ident":"SK-136","type":"small_airport","name":"El Guayabx Airport","elevation_ft":"2980","continent":"SA","iso_country":"CO","iso_region":"CO-CAU","municipality":"Patia","scheduled_service":"no","local_code":"EGY"},"geometry":{"type":"Point","coordinates":[-76.955,2.091111]}},{"id":"40928","type":"Feature","properties":{"ident":"SK-233","type":"small_airport","name":"El Juncal Airport","elevation_ft":"1524","continent":"SA","iso_country":"CO","iso_region":"CO-HUI","municipality":"Palermo","scheduled_service":"no","local_code":"EJU"},"geometry":{"type":"Point","coordinates":[-75.313056,2.846944]}},{"id":"40931","type":"Feature","properties":{"ident":"SK-234","type":"small_airport","name":"El Limonar Airport","elevation_ft":"1888","continent":"SA","iso_country":"CO","iso_region":"CO-HUI","municipality":"Campo Alegre","scheduled_service":"no","local_code":"ELH"},"geometry":{"type":"Point","coordinates":[-75.356944,2.626944]}},{"id":"40778","type":"Feature","properties":{"ident":"SK-382","type":"small_airport","name":"El Marne Airport","elevation_ft":"416","continent":"SA","iso_country":"CO","iso_region":"CO-SAN","municipality":"Rionegro","scheduled_service":"no","local_code":"ELM"},"geometry":{"type":"Point","coordinates":[-73.376111,7.428333]}},{"id":"40645","type":"Feature","properties":{"ident":"SK-067","type":"small_airport","name":"El Medano Airport","elevation_ft":"481","continent":"SA","iso_country":"CO","iso_region":"CO-CAS","municipality":"Orocue","scheduled_service":"no","local_code":"ORU"},"geometry":{"type":"Point","coordinates":[-71.7125,4.799722]}},{"id":"40979","type":"Feature","properties":{"ident":"SK-452","type":"small_airport","name":"El Milagro Airport","elevation_ft":"3082","continent":"SA","iso_country":"CO","iso_region":"CO-VAC","municipality":"Buga","scheduled_service":"no","local_code":"BGN"},"geometry":{"type":"Point","coordinates":[-76.337222,3.853889]}},{"id":"40758","type":"Feature","properties":{"ident":"SK-156","type":"small_airport","name":"El Monasterio Airport","elevation_ft":"745","continent":"SA","iso_country":"CO","iso_region":"CO-CES","municipality":"Acacias","scheduled_service":"no","local_code":"ACI"},"geometry":{"type":"Point","coordinates":[-73.258333,8.944722]}},{"id":"40685","type":"Feature","properties":{"ident":"SK-068","type":"small_airport","name":"El Moriche Airport","elevation_ft":"670","continent":"SA","iso_country":"CO","iso_region":"CO-CAS","municipality":"Aguazul","scheduled_service":"no","local_code":"AGM"},"geometry":{"type":"Point","coordinates":[-72.406944,5.015556]}},{"id":"41057","type":"Feature","properties":{"ident":"SKCH","type":"small_airport","name":"El Pacífico Airport","elevation_ft":"754","continent":"SA","iso_country":"CO","iso_region":"CO-CAQ","municipality":"Cartagena Del Chiara","scheduled_service":"no","gps_code":"SKCH","local_code":"CCH"},"geometry":{"type":"Point","coordinates":[-74.84,1.35]}},{"id":"45111","type":"Feature","properties":{"ident":"CO-0010","type":"heliport","name":"El Pailon Heliport","continent":"SA","iso_country":"CO","iso_region":"CO-VAC","municipality":"Candelaria","scheduled_service":"no"},"geometry":{"type":"Point","coordinates":[-76.350556,3.410556]}},{"id":"40902","type":"Feature","properties":{"ident":"SK-412","type":"small_airport","name":"El Paraíso Airport","elevation_ft":"2187","continent":"SA","iso_country":"CO","iso_region":"CO-TOL","municipality":"Ibague","scheduled_service":"no","local_code":"EPR"},"geometry":{"type":"Point","coordinates":[-75.023333,4.386667]}},{"id":"40810","type":"Feature","properties":{"ident":"AGI","type":"small_airport","name":"El Paraíso Airport","elevation_ft":"303","continent":"SA","iso_country":"CO","iso_region":"CO-CES","municipality":"Aguachica","scheduled_service":"no","local_code":"AGI"},"geometry":{"type":"Point","coordinates":[-73.584722,8.128611]}},{"id":"40966","type":"Feature","properties":{"ident":"SK-006","type":"small_airport","name":"El Plateado Airport","elevation_ft":"5555","continent":"SA","iso_country":"CO","iso_region":"CO-ANT","municipality":"Frontino","scheduled_service":"no","local_code":"FRO"},"geometry":{"type":"Point","coordinates":[-76.146389,6.730556]}},{"id":"40807","type":"Feature","properties":{"ident":"SK-383","type":"small_airport","name":"El Porvenir Airport","elevation_ft":"499","continent":"SA","iso_country":"CO","iso_region":"CO-SAN","municipality":"Puerto Wilches","scheduled_service":"no","local_code":"PWC"},"geometry":{"type":"Point","coordinates":[-73.578611,7.310278]}},{"id":"40684","type":"Feature","properties":{"ident":"SK-069","type":"small_airport","name":"El Porvenir Airport","elevation_ft":"787","continent":"SA","iso_country":"CO","iso_region":"CO-CAS","municipality":"Aguazul","scheduled_service":"no","local_code":"AZG"},"geometry":{"type":"Point","coordinates":[-72.406667,5.199722]}},{"id":"40768","type":"Feature","properties":{"ident":"SK-282","type":"small_airport","name":"El Prado Airport","elevation_ft":"777","continent":"SA","iso_country":"CO","iso_region":"CO-MET","municipality":"San Carlos De Guaroa","scheduled_service":"no","local_code":"SCG"},"geometry":{"type":"Point","coordinates":[-73.308611,3.718889]}},{"id":"40832","type":"Feature","properties":{"ident":"SK-283","type":"small_airport","name":"El Progreso Airport","elevation_ft":"944","continent":"SA","iso_country":"CO","iso_region":"CO-MET","municipality":"Granada","scheduled_service":"no","local_code":"GAN"},"geometry":{"type":"Point","coordinates":[-73.730831,3.477891]}},{"id":"41048","type":"Feature","properties":{"ident":"SK-284","type":"small_airport","name":"El Recreo Airport","elevation_ft":"900","continent":"SA","iso_country":"CO","iso_region":"CO-MET","municipality":"Ruperto Polania","scheduled_service":"no","iata_code":"ELJ","local_code":"ELJ"},"geometry":{"type":"Point","coordinates":[-74.133333,2]}},{"id":"40695","type":"Feature","properties":{"ident":"SK-070","type":"small_airport","name":"El Recreo Airport","elevation_ft":"2722","continent":"SA","iso_country":"CO","iso_region":"CO-CAS","municipality":"San Luis De Palenque","scheduled_service":"no","local_code":"ELE"},"geometry":{"type":"Point","coordinates":[-72.577778,5.320556]}},{"id":"40875","type":"Feature","properties":{"ident":"SK-413","type":"small_airport","name":"El Recuerdo Airport","elevation_ft":"968","continent":"SA","iso_country":"CO","iso_region":"CO-TOL","municipality":"Flandes","scheduled_service":"no","local_code":"ELR"},"geometry":{"type":"Point","coordinates":[-74.8375,4.242778]}},{"id":"40731","type":"Feature","properties":{"ident":"SK-285","type":"small_airport","name":"El Rinconcito Airport","elevation_ft":"615","continent":"SA","iso_country":"CO","iso_region":"CO-MET","municipality":"Puerto López","scheduled_service":"no","local_code":"PPZ"},"geometry":{"type":"Point","coordinates":[-73.081111,3.927222]}},{"id":"40941","type":"Feature","properties":{"ident":"SK-394","type":"small_airport","name":"El Rincón de Mucura Airport","elevation_ft":"18","continent":"SA","iso_country":"CO","iso_region":"CO-SUC","municipality":"San Onofre","scheduled_service":"no","local_code":"SOR"},"geometry":{"type":"Point","coordinates":[-75.638056,9.774167]}},{"id":"40635","type":"Feature","properties":{"ident":"SK-286","type":"small_airport","name":"El Rodeo Airport","elevation_ft":"624","continent":"SA","iso_country":"CO","iso_region":"CO-MET","municipality":"Puerto Gaitán","scheduled_service":"no","local_code":"PGO"},"geometry":{"type":"Point","coordinates":[-71.590278,4.415]}},{"id":"40658","type":"Feature","properties":{"ident":"SK-071","type":"small_airport","name":"El Rodeo Airport","elevation_ft":"491","continent":"SA","iso_country":"CO","iso_region":"CO-CAS","municipality":"Orocue","scheduled_service":"no","local_code":"ORM"},"geometry":{"type":"Point","coordinates":[-71.931667,4.753889]}},{"id":"40795","type":"Feature","properties":{"ident":"SK-287","type":"small_airport","name":"El Ruby Airport","elevation_ft":"953","continent":"SA","iso_country":"CO","iso_region":"CO-MET","municipality":"Castilla La Nueva","scheduled_service":"no","local_code":"ELU"},"geometry":{"type":"Point","coordinates":[-73.481667,3.781111]}},{"id":"40869","type":"Feature","properties":{"ident":"SK-414","type":"small_airport","name":"El Santuario Airport","elevation_ft":"750","continent":"SA","iso_country":"CO","iso_region":"CO-TOL","municipality":"Ambalema","scheduled_service":"no","local_code":"AMB"},"geometry":{"type":"Point","coordinates":[-74.785,4.905278]}},{"id":"40935","type":"Feature","properties":{"ident":"SK-032","type":"small_airport","name":"El Tambo Airport","elevation_ft":"82","continent":"SA","iso_country":"CO","iso_region":"CO-BOL","municipality":"Bayunca","scheduled_service":"no","local_code":"BYA"},"geometry":{"type":"Point","coordinates":[-75.413611,10.481667]}},{"id":"40560","type":"Feature","properties":{"ident":"SK-517","type":"small_airport","name":"El Tapón Airport","elevation_ft":"419","continent":"SA","iso_country":"CO","iso_region":"CO-VID","municipality":"El Tapón","scheduled_service":"no","local_code":"ETA"},"geometry":{"type":"Point","coordinates":[-69.183333,5.15]}},{"id":"40816","type":"Feature","properties":{"ident":"SK-384","type":"small_airport","name":"El Tornillo Airport","elevation_ft":"246","continent":"SA","iso_country":"CO","iso_region":"CO-SAN","municipality":"Rionegro","scheduled_service":"no","local_code":"ETO"},"geometry":{"type":"Point","coordinates":[-73.6225,7.621667]}},{"id":"40870","type":"Feature","properties":{"ident":"SK-415","type":"small_airport","name":"El Triunfo Airport","elevation_ft":"761","continent":"SA","iso_country":"CO","iso_region":"CO-TOL","municipality":"Ambalema","scheduled_service":"no","local_code":"ETR"},"geometry":{"type":"Point","coordinates":[-74.8025,4.868889]}},{"id":"429705","type":"Feature","properties":{"ident":"SKAT","type":"small_airport","name":"El Troncal Airport","elevation_ft":"512","continent":"SA","iso_country":"CO","iso_region":"CO-ARA","municipality":"Arauquita","scheduled_service":"no","gps_code":"SKAT","iata_code":"ARQ","local_code":"ARQ","wikipedia_link":"https://en.wikipedia.org/wiki/El_Troncal_Airport"},"geometry":{"type":"Point","coordinates":[-71.388901,7.02106]}},{"id":"40721","type":"Feature","properties":{"ident":"SK-288","type":"small_airport","name":"El Vergel Airport","elevation_ft":"589","continent":"NA","iso_country":"CO","iso_region":"CO-MET","municipality":"Cabuyaro","scheduled_service":"no","local_code":"CRY"},"geometry":{"type":"Point","coordinates":[-72.997149,4.20644]}},{"id":"40633","type":"Feature","properties":{"ident":"SK-072","type":"small_airport","name":"El Viejo Carmen Airport","elevation_ft":"476","continent":"SA","iso_country":"CO","iso_region":"CO-CAS","municipality":"Orocue","scheduled_service":"no","local_code":"OCE"},"geometry":{"type":"Point","coordinates":[-71.568333,4.8875]}},{"id":"40715","type":"Feature","properties":{"ident":"SK-073","type":"small_airport","name":"El Vigía Airport","elevation_ft":"725","continent":"SA","iso_country":"CO","iso_region":"CO-CAS","municipality":"Villanueva","scheduled_service":"no","local_code":"EVC"},"geometry":{"type":"Point","coordinates":[-72.9425,4.562222]}},{"id":"40929","type":"Feature","properties":{"ident":"SK-235","type":"small_airport","name":"El Viso Airport","elevation_ft":"1579","continent":"SA","iso_country":"CO","iso_region":"CO-HUI","municipality":"Campo Alegre","scheduled_service":"no","local_code":"CUM"},"geometry":{"type":"Point","coordinates":[-75.331944,2.734167]}},{"id":"6178","type":"Feature","properties":{"ident":"SKYP","type":"medium_airport","name":"El Yopal Airport","elevation_ft":"1028","continent":"SA","iso_country":"CO","iso_region":"CO-CAS","municipality":"El Yopal","scheduled_service":"yes","gps_code":"SKYP","iata_code":"EYP","local_code":"EYP","wikipedia_link":"https://en.wikipedia.org/wiki/El_Alcarav%C3%A1n_Airport"},"geometry":{"type":"Point","coordinates":[-72.384,5.31911]}},{"id":"40681","type":"Feature","properties":{"ident":"SK-074","type":"small_airport","name":"El Zamuro Airport","elevation_ft":"688","continent":"SA","iso_country":"CO","iso_region":"CO-CAS","municipality":"El Yopal","scheduled_service":"no","local_code":"ELZ"},"geometry":{"type":"Point","coordinates":[-72.336944,5.124444]}},{"id":"40789","type":"Feature","properties":{"ident":"SK-158","type":"small_airport","name":"Elborrego Airport","elevation_ft":"229","continent":"SA","iso_country":"CO","iso_region":"CO-CES","municipality":"La Loma","scheduled_service":"no","local_code":"LJB"},"geometry":{"type":"Point","coordinates":[-73.455278,9.587778]}},{"id":"40649","type":"Feature","properties":{"ident":"SK-075","type":"small_airport","name":"Elf Trinidad Airport","elevation_ft":"581","continent":"SA","iso_country":"CO","iso_region":"CO-CAS","municipality":"Trinidad","scheduled_service":"no","local_code":"TDI"},"geometry":{"type":"Point","coordinates":[-71.770833,5.504444]}},{"id":"6132","type":"Feature","properties":{"ident":"SKMD","type":"medium_airport","name":"Enrique Olaya Herrera Airport","elevation_ft":"4949","continent":"SA","iso_country":"CO","iso_region":"CO-ANT","municipality":"Medellín","scheduled_service":"yes","gps_code":"SKMD","iata_code":"EOH","local_code":"EOH","wikipedia_link":"https://en.wikipedia.org/wiki/Enrique_Olaya_Herrera_International_Airport"},"geometry":{"type":"Point","coordinates":[-75.590582,6.220549]}},{"id":"6105","type":"Feature","properties":{"ident":"SKBQ","type":"medium_airport","name":"Ernesto Cortissoz International Airport","elevation_ft":"98","continent":"SA","iso_country":"CO","iso_region":"CO-ATL","municipality":"Barranquilla","scheduled_service":"yes","gps_code":"SKBQ","iata_code":"BAQ","local_code":"BAQ","wikipedia_link":"https://en.wikipedia.org/wiki/Ernesto_Cortissoz_International_Airport"},"geometry":{"type":"Point","coordinates":[-74.7808,10.8896]}},{"id":"45151","type":"Feature","properties":{"ident":"CO-0050","type":"heliport","name":"Estacion De Bomberos Heliport","continent":"SA","iso_country":"CO","iso_region":"CO-SAN","municipality":"Bucaramanga","scheduled_service":"no","local_code":"EST"},"geometry":{"type":"Point","coordinates":[-73.129167,7.113611]}},{"id":"40667","type":"Feature","properties":{"ident":"SK-076","type":"small_airport","name":"Estero Airport","elevation_ft":"524","continent":"SA","iso_country":"CO","iso_region":"CO-CAS","municipality":"Maní","scheduled_service":"no","local_code":"MAI"},"geometry":{"type":"Point","coordinates":[-72.123611,4.676389]}},{"id":"40824","type":"Feature","properties":{"ident":"SK-159","type":"small_airport","name":"Fabal-Coal Airport","elevation_ft":"191","continent":"SA","iso_country":"CO","iso_region":"CO-CES","municipality":"Gamarra","scheduled_service":"no","local_code":"AFC"},"geometry":{"type":"Point","coordinates":[-73.693611,8.247222]}},{"id":"6139","type":"Feature","properties":{"ident":"SKMU","type":"medium_airport","name":"Fabio Alberto Leon Bentley Airport","elevation_ft":"680","continent":"SA","iso_country":"CO","iso_region":"CO-VAU","municipality":"Mitú","scheduled_service":"yes","gps_code":"SKMU","iata_code":"MVP","local_code":"MVP","wikipedia_link":"https://en.wikipedia.org/wiki/Fabio_Alberto_Le%C3%B3n_Bentley_Airport"},"geometry":{"type":"Point","coordinates":[-70.2339,1.25366]}},{"id":"40900","type":"Feature","properties":{"ident":"SK-416","type":"small_airport","name":"Facón Saldaña Airport","elevation_ft":"1014","continent":"SA","iso_country":"CO","iso_region":"CO-TOL","municipality":"Saldaña","scheduled_service":"no","local_code":"SSL"},"geometry":{"type":"Point","coordinates":[-75.016667,3.916667]}},{"id":"40692","type":"Feature","properties":{"ident":"SK-077","type":"small_airport","name":"Fasca Main Base Airport","elevation_ft":"853","continent":"SA","iso_country":"CO","iso_region":"CO-CAS","municipality":"Aguazul","scheduled_service":"no","local_code":"FCA"},"geometry":{"type":"Point","coordinates":[-72.520833,5.155278]}},{"id":"505193","type":"Feature","properties":{"ident":"CO-0079","type":"small_airport","name":"Finca San Jacinto Airport","elevation_ft":"72","continent":"SA","iso_country":"CO","iso_region":"CO-ANT","municipality":"Apartadó","scheduled_service":"no"},"geometry":{"type":"Point","coordinates":[-76.65152,7.90635]}},{"id":"45135","type":"Feature","properties":{"ident":"CO-0034","type":"heliport","name":"Fiscalia General De La Nacion Heliport","continent":"SA","iso_country":"CO","iso_region":"CO-CUN","municipality":"Bogota","scheduled_service":"no","local_code":"FIS"},"geometry":{"type":"Point","coordinates":[-74.103333,4.641944]}},{"id":"45152","type":"Feature","properties":{"ident":"CO-0051","type":"heliport","name":"Fundacion Oftalmologica De Santander Heliport","continent":"SA","iso_country":"CO","iso_region":"CO-SAN","municipality":"Bucaramanga","scheduled_service":"no","local_code":"FUA"},"geometry":{"type":"Point","coordinates":[-73.115278,7.074722]}},{"id":"31104","type":"Feature","properties":{"ident":"SKFU","type":"small_airport","name":"Fundación Airport","elevation_ft":"150","continent":"SA","iso_country":"CO","iso_region":"CO-MAG","municipality":"Fundación","scheduled_service":"no","gps_code":"SKFU","iata_code":"FDA","local_code":"FDA"},"geometry":{"type":"Point","coordinates":[-74.2,10.5333]}},{"id":"45119","type":"Feature","properties":{"ident":"CO-0018","type":"heliport","name":"Fundicion Escobar Heliport","continent":"SA","iso_country":"CO","iso_region":"CO-ANT","municipality":"Medellin","scheduled_service":"no","local_code":"FUI"},"geometry":{"type":"Point","coordinates":[-75.576389,6.246944]}},{"id":"45118","type":"Feature","properties":{"ident":"CO-0017","type":"heliport","name":"Fundicion Gutierrez Heliport","continent":"SA","iso_country":"CO","iso_region":"CO-ANT","municipality":"Medellin","scheduled_service":"no","local_code":"FUD"},"geometry":{"type":"Point","coordinates":[-75.578611,6.25]}},{"id":"32310","type":"Feature","properties":{"ident":"SKFR","type":"small_airport","name":"Furatena Airport","elevation_ft":"3850","continent":"SA","iso_country":"CO","iso_region":"CO-BOY","municipality":"Quipama","scheduled_service":"no","gps_code":"SKFR","local_code":"QPM","wikipedia_link":"https://en.wikipedia.org/wiki/Furatena_Airport"},"geometry":{"type":"Point","coordinates":[-74.1869,5.5275]}},{"id":"41045","type":"Feature","properties":{"ident":"SK-160","type":"small_airport","name":"Gamarra Airport","elevation_ft":"130","continent":"NA","iso_country":"CO","iso_region":"CO-CES","municipality":"Puerto Mosquito","scheduled_service":"no","iata_code":"GRA","local_code":"GRA"},"geometry":{"type":"Point","coordinates":[-73.7653,8.20199]}},{"id":"40867","type":"Feature","properties":{"ident":"SK-417","type":"small_airport","name":"Ganadería Airport","elevation_ft":"762","continent":"SA","iso_country":"CO","iso_region":"CO-TOL","municipality":"Honda","scheduled_service":"no","local_code":"GTT"},"geometry":{"type":"Point","coordinates":[-74.764167,5.170278]}},{"id":"40793","type":"Feature","properties":{"ident":"SK-289","type":"small_airport","name":"Gaviotas Airport","elevation_ft":"805","continent":"SA","iso_country":"CO","iso_region":"CO-MET","municipality":"Puerto Lleras","scheduled_service":"no","local_code":"PUL"},"geometry":{"type":"Point","coordinates":[-73.4675,3.365833]}},{"id":"30847","type":"Feature","properties":{"ident":"SKHA","type":"small_airport","name":"General Navas Pardo Airport","elevation_ft":"2730","continent":"SA","iso_country":"CO","iso_region":"CO-TOL","municipality":"Chaparral","scheduled_service":"no","gps_code":"SKHA","iata_code":"CPL","local_code":"CPL","wikipedia_link":"https://en.wikipedia.org/wiki/General_Navas_Pardo_Airport"},"geometry":{"type":"Point","coordinates":[-75.465785,3.724293]}},{"id":"6107","type":"Feature","properties":{"ident":"SKBU","type":"medium_airport","name":"Gerardo Tobar López Airport","elevation_ft":"48","continent":"SA","iso_country":"CO","iso_region":"CO-VAC","municipality":"Buenaventura","scheduled_service":"yes","gps_code":"SKBU","iata_code":"BUN","local_code":"BUN","wikipedia_link":"https://en.wikipedia.org/wiki/Gerardo_Tobar_L%C3%B3pez_Airport"},"geometry":{"type":"Point","coordinates":[-76.9898,3.81963]}},{"id":"6152","type":"Feature","properties":{"ident":"SKPQ","type":"medium_airport","name":"German Olano Air Base","elevation_ft":"566","continent":"SA","iso_country":"CO","iso_region":"CO-CUN","municipality":"La Dorada","scheduled_service":"no","gps_code":"SKPQ","iata_code":"PAL","local_code":"PQE","wikipedia_link":"https://en.wikipedia.org/wiki/Captain_Germ%C3%A1n_Olano_Moreno_Air_Base","keywords":"Palanquero Airport"},"geometry":{"type":"Point","coordinates":[-74.6574,5.48361]}},{"id":"6146","type":"Feature","properties":{"ident":"SKPC","type":"medium_airport","name":"German Olano Airport","elevation_ft":"177","continent":"SA","iso_country":"CO","iso_region":"CO-VID","municipality":"Puerto Carreño","scheduled_service":"yes","gps_code":"SKPC","iata_code":"PCR","local_code":"PCR","wikipedia_link":"https://en.wikipedia.org/wiki/Germ%C3%A1n_Olano_Airport","keywords":"Puerto Carreño Airport"},"geometry":{"type":"Point","coordinates":[-67.4932,6.18472]}},{"id":"40825","type":"Feature","properties":{"ident":"SK-161","type":"small_airport","name":"Germania Airport","elevation_ft":"225","continent":"SA","iso_country":"CO","iso_region":"CO-CES","municipality":"Gamarra","scheduled_service":"no","local_code":"GER"},"geometry":{"type":"Point","coordinates":[-73.695,8.333333]}},{"id":"40677","type":"Feature","properties":{"ident":"SK-078","type":"small_airport","name":"Germania Airport","elevation_ft":"702","continent":"SA","iso_country":"CO","iso_region":"CO-CAS","municipality":"Yopal","scheduled_service":"no","local_code":"YPP"},"geometry":{"type":"Point","coordinates":[-72.32,5.186111]}},{"id":"32460","type":"Feature","properties":{"ident":"SKTL","type":"small_airport","name":"Golfo de Morrosquillo Airport","elevation_ft":"16","continent":"SA","iso_country":"CO","iso_region":"CO-SUC","municipality":"Santiago de Tolú","scheduled_service":"yes","gps_code":"SKTL","iata_code":"TLU","local_code":"TLU","wikipedia_link":"https://en.wikipedia.org/wiki/Golfo_de_Morrosquillo_Airport"},"geometry":{"type":"Point","coordinates":[-75.5854,9.50945]}},{"id":"6098","type":"Feature","properties":{"ident":"SKAP","type":"medium_airport","name":"Gomez Nino Apiay Air Base","elevation_ft":"1207","continent":"SA","iso_country":"CO","iso_region":"CO-MET","municipality":"Apiay","scheduled_service":"no","gps_code":"SKAP","iata_code":"API","local_code":"APY","wikipedia_link":"https://en.wikipedia.org/wiki/Captain_Luis_F._G%C3%B3mez_Ni%C3%B1o_Air_Base"},"geometry":{"type":"Point","coordinates":[-73.5627,4.07607]}},{"id":"32475","type":"Feature","properties":{"ident":"SKTU","type":"heliport","name":"Gonzalo Mejía Airport","elevation_ft":"6","continent":"SA","iso_country":"CO","iso_region":"CO-ANT","municipality":"Turbo","scheduled_service":"no","gps_code":"SKTU","iata_code":"TRB","local_code":"TRB","wikipedia_link":"https://en.wikipedia.org/wiki/Gonzalo_Mej%C3%ADa_Airport"},"geometry":{"type":"Point","coordinates":[-76.740124,8.071878]}},{"id":"41058","type":"Feature","properties":{"ident":"SK-236","type":"small_airport","name":"Guacamayas Airport","elevation_ft":"1500","continent":"SA","iso_country":"CO","iso_region":"CO-HUI","municipality":"Guacamayas","scheduled_service":"no","iata_code":"GCA","local_code":"GCA"},"geometry":{"type":"Point","coordinates":[-74.95,2.283333]}},{"id":"40920","type":"Feature","properties":{"ident":"SK-418","type":"small_airport","name":"Guadalaja Airport","elevation_ft":"2913","continent":"SA","iso_country":"CO","iso_region":"CO-TOL","municipality":"Ibague","scheduled_service":"no","local_code":"GUT"},"geometry":{"type":"Point","coordinates":[-75.159444,4.366944]}},{"id":"40716","type":"Feature","properties":{"ident":"SK-290","type":"small_airport","name":"Guaicarano Airport","elevation_ft":"650","continent":"SA","iso_country":"CO","iso_region":"CO-MET","municipality":"Barranco De Upía","scheduled_service":"no","local_code":"BAR"},"geometry":{"type":"Point","coordinates":[-72.95,4.460556]}},{"id":"41050","type":"Feature","properties":{"ident":"SK-261","type":"small_airport","name":"Guamal Airport","elevation_ft":"65","continent":"SA","iso_country":"CO","iso_region":"CO-MAG","municipality":"Guamal","scheduled_service":"no","iata_code":"GAA","local_code":"GAA"},"geometry":{"type":"Point","coordinates":[-74.233333,9.15]}},{"id":"40933","type":"Feature","properties":{"ident":"SK-237","type":"small_airport","name":"Guamito Airport","elevation_ft":"1773","continent":"SA","iso_country":"CO","iso_region":"CO-HUI","municipality":"Palermo","scheduled_service":"no","local_code":"GUN"},"geometry":{"type":"Point","coordinates":[-75.396667,2.914167]}},{"id":"40794","type":"Feature","properties":{"ident":"SK-291","type":"small_airport","name":"Guamitos Airport","elevation_ft":"950","continent":"SA","iso_country":"CO","iso_region":"CO-MET","municipality":"Castilla La Nueva","scheduled_service":"no","local_code":"CVA"},"geometry":{"type":"Point","coordinates":[-73.476389,3.827778]}},{"id":"40889","type":"Feature","properties":{"ident":"SK-419","type":"small_airport","name":"Guamo - Asta Airport","elevation_ft":"1003","continent":"SA","iso_country":"CO","iso_region":"CO-TOL","municipality":"El Guamo","scheduled_service":"no","local_code":"GMO"},"geometry":{"type":"Point","coordinates":[-74.95,4]}},{"id":"40625","type":"Feature","properties":{"ident":"SK-079","type":"small_airport","name":"Guanapalo Airport","elevation_ft":"475","continent":"SA","iso_country":"CO","iso_region":"CO-CAS","municipality":"Orocue","scheduled_service":"no","local_code":"ORO"},"geometry":{"type":"Point","coordinates":[-71.428889,5.180556]}},{"id":"40806","type":"Feature","properties":{"ident":"SK-292","type":"small_airport","name":"Guanayas Airport","elevation_ft":"832","continent":"SA","iso_country":"CO","iso_region":"CO-MET","municipality":"Fuente De Oro","scheduled_service":"no","local_code":"FEO"},"geometry":{"type":"Point","coordinates":[-73.577778,3.353889]}},{"id":"40636","type":"Feature","properties":{"ident":"SK-080","type":"small_airport","name":"Guarilaque Airport","elevation_ft":"6375","continent":"SA","iso_country":"CO","iso_region":"CO-CAS","municipality":"Orocue","scheduled_service":"no","local_code":"ORA"},"geometry":{"type":"Point","coordinates":[-71.592222,4.89]}},{"id":"6123","type":"Feature","properties":{"ident":"SKGY","type":"small_airport","name":"Guaymaral Airport","elevation_ft":"8390","continent":"NA","iso_country":"CO","iso_region":"CO-DC","municipality":"Chía","scheduled_service":"no","gps_code":"SKGY","local_code":"GYM","wikipedia_link":"https://en.wikipedia.org/wiki/Guaymaral_Airport"},"geometry":{"type":"Point","coordinates":[-74.0649,4.81233]}},{"id":"40586","type":"Feature","properties":{"ident":"SK-518","type":"small_airport","name":"Guerima Airport","elevation_ft":"471","continent":"SA","iso_country":"CO","iso_region":"CO-VID","municipality":"Puerto Carreño","scheduled_service":"no","gps_code":"SKUV","iata_code":"GMC","local_code":"GRM"},"geometry":{"type":"Point","coordinates":[-70.323028,3.629996]}},{"id":"41021","type":"Feature","properties":{"ident":"SK-293","type":"small_airport","name":"Guerima Airport","elevation_ft":"606","continent":"NA","iso_country":"CO","iso_region":"CO-MET","municipality":"Guerima","scheduled_service":"no","local_code":"GMC"},"geometry":{"type":"Point","coordinates":[-71.166667,3.633333]}},{"id":"6151","type":"Feature","properties":{"ident":"SKPP","type":"medium_airport","name":"Guillermo León Valencia Airport","elevation_ft":"5687","continent":"SA","iso_country":"CO","iso_region":"CO-CAU","municipality":"Popayán","scheduled_service":"yes","gps_code":"SKPP","iata_code":"PPN","local_code":"PPN","wikipedia_link":"https://en.wikipedia.org/wiki/Guillermo_Leon_Valencia_Airport"},"geometry":{"type":"Point","coordinates":[-76.6093,2.4544]}},{"id":"41008","type":"Feature","properties":{"ident":"SK-361","type":"small_airport","name":"Guinulero Airport","elevation_ft":"23","continent":"SA","iso_country":"CO","iso_region":"CO-NAR","municipality":"Tumaco","scheduled_service":"no","local_code":"GUI"},"geometry":{"type":"Point","coordinates":[-78.940278,1.727778]}},{"id":"6118","type":"Feature","properties":{"ident":"SKFL","type":"medium_airport","name":"Gustavo Artunduaga Paredes Airport","elevation_ft":"803","continent":"SA","iso_country":"CO","iso_region":"CO-CAQ","municipality":"Florencia","scheduled_service":"yes","gps_code":"SKFL","iata_code":"FLA","local_code":"FLA","wikipedia_link":"https://en.wikipedia.org/wiki/Gustavo_Artunduaga_Paredes_Airport"},"geometry":{"type":"Point","coordinates":[-75.5644,1.58919]}},{"id":"6163","type":"Feature","properties":{"ident":"SKSP","type":"medium_airport","name":"Gustavo Rojas Pinilla International Airport","elevation_ft":"19","continent":"NA","iso_country":"CO","iso_region":"CO-SAP","municipality":"San Andrés","scheduled_service":"yes","gps_code":"SKSP","iata_code":"ADZ","local_code":"ADZ","wikipedia_link":"https://en.wikipedia.org/wiki/Gustavo_Rojas_Pinilla_International_Airport"},"geometry":{"type":"Point","coordinates":[-81.7112,12.5836]}},{"id":"6168","type":"Feature","properties":{"ident":"SKTM","type":"medium_airport","name":"Gustavo Vargas Airport","elevation_ft":"1050","continent":"SA","iso_country":"CO","iso_region":"CO-ARA","municipality":"Tame","scheduled_service":"yes","gps_code":"SKTM","iata_code":"TME","local_code":"TME","wikipedia_link":"https://en.wikipedia.org/wiki/Gabriel_Vargas_Santos_Airport"},"geometry":{"type":"Point","coordinates":[-71.7603,6.45108]}},{"id":"32306","type":"Feature","properties":{"ident":"SKAG","type":"small_airport","name":"Hacaritama Airport","elevation_ft":"545","continent":"NA","iso_country":"CO","iso_region":"CO-CES","municipality":"Aguachica","scheduled_service":"no","gps_code":"SKAG","iata_code":"HAY","local_code":"AGH","wikipedia_link":"https://en.wikipedia.org/wiki/Hacaritama_Airport"},"geometry":{"type":"Point","coordinates":[-73.5814,8.247]}},{"id":"40877","type":"Feature","properties":{"ident":"SK-420","type":"small_airport","name":"Hacienda García Airport","elevation_ft":"1087","continent":"SA","iso_country":"CO","iso_region":"CO-TOL","municipality":"Lérida","scheduled_service":"no","local_code":"LRI"},"geometry":{"type":"Point","coordinates":[-74.889167,4.853889]}},{"id":"40958","type":"Feature","properties":{"ident":"SK-453","type":"small_airport","name":"Hacienda La Elvira Airport","elevation_ft":"3307","continent":"SA","iso_country":"CO","iso_region":"CO-VAC","municipality":"Obando","scheduled_service":"no","local_code":"HEV"},"geometry":{"type":"Point","coordinates":[-75.921667,4.618056]}},{"id":"40556","type":"Feature","properties":{"ident":"SK-031","type":"small_airport","name":"Hacienda Veracruz Airport","elevation_ft":"44","continent":"SA","iso_country":"CO","iso_region":"CO-ATL","municipality":"Hacienda Veracruz","scheduled_service":"no"},"geometry":{"type":"Point","coordinates":[-75.064791,10.573707]}},{"id":"40815","type":"Feature","properties":{"ident":"SK-294","type":"small_airport","name":"Halcones Airport","elevation_ft":"852","continent":"SA","iso_country":"CO","iso_region":"CO-MET","municipality":"Fuente De Oro","scheduled_service":"no","local_code":"FUR"},"geometry":{"type":"Point","coordinates":[-73.613333,3.373056]}},{"id":"31651","type":"Feature","properties":{"ident":"SKHC","type":"small_airport","name":"Hato Corozal Airport","elevation_ft":"820","continent":"NA","iso_country":"CO","iso_region":"CO-CAS","municipality":"Hato Corozal","scheduled_service":"no","gps_code":"SKHC","iata_code":"HTZ","local_code":"HTZ","home_link":"https://www.aerocivil.gov.co/aeropuertos/Pages/hato-corozal.aspx","wikipedia_link":"https://en.wikipedia.org/wiki/Hato_Corozal_Airport"},"geometry":{"type":"Point","coordinates":[-71.761969,6.153311]}},{"id":"40913","type":"Feature","properties":{"ident":"SK-421","type":"small_airport","name":"Hato De Opia Airport","elevation_ft":"2601","continent":"SA","iso_country":"CO","iso_region":"CO-TOL","municipality":"Ibague","scheduled_service":"no","local_code":"HOP"},"geometry":{"type":"Point","coordinates":[-75.083056,4.421667]}},{"id":"40624","type":"Feature","properties":{"ident":"SK-081","type":"small_airport","name":"Hato La Aurora Airport","elevation_ft":"512","continent":"SA","iso_country":"CO","iso_region":"CO-CAS","municipality":"Hato Corozal","scheduled_service":"no","local_code":"HOZ"},"geometry":{"type":"Point","coordinates":[-71.381944,6.033056]}},{"id":"40646","type":"Feature","properties":{"ident":"SK-295","type":"small_airport","name":"Hato La Esperanza Airport","elevation_ft":"666","continent":"SA","iso_country":"CO","iso_region":"CO-MET","municipality":"Puerto Gaitán","scheduled_service":"no","local_code":"HLE"},"geometry":{"type":"Point","coordinates":[-71.718056,4.2375]}},{"id":"45132","type":"Feature","properties":{"ident":"CO-0031","type":"heliport","name":"Helicentro Heliport","continent":"SA","iso_country":"CO","iso_region":"CO-CUN","municipality":"Cota","scheduled_service":"no","local_code":"HEI"},"geometry":{"type":"Point","coordinates":[-74.146667,4.746389]}},