{"type":"FeatureCollection","features":[{"id":"41922","type":"Feature","properties":{"ident":"MRAD","type":"small_airport","name":"Aerodamas Airport","elevation_ft":"18","continent":"NA","iso_country":"CR","iso_region":"CR-P","municipality":"Quepos","scheduled_service":"no","gps_code":"MRAD"},"geometry":{"type":"Point","coordinates":[-84.209,9.457777]}},{"id":"4795","type":"Feature","properties":{"ident":"MRAO","type":"medium_airport","name":"Aerotortuguero Airport","elevation_ft":"92","continent":"NA","iso_country":"CR","iso_region":"CR-L","municipality":"Roxana","scheduled_service":"yes","gps_code":"MRAO","iata_code":"TTQ"},"geometry":{"type":"Point","coordinates":[-83.6095,10.42]}},{"id":"41977","type":"Feature","properties":{"ident":"MRPT","type":"small_airport","name":"Agropecuaria Playa Caletas Airport","elevation_ft":"7","continent":"NA","iso_country":"CR","iso_region":"CR-G","municipality":"Nicoya/Guanacate","scheduled_service":"no","gps_code":"MRPT"},"geometry":{"type":"Point","coordinates":[-85.250738,9.750128]}},{"id":"326342","type":"Feature","properties":{"ident":"MRAG","type":"small_airport","name":"Altagracia Airport","elevation_ft":"3168","continent":"NA","iso_country":"CR","iso_region":"CR-SJ","municipality":"AltaGracia Resort","scheduled_service":"no","gps_code":"MRAG"},"geometry":{"type":"Point","coordinates":[-83.582653,9.332707]}},{"id":"41927","type":"Feature","properties":{"ident":"MRAT","type":"small_airport","name":"Altamira de San Carlos Airport","elevation_ft":"226","continent":"NA","iso_country":"CR","iso_region":"CR-A","municipality":"San Carlos","scheduled_service":"no","gps_code":"MRAT"},"geometry":{"type":"Point","coordinates":[-84.366699,10.5167]}},{"id":"326341","type":"Feature","properties":{"ident":"MRAL","type":"small_airport","name":"Altomonte Airport","elevation_ft":"2822","continent":"NA","iso_country":"CR","iso_region":"CR-SJ","municipality":"Trinidad","scheduled_service":"no","gps_code":"MRAL"},"geometry":{"type":"Point","coordinates":[-83.626046,9.363861]}},{"id":"41924","type":"Feature","properties":{"ident":"MRAM","type":"small_airport","name":"Amubri Airport","elevation_ft":"301","continent":"NA","iso_country":"CR","iso_region":"CR-L","municipality":"Amubri","scheduled_service":"no","gps_code":"MRAM"},"geometry":{"type":"Point","coordinates":[-82.954697,9.52163]}},{"id":"41923","type":"Feature","properties":{"ident":"MRAJ","type":"small_airport","name":"Aranjuez Airport","elevation_ft":"52","continent":"NA","iso_country":"CR","iso_region":"CR-P","municipality":"Miramar","scheduled_service":"no","gps_code":"MRAJ"},"geometry":{"type":"Point","coordinates":[-84.807556,10.057268]}},{"id":"41926","type":"Feature","properties":{"ident":"MRAR","type":"small_airport","name":"Atirro Airport","elevation_ft":"1936","continent":"NA","iso_country":"CR","iso_region":"CR-C","municipality":"Turrialba","scheduled_service":"no","gps_code":"MRAR"},"geometry":{"type":"Point","coordinates":[-83.650002,9.85]}},{"id":"41928","type":"Feature","properties":{"ident":"MRBB","type":"small_airport","name":"Babilonia Airport","elevation_ft":"591","continent":"NA","iso_country":"CR","iso_region":"CR-L","municipality":"Siquirres","scheduled_service":"no","gps_code":"MRBB"},"geometry":{"type":"Point","coordinates":[-83.583336,10.133333]}},{"id":"41932","type":"Feature","properties":{"ident":"MRBP","type":"small_airport","name":"Barra de Parismina Airport","elevation_ft":"7","continent":"NA","iso_country":"CR","iso_region":"CR-L","municipality":"Pococi","scheduled_service":"no","gps_code":"MRBP"},"geometry":{"type":"Point","coordinates":[-83.349998,10.3]}},{"id":"4797","type":"Feature","properties":{"ident":"MRBC","type":"medium_airport","name":"Barra del Colorado Airport","elevation_ft":"3","continent":"NA","iso_country":"CR","iso_region":"CR-L","municipality":"Pococi","scheduled_service":"yes","gps_code":"MRBC","iata_code":"BCL","wikipedia_link":"https://en.wikipedia.org/wiki/Barra_del_Colorado_Airport"},"geometry":{"type":"Point","coordinates":[-83.585602,10.7687]}},{"id":"314927","type":"Feature","properties":{"ident":"MRBT","type":"small_airport","name":"Barra del Tortuguero","elevation_ft":"19","continent":"NA","iso_country":"CR","iso_region":"CR-L","municipality":"Tortuguero","scheduled_service":"no","gps_code":"MRBT","wikipedia_link":"https://en.wikipedia.org/wiki/Tortuguero_Airport"},"geometry":{"type":"Point","coordinates":[-83.5149,10.569]}},{"id":"41930","type":"Feature","properties":{"ident":"MRBN","type":"small_airport","name":"Bataan (Monte Libano) Airport","elevation_ft":"39","continent":"NA","iso_country":"CR","iso_region":"CR-L","municipality":"Limón","scheduled_service":"no","gps_code":"MRBN"},"geometry":{"type":"Point","coordinates":[-83.316666,10.083333]}},{"id":"41931","type":"Feature","properties":{"ident":"MRBO","type":"small_airport","name":"Boca Naranjo Airport","elevation_ft":"15","continent":"NA","iso_country":"CR","iso_region":"CR-P","municipality":"Quepos","scheduled_service":"no","gps_code":"MRBO"},"geometry":{"type":"Point","coordinates":[-84.11896,9.401526]}},{"id":"41929","type":"Feature","properties":{"ident":"MRBM","type":"small_airport","name":"Bremen Airport","elevation_ft":"102","continent":"NA","iso_country":"CR","iso_region":"CR-L","municipality":"Guacimo","scheduled_service":"no","gps_code":"MRBM"},"geometry":{"type":"Point","coordinates":[-83.584503,10.2195]}},{"id":"4796","type":"Feature","properties":{"ident":"MRBA","type":"medium_airport","name":"Buenos Aires Airport","elevation_ft":"1214","continent":"NA","iso_country":"CR","iso_region":"CR-P","municipality":"Punta Arenas","scheduled_service":"no","gps_code":"MRBA","iata_code":"BAI","wikipedia_link":"https://en.wikipedia.org/wiki/Buenos_Aires_Airport_(Costa_Rica)"},"geometry":{"type":"Point","coordinates":[-83.330171,9.163949]}},{"id":"4800","type":"Feature","properties":{"ident":"MRCV","type":"small_airport","name":"Cabo Velas Airport","elevation_ft":"33","continent":"NA","iso_country":"CR","iso_region":"CR-G","municipality":"Nicoya","scheduled_service":"no","gps_code":"MRCV"},"geometry":{"type":"Point","coordinates":[-85.852898,10.3557]}},{"id":"326339","type":"Feature","properties":{"ident":"MRCJ","type":"small_airport","name":"Cajuela/San Isidro Airport","elevation_ft":"2575","continent":"NA","iso_country":"CR","iso_region":"CR-SJ","municipality":"San Isidro","scheduled_service":"no","gps_code":"MRCJ"},"geometry":{"type":"Point","coordinates":[-83.68812,9.38862]}},{"id":"519480","type":"Feature","properties":{"ident":"MRCD","type":"small_airport","name":"Cangrejo Verde Airport","elevation_ft":"50","continent":"NA","iso_country":"CR","iso_region":"CR-P","municipality":"Cangrejo-Verde","scheduled_service":"no","gps_code":"MRCD"},"geometry":{"type":"Point","coordinates":[-82.983333,8.5]}},{"id":"41934","type":"Feature","properties":{"ident":"MRCE","type":"small_airport","name":"Carate Airport","elevation_ft":"16","continent":"NA","iso_country":"CR","iso_region":"CR-P","municipality":"Golfito","scheduled_service":"no","gps_code":"MRCE"},"geometry":{"type":"Point","coordinates":[-83.464996,8.44511]}},{"id":"41938","type":"Feature","properties":{"ident":"MRCZ","type":"small_airport","name":"Carrizal Airport","elevation_ft":"4650","continent":"NA","iso_country":"CR","iso_region":"CR-A","municipality":"Carrizal","scheduled_service":"no","gps_code":"MRCZ"},"geometry":{"type":"Point","coordinates":[-84.169502,10.0876]}},{"id":"41920","type":"Feature","properties":{"ident":"MECT","type":"small_airport","name":"Catsa Airport","elevation_ft":"66","continent":"NA","iso_country":"CR","iso_region":"CR-G","municipality":"Liberia","scheduled_service":"no","gps_code":"MRCT"},"geometry":{"type":"Point","coordinates":[-85.556313,10.518483]}},{"id":"4799","type":"Feature","properties":{"ident":"MRCH","type":"small_airport","name":"Chacarita Airport","elevation_ft":"7","continent":"NA","iso_country":"CR","iso_region":"CR-P","municipality":"Puntarenas","scheduled_service":"no","gps_code":"MRCH","iata_code":"JAP"},"geometry":{"type":"Point","coordinates":[-84.772697,9.98141]}},{"id":"41935","type":"Feature","properties":{"ident":"MRCI","type":"small_airport","name":"Ciruelas Airport","elevation_ft":"361","continent":"NA","iso_country":"CR","iso_region":"CR-G","municipality":"Bagaces","scheduled_service":"no","gps_code":"MRCI"},"geometry":{"type":"Point","coordinates":[-85.349998,10.516667]}},{"id":"41933","type":"Feature","properties":{"ident":"MRCA","type":"small_airport","name":"Codela Airport","elevation_ft":"328","continent":"NA","iso_country":"CR","iso_region":"CR-G","municipality":"Guapiles","scheduled_service":"no","gps_code":"MRCA"},"geometry":{"type":"Point","coordinates":[-85.091698,10.414]}},{"id":"4798","type":"Feature","properties":{"ident":"MRCC","type":"medium_airport","name":"Coto 47 Airport","elevation_ft":"26","continent":"NA","iso_country":"CR","iso_region":"CR-P","municipality":"Corredores","scheduled_service":"yes","gps_code":"MRCC","iata_code":"OTR"},"geometry":{"type":"Point","coordinates":[-82.968597,8.60156]}},{"id":"41936","type":"Feature","properties":{"ident":"MRCL","type":"small_airport","name":"Coyolar Airport","elevation_ft":"262","continent":"NA","iso_country":"CR","iso_region":"CR-G","municipality":"Liberia","scheduled_service":"no","gps_code":"MRCL"},"geometry":{"type":"Point","coordinates":[-85.511391,10.667222]}},{"id":"519426","type":"Feature","properties":{"ident":"CR-0006","type":"small_airport","name":"Cóbano Airport","elevation_ft":"502","continent":"NA","iso_country":"CR","iso_region":"CR-P","municipality":"Cóbano","scheduled_service":"no","gps_code":"MRAF","iata_code":"ACO","home_link":"https://www.cobanoairport.com/"},"geometry":{"type":"Point","coordinates":[-85.091216,9.693365]}},{"id":"31946","type":"Feature","properties":{"ident":"MRDO","type":"small_airport","name":"Dieciocho Airport","elevation_ft":"19","continent":"NA","iso_country":"CR","iso_region":"CR-P","municipality":"Puntarenas","scheduled_service":"no","gps_code":"MRDO"},"geometry":{"type":"Point","coordinates":[-83.429802,8.9037]}},{"id":"519485","type":"Feature","properties":{"ident":"MRDV","type":"small_airport","name":"Dole Venecia Airport","elevation_ft":"765","continent":"NA","iso_country":"CR","iso_region":"CR-A","municipality":"Pital","scheduled_service":"no","gps_code":"MRDV"},"geometry":{"type":"Point","coordinates":[-84.268167,10.421667]}},{"id":"41939","type":"Feature","properties":{"ident":"MRDD","type":"small_airport","name":"Don Diego Airport","elevation_ft":"161","continent":"NA","iso_country":"CR","iso_region":"CR-L","municipality":"Limón","scheduled_service":"no","gps_code":"MRDD"},"geometry":{"type":"Point","coordinates":[-82.883331,9.55]}},{"id":"41940","type":"Feature","properties":{"ident":"MRDM","type":"small_airport","name":"Dos Marías Airport","elevation_ft":"16","continent":"NA","iso_country":"CR","iso_region":"CR-P","municipality":"Chorotega","scheduled_service":"no","gps_code":"MRDM"},"geometry":{"type":"Point","coordinates":[-84.989998,9.92791]}},{"id":"31945","type":"Feature","properties":{"ident":"MRDK","type":"small_airport","name":"Drake Bay Airport","elevation_ft":"12","continent":"NA","iso_country":"CR","iso_region":"CR-P","municipality":"Puntarenas","scheduled_service":"no","gps_code":"MRDK","iata_code":"DRK","wikipedia_link":"https://en.wikipedia.org/wiki/Drake_Bay_Airport"},"geometry":{"type":"Point","coordinates":[-83.641701,8.71889]}},{"id":"4801","type":"Feature","properties":{"ident":"MRDC","type":"small_airport","name":"Duacari 2 Airport","elevation_ft":"79","continent":"NA","iso_country":"CR","iso_region":"CR-L","municipality":"Guapiles","scheduled_service":"no","gps_code":"MRDC"},"geometry":{"type":"Point","coordinates":[-83.630501,10.3515]}},{"id":"4802","type":"Feature","properties":{"ident":"MREC","type":"small_airport","name":"El Carmen de Siquirres Airport","elevation_ft":"56","continent":"NA","iso_country":"CR","iso_region":"CR-L","municipality":"Siquirres","scheduled_service":"no","gps_code":"MREC","wikipedia_link":"https://en.wikipedia.org/wiki/El_Carmen_de_Siquirres_Airport"},"geometry":{"type":"Point","coordinates":[-83.472198,10.202]}},{"id":"41942","type":"Feature","properties":{"ident":"MREO","type":"small_airport","name":"El Ceibo Airport","elevation_ft":"33","continent":"NA","iso_country":"CR","iso_region":"CR-H","municipality":"Ticabán","scheduled_service":"no","gps_code":"MREO"},"geometry":{"type":"Point","coordinates":[-83.849998,10.533333]}},{"id":"41937","type":"Feature","properties":{"ident":"MRCO","type":"small_airport","name":"El Cerrito Airport","elevation_ft":"59","continent":"NA","iso_country":"CR","iso_region":"CR-G","municipality":"Filadelfia","scheduled_service":"no","gps_code":"MRCO"},"geometry":{"type":"Point","coordinates":[-85.558197,10.4536]}},{"id":"41941","type":"Feature","properties":{"ident":"MRED","type":"small_airport","name":"El Descanso de Poco Sol Airport","elevation_ft":"23","continent":"NA","iso_country":"CR","iso_region":"CR-A","municipality":"San Carlos","scheduled_service":"no","gps_code":"MRED"},"geometry":{"type":"Point","coordinates":[-84.529054,10.868741]}},{"id":"41943","type":"Feature","properties":{"ident":"MRER","type":"small_airport","name":"El Ron Ron Airport","elevation_ft":"2109","continent":"NA","iso_country":"CR","iso_region":"CR-A","municipality":"Ron Ron","scheduled_service":"no","gps_code":"MRER"},"geometry":{"type":"Point","coordinates":[-84.450104,10.3003]}},{"id":"41944","type":"Feature","properties":{"ident":"MRET","type":"small_airport","name":"Esterillos / Finca Airport","elevation_ft":"20","continent":"NA","iso_country":"CR","iso_region":"CR-P","municipality":"Parrita","scheduled_service":"no","gps_code":"MRET"},"geometry":{"type":"Point","coordinates":[-84.466667,9.533333]}},{"id":"4803","type":"Feature","properties":{"ident":"MRFI","type":"small_airport","name":"Finca 10 / Nuevo Palmar Sur Airport","elevation_ft":"25","continent":"NA","iso_country":"CR","iso_region":"CR-P","municipality":"Puntarenas","scheduled_service":"no","gps_code":"MRFI"},"geometry":{"type":"Point","coordinates":[-83.507301,8.91635]}},{"id":"31947","type":"Feature","properties":{"ident":"MRFS","type":"small_airport","name":"Finca 63 (Coto 63) Airport","elevation_ft":"36","continent":"NA","iso_country":"CR","iso_region":"CR-P","municipality":"Puntarenas","scheduled_service":"no","gps_code":"MRFS"},"geometry":{"type":"Point","coordinates":[-83.0653,8.6525]}},{"id":"41945","type":"Feature","properties":{"ident":"MRFD","type":"small_airport","name":"Finca Delicias Airport","elevation_ft":"26","continent":"NA","iso_country":"CR","iso_region":"CR-P","municipality":"Puerto Cortés","scheduled_service":"no","gps_code":"MRFD","keywords":"Delicias de Puerto Cortes"},"geometry":{"type":"Point","coordinates":[-83.550308,8.957706]}},{"id":"41946","type":"Feature","properties":{"ident":"MRFL","type":"small_airport","name":"Flamingo Airport","elevation_ft":"270","continent":"NA","iso_country":"CR","iso_region":"CR-G","municipality":"Brasilito","scheduled_service":"no","gps_code":"MRFL","iata_code":"FMG"},"geometry":{"type":"Point","coordinates":[-85.7827,10.4186]}},{"id":"41947","type":"Feature","properties":{"ident":"MRFP","type":"small_airport","name":"Frutez - Pital Airport","elevation_ft":"617","continent":"NA","iso_country":"CR","iso_region":"CR-A","municipality":"San Carlos","scheduled_service":"no","gps_code":"MRFP"},"geometry":{"type":"Point","coordinates":[-84.369003,10.4474]}},{"id":"41948","type":"Feature","properties":{"ident":"MRGA","type":"small_airport","name":"Garza Airport","elevation_ft":"3","continent":"NA","iso_country":"CR","iso_region":"CR-G","municipality":"Garza","scheduled_service":"no","gps_code":"MRGA"},"geometry":{"type":"Point","coordinates":[-85.633301,9.9167]}},{"id":"4804","type":"Feature","properties":{"ident":"MRGF","type":"medium_airport","name":"Golfito Airport","elevation_ft":"49","continent":"NA","iso_country":"CR","iso_region":"CR-P","municipality":"Golfito","scheduled_service":"yes","gps_code":"MRGF","iata_code":"GLF"},"geometry":{"type":"Point","coordinates":[-83.182198,8.65401]}},{"id":"32012","type":"Feature","properties":{"ident":"MRNC","type":"small_airport","name":"Guanacaste Airport","elevation_ft":"365","continent":"NA","iso_country":"CR","iso_region":"CR-G","municipality":"Nicoya/Guanacate","scheduled_service":"no","gps_code":"MRNC","iata_code":"NCT"},"geometry":{"type":"Point","coordinates":[-85.445801,10.1394]}},{"id":"4806","type":"Feature","properties":{"ident":"MRLB","type":"large_airport","name":"Guanacaste Airport","elevation_ft":"270","continent":"NA","iso_country":"CR","iso_region":"CR-G","municipality":"Liberia","scheduled_service":"yes","gps_code":"MRLB","iata_code":"LIR","wikipedia_link":"https://en.wikipedia.org/wiki/Daniel_Oduber_Quir%C3%B3s_International_Airport","keywords":"Daniel Oduber Quiros International, Liberia International"},"geometry":{"type":"Point","coordinates":[-85.544403,10.5933]}},{"id":"4805","type":"Feature","properties":{"ident":"MRGP","type":"medium_airport","name":"Guapiles Airport","elevation_ft":"883","continent":"NA","iso_country":"CR","iso_region":"CR-L","municipality":"Pococi","scheduled_service":"no","gps_code":"MRGP","iata_code":"GPL","wikipedia_link":"https://en.wikipedia.org/wiki/Gu%C3%A1piles_Airport"},"geometry":{"type":"Point","coordinates":[-83.796997,10.2172]}},{"id":"41949","type":"Feature","properties":{"ident":"MRGT","type":"small_airport","name":"Guatuso Airport","elevation_ft":"164","continent":"NA","iso_country":"CR","iso_region":"CR-A","municipality":"Alajuela","scheduled_service":"no","gps_code":"MRGT"},"geometry":{"type":"Point","coordinates":[-84.833336,10.683333]}},{"id":"41952","type":"Feature","properties":{"ident":"MRHH","type":"small_airport","name":"Hacienda Homuha Airport","elevation_ft":"230","continent":"NA","iso_country":"CR","iso_region":"CR-A","municipality":"San Carlos","scheduled_service":"no","gps_code":"MRHH"},"geometry":{"type":"Point","coordinates":[-84.366669,10.8]}},{"id":"41954","type":"Feature","properties":{"ident":"MRHP","type":"small_airport","name":"Hacienda La Pacífica Airport","elevation_ft":"164","continent":"NA","iso_country":"CR","iso_region":"CR-G","municipality":"Cañas","scheduled_service":"no","gps_code":"MRHP"},"geometry":{"type":"Point","coordinates":[-85.149725,10.451918]}},{"id":"41955","type":"Feature","properties":{"ident":"MRHS","type":"small_airport","name":"Hacienda La Suerte Airport","elevation_ft":"492","continent":"NA","iso_country":"CR","iso_region":"CR-L","municipality":"Pococi","scheduled_service":"no","gps_code":"MRHS"},"geometry":{"type":"Point","coordinates":[-83.666664,10.45]}},{"id":"519481","type":"Feature","properties":{"ident":"MRMZ","type":"heliport","name":"Hacienda Manzanillo Heleport","elevation_ft":"128","continent":"NA","iso_country":"CR","iso_region":"CR-G","municipality":"Sardinal","scheduled_service":"no","gps_code":"MRMZ"},"geometry":{"type":"Point","coordinates":[-85.791667,10.491667]}},{"id":"41951","type":"Feature","properties":{"ident":"MRHG","type":"small_airport","name":"Hacienda Rancho Grande Airport","elevation_ft":"98","continent":"NA","iso_country":"CR","iso_region":"CR-H","municipality":"Sarapiqui","scheduled_service":"no","gps_code":"MRHG"},"geometry":{"type":"Point","coordinates":[-84.083336,10.45]}},{"id":"41953","type":"Feature","properties":{"ident":"MRHO","type":"small_airport","name":"Hacienda Rio Cuarto Airport","elevation_ft":"197","continent":"NA","iso_country":"CR","iso_region":"CR-H","municipality":"Sarapiqui","scheduled_service":"no","gps_code":"MRHO"},"geometry":{"type":"Point","coordinates":[-84.150002,10.566667]}},{"id":"41950","type":"Feature","properties":{"ident":"MRHB","type":"heliport","name":"Helibancosta Heliport","elevation_ft":"102","continent":"NA","iso_country":"CR","iso_region":"CR-SJ","municipality":"Area metropolitana","scheduled_service":"no","gps_code":"MRHB"},"geometry":{"type":"Point","coordinates":[-84.080498,9.93545]}},{"id":"32147","type":"Feature","properties":{"ident":"MRIA","type":"small_airport","name":"Islita Airport","elevation_ft":"7","continent":"NA","iso_country":"CR","iso_region":"CR-G","municipality":"Nandayure","scheduled_service":"yes","gps_code":"MRIA","iata_code":"PBP"},"geometry":{"type":"Point","coordinates":[-85.370796,9.85611]}},{"id":"41957","type":"Feature","properties":{"ident":"MRJO","type":"small_airport","name":"Jaco Airport","elevation_ft":"20","continent":"NA","iso_country":"CR","iso_region":"CR-P","municipality":"Jaco","scheduled_service":"no","gps_code":"MRJO"},"geometry":{"type":"Point","coordinates":[-84.556396,9.55527]}},{"id":"4810","type":"Feature","properties":{"ident":"MROC","type":"medium_airport","name":"Juan Santamaría International Airport","elevation_ft":"3021","continent":"NA","iso_country":"CR","iso_region":"CR-A","municipality":"San José (Alajuela)","scheduled_service":"yes","gps_code":"MROC","iata_code":"SJO","wikipedia_link":"https://en.wikipedia.org/wiki/Juan_Santamar%C3%ADa_International_Airport"},"geometry":{"type":"Point","coordinates":[-84.208801,9.99386]}},{"id":"326340","type":"Feature","properties":{"ident":"MRNI","type":"small_airport","name":"La Bonita Airport","elevation_ft":"2643","continent":"NA","iso_country":"CR","iso_region":"CR-SJ","municipality":"San Isidro","scheduled_service":"no","gps_code":"MRNI"},"geometry":{"type":"Point","coordinates":[-83.677897,9.389821]}},{"id":"41966","type":"Feature","properties":{"ident":"MRLV","type":"small_airport","name":"La Cueva Airport","elevation_ft":"230","continent":"NA","iso_country":"CR","iso_region":"CR-G","municipality":"Liberia","scheduled_service":"no","gps_code":"MRLV"},"geometry":{"type":"Point","coordinates":[-85.528099,10.6812]}},{"id":"31949","type":"Feature","properties":{"ident":"MRLF","type":"small_airport","name":"La Flor Airport","elevation_ft":"177","continent":"NA","iso_country":"CR","iso_region":"CR-G","municipality":"Liberia","scheduled_service":"no","gps_code":"MRLF"},"geometry":{"type":"Point","coordinates":[-85.532997,10.65]}},{"id":"41925","type":"Feature","properties":{"ident":"MRAN","type":"small_airport","name":"La Fortuna Arenal Airport","elevation_ft":"342","continent":"NA","iso_country":"CR","iso_region":"CR-A","municipality":"La Fortuna","scheduled_service":"no","gps_code":"MRAN","iata_code":"FON","wikipedia_link":"https://en.wikipedia.org/wiki/La_Fortuna_Arenal_Airport"},"geometry":{"type":"Point","coordinates":[-84.579073,10.469311]}},{"id":"41959","type":"Feature","properties":{"ident":"MRLG","type":"small_airport","name":"La Garroba Airport","elevation_ft":"295","continent":"NA","iso_country":"CR","iso_region":"CR-A","municipality":"Upala","scheduled_service":"no","gps_code":"MRLG"},"geometry":{"type":"Point","coordinates":[-84.916664,10.8]}},{"id":"41962","type":"Feature","properties":{"ident":"MRLN","type":"small_airport","name":"La Guinea Airport","elevation_ft":"33","continent":"NA","iso_country":"CR","iso_region":"CR-G","municipality":"Nicoya","scheduled_service":"no","gps_code":"MRLN"},"geometry":{"type":"Point","coordinates":[-85.472,10.4207]}},{"id":"41921","type":"Feature","properties":{"ident":"MLLJ","type":"small_airport","name":"La Javilla Airport","elevation_ft":"43","continent":"NA","iso_country":"CR","iso_region":"CR-G","municipality":"Guanacaste","scheduled_service":"no","gps_code":"MLLJ"},"geometry":{"type":"Point","coordinates":[-85.295502,9.81112]}},{"id":"41960","type":"Feature","properties":{"ident":"MRLI","type":"small_airport","name":"La Ligia Airport","elevation_ft":"16","continent":"NA","iso_country":"CR","iso_region":"CR-P","municipality":"Parrita","scheduled_service":"no","gps_code":"MRLI"},"geometry":{"type":"Point","coordinates":[-84.301498,9.51527]}},{"id":"41963","type":"Feature","properties":{"ident":"MRLO","type":"heliport","name":"La Loma Heliport","elevation_ft":"3461","continent":"NA","iso_country":"CR","iso_region":"CR-SJ","municipality":"Escazu","scheduled_service":"no","gps_code":"MRLO"},"geometry":{"type":"Point","coordinates":[-84.083336,9.925833]}},{"id":"41965","type":"Feature","properties":{"ident":"MRLS","type":"heliport","name":"La Victoria de Sarapiqui Heliport","elevation_ft":"889","continent":"NA","iso_country":"CR","iso_region":"CR-H","municipality":"Sarapiqui","scheduled_service":"no","gps_code":"MRLS"},"geometry":{"type":"Point","coordinates":[-83.916702,10.3167]}},{"id":"41967","type":"Feature","properties":{"ident":"MRLY","type":"small_airport","name":"La Yolanda Airport","elevation_ft":"13","continent":"NA","iso_country":"CR","iso_region":"CR-P","municipality":"Parrita","scheduled_service":"no","gps_code":"MRLY"},"geometry":{"type":"Point","coordinates":[-84.566666,9.55]}},{"id":"41958","type":"Feature","properties":{"ident":"MRLA","type":"small_airport","name":"La Zampoña Airport","elevation_ft":"328","continent":"NA","iso_country":"CR","iso_region":"CR-G","municipality":"Guanacaste","scheduled_service":"no","gps_code":"MRLA"},"geometry":{"type":"Point","coordinates":[-85.433334,10.266667]}},{"id":"41968","type":"Feature","properties":{"ident":"MRLZ","type":"small_airport","name":"La Zopilota Airport","elevation_ft":"39","continent":"NA","iso_country":"CR","iso_region":"CR-G","municipality":"Guanacaste","scheduled_service":"no","gps_code":"MRLZ"},"geometry":{"type":"Point","coordinates":[-85.461998,10.4836]}},{"id":"41956","type":"Feature","properties":{"ident":"MRIS","type":"small_airport","name":"Las Islas Airport","elevation_ft":"98","continent":"NA","iso_country":"CR","iso_region":"CR-H","municipality":"San Carlos","scheduled_service":"no","gps_code":"MRIS"},"geometry":{"type":"Point","coordinates":[-83.974098,10.5583]}},{"id":"41961","type":"Feature","properties":{"ident":"MRLL","type":"small_airport","name":"Las Lomas Airport","elevation_ft":"1325","continent":"NA","iso_country":"CR","iso_region":"CR-L","municipality":"Siquirres","scheduled_service":"no","gps_code":"MRLL"},"geometry":{"type":"Point","coordinates":[-83.583336,10.066667]}},{"id":"41964","type":"Feature","properties":{"ident":"MRLP","type":"small_airport","name":"Las Piedras Airport","elevation_ft":"82","continent":"NA","iso_country":"CR","iso_region":"CR-G","municipality":"Cañas","scheduled_service":"no","gps_code":"MRLP"},"geometry":{"type":"Point","coordinates":[-85.199997,10.366667]}},{"id":"31950","type":"Feature","properties":{"ident":"MRLT","type":"small_airport","name":"Las Trancas Airport","elevation_ft":"68","continent":"NA","iso_country":"CR","iso_region":"CR-G","municipality":"Las Trancas","scheduled_service":"no","gps_code":"MRLT"},"geometry":{"type":"Point","coordinates":[-85.599998,10.567]}},{"id":"31948","type":"Feature","properties":{"ident":"MRLE","type":"small_airport","name":"Laurel Airport","elevation_ft":"65","continent":"NA","iso_country":"CR","iso_region":"CR-P","municipality":"Puntarenas","scheduled_service":"no","gps_code":"MRLE"},"geometry":{"type":"Point","coordinates":[-82.906502,8.44041]}},{"id":"4808","type":"Feature","properties":{"ident":"MRLM","type":"medium_airport","name":"Limon International Airport","elevation_ft":"7","continent":"NA","iso_country":"CR","iso_region":"CR-L","municipality":"Puerto Limon","scheduled_service":"yes","gps_code":"MRLM","iata_code":"LIO","wikipedia_link":"https://en.wikipedia.org/wiki/Lim%C3%B3n_International_Airport"},"geometry":{"type":"Point","coordinates":[-83.022003,9.95796]}},{"id":"4807","type":"Feature","properties":{"ident":"MRLC","type":"medium_airport","name":"Los Chiles Airport","elevation_ft":"131","continent":"NA","iso_country":"CR","iso_region":"CR-A","municipality":"Los Chiles","scheduled_service":"no","gps_code":"MRLC","iata_code":"LSL"},"geometry":{"type":"Point","coordinates":[-84.7061,11.0353]}},{"id":"41982","type":"Feature","properties":{"ident":"MRRM","type":"heliport","name":"Los Sueños Heliport","elevation_ft":"16","continent":"NA","iso_country":"CR","iso_region":"CR-P","municipality":"Marina Resort","scheduled_service":"no","gps_code":"MRRM"},"geometry":{"type":"Point","coordinates":[-84.671669,9.6775]}},{"id":"41971","type":"Feature","properties":{"ident":"MRMJ","type":"small_airport","name":"Mojica Airport","elevation_ft":"87","continent":"NA","iso_country":"CR","iso_region":"CR-G","municipality":"Cañas","scheduled_service":"no","gps_code":"MRMJ","iata_code":"CSC"},"geometry":{"type":"Point","coordinates":[-85.174599,10.4307]}},{"id":"41969","type":"Feature","properties":{"ident":"MRMA","type":"small_airport","name":"Monte Alto Airport","elevation_ft":"66","continent":"NA","iso_country":"CR","iso_region":"CR-G","municipality":"Abangares","scheduled_service":"no","gps_code":"MRMA"},"geometry":{"type":"Point","coordinates":[-85.26667,10.083333]}},{"id":"41970","type":"Feature","properties":{"ident":"MRMC","type":"small_airport","name":"Murcielago Airport","elevation_ft":"66","continent":"NA","iso_country":"CR","iso_region":"CR-G","municipality":"La Cruz","scheduled_service":"no","gps_code":"MRMC"},"geometry":{"type":"Point","coordinates":[-85.716667,10.916667]}},{"id":"341969","type":"Feature","properties":{"ident":"CR-0004","type":"heliport","name":"México Hospital Heliport","elevation_ft":"3520","continent":"NA","iso_country":"CR","iso_region":"CR-SJ","municipality":"San José","scheduled_service":"no"},"geometry":{"type":"Point","coordinates":[-84.1145,9.952]}},{"id":"4809","type":"Feature","properties":{"ident":"MRNS","type":"medium_airport","name":"Nosara Airport","elevation_ft":"33","continent":"NA","iso_country":"CR","iso_region":"CR-G","municipality":"Nicoya","scheduled_service":"yes","gps_code":"MRNS","iata_code":"NOB","wikipedia_link":"https://en.wikipedia.org/wiki/Nosara_Airport"},"geometry":{"type":"Point","coordinates":[-85.653,9.97649]}},{"id":"4812","type":"Feature","properties":{"ident":"MRPM","type":"medium_airport","name":"Palmar Sur Airport","elevation_ft":"49","continent":"NA","iso_country":"CR","iso_region":"CR-P","municipality":"Palmar Sur","scheduled_service":"yes","gps_code":"MRPM","iata_code":"PMZ","wikipedia_link":"https://en.wikipedia.org/wiki/Palmar_Sur_Airport"},"geometry":{"type":"Point","coordinates":[-83.468597,8.95103]}},{"id":"31951","type":"Feature","properties":{"ident":"MRPA","type":"small_airport","name":"Palo Arco Airport","elevation_ft":"324","continent":"NA","iso_country":"CR","iso_region":"CR-G","municipality":"Nandayure","scheduled_service":"no","gps_code":"MRPA"},"geometry":{"type":"Point","coordinates":[-85.2379,9.85141]}},{"id":"4811","type":"Feature","properties":{"ident":"MRPD","type":"small_airport","name":"Pandora Airport","elevation_ft":"98","continent":"NA","iso_country":"CR","iso_region":"CR-L","municipality":"Limón","scheduled_service":"no","gps_code":"MRPD"},"geometry":{"type":"Point","coordinates":[-82.9832,9.73217]}},{"id":"326338","type":"Feature","properties":{"ident":"MRPK","type":"small_airport","name":"Papa Kilo Airport","elevation_ft":"18","continent":"NA","iso_country":"CR","iso_region":"CR-P","municipality":"Uvita","scheduled_service":"no","gps_code":"MRPK"},"geometry":{"type":"Point","coordinates":[-83.735446,9.157537]}},{"id":"41973","type":"Feature","properties":{"ident":"MRPN","type":"small_airport","name":"Pelon Nuevo Airport","elevation_ft":"49","continent":"NA","iso_country":"CR","iso_region":"CR-G","municipality":"Liberia","scheduled_service":"no","gps_code":"MRPN"},"geometry":{"type":"Point","coordinates":[-85.4142,10.4867]}},{"id":"41976","type":"Feature","properties":{"ident":"MRPS","type":"small_airport","name":"Peñas Blancas Airport","elevation_ft":"98","continent":"NA","iso_country":"CR","iso_region":"CR-G","municipality":"Santa Cruz","scheduled_service":"no","gps_code":"MRPS"},"geometry":{"type":"Point","coordinates":[-85.678001,10.3156]}},{"id":"41978","type":"Feature","properties":{"ident":"MRPY","type":"small_airport","name":"Playa Ballena Airport","elevation_ft":"7","continent":"NA","iso_country":"CR","iso_region":"CR-P","municipality":"Puntarenas","scheduled_service":"no","gps_code":"MRPY"},"geometry":{"type":"Point","coordinates":[-83.706398,9.12242]}},{"id":"41975","type":"Feature","properties":{"ident":"MRPP","type":"small_airport","name":"Playa Pájaros Airport","elevation_ft":"30","continent":"NA","iso_country":"CR","iso_region":"CR-P","municipality":"Paquera","scheduled_service":"no","gps_code":"MRPP"},"geometry":{"type":"Point","coordinates":[-84.694397,9.85831]}},{"id":"32210","type":"Feature","properties":{"ident":"MRCR","type":"small_airport","name":"Playa Samara/Carrillo Airport","elevation_ft":"50","continent":"NA","iso_country":"CR","iso_region":"CR-G","municipality":"Carrillo","scheduled_service":"yes","gps_code":"MRCR","iata_code":"PLD","wikipedia_link":"https://en.wikipedia.org/wiki/Carrillo_Airport","keywords":"RIK"},"geometry":{"type":"Point","coordinates":[-85.4814,9.87051]}},{"id":"41972","type":"Feature","properties":{"ident":"MRPL","type":"small_airport","name":"Portalón Airport","elevation_ft":"206","continent":"NA","iso_country":"CR","iso_region":"CR-P","municipality":"Portalón","scheduled_service":"no","gps_code":"MRPL"},"geometry":{"type":"Point","coordinates":[-83.9795,9.35798]}},{"id":"326325","type":"Feature","properties":{"ident":"CR-0001","type":"small_airport","name":"Potrero Grande Airfield","elevation_ft":"546","continent":"NA","iso_country":"CR","iso_region":"CR-P","municipality":"Potrero Grande","scheduled_service":"no"},"geometry":{"type":"Point","coordinates":[-83.180511,9.012758]}},{"id":"32160","type":"Feature","properties":{"ident":"MRPJ","type":"medium_airport","name":"Puerto Jimenez Airport","elevation_ft":"7","continent":"NA","iso_country":"CR","iso_region":"CR-P","municipality":"Puerto Jimenez","scheduled_service":"yes","gps_code":"MRPJ","iata_code":"PJM","home_link":"http://www.natureair.com/destinations/jimenez_costa_rica.html","wikipedia_link":"https://en.wikipedia.org/wiki/Puerto_Jimenez_Airport","keywords":"Corcovado National Park"},"geometry":{"type":"Point","coordinates":[-83.300003,8.53333]}},{"id":"41974","type":"Feature","properties":{"ident":"MRPO","type":"small_airport","name":"Punta Banco Airport","elevation_ft":"16","continent":"NA","iso_country":"CR","iso_region":"CR-P","municipality":"Puntarenas","scheduled_service":"no","gps_code":"MRPO"},"geometry":{"type":"Point","coordinates":[-83.136902,8.35731]}},{"id":"41979","type":"Feature","properties":{"ident":"MRQA","type":"small_airport","name":"Quebrada Azul Airport","elevation_ft":"197","continent":"NA","iso_country":"CR","iso_region":"CR-A","municipality":"Florencia","scheduled_service":"no","gps_code":"MRQA"},"geometry":{"type":"Point","coordinates":[-84.487567,10.400451]}},{"id":"519478","type":"Feature","properties":{"ident":"MRQN","type":"small_airport","name":"Quebrada Naranjo Airport","elevation_ft":"26","continent":"NA","iso_country":"CR","iso_region":"CR-P","municipality":"Quepos","scheduled_service":"no","gps_code":"MRQN"},"geometry":{"type":"Point","coordinates":[-84.125782,9.392994]}},{"id":"4814","type":"Feature","properties":{"ident":"MRQP","type":"medium_airport","name":"Quepos Managua Airport","elevation_ft":"85","continent":"NA","iso_country":"CR","iso_region":"CR-P","municipality":"Quepos","scheduled_service":"yes","gps_code":"MRQP","iata_code":"XQP","wikipedia_link":"https://en.wikipedia.org/wiki/Quepos_Managua_Airport"},"geometry":{"type":"Point","coordinates":[-84.129799,9.44316]}},{"id":"346876","type":"Feature","properties":{"ident":"CR-0005","type":"small_airport","name":"Rancho del Mar Airport","elevation_ft":"44","continent":"NA","iso_country":"CR","iso_region":"CR-P","municipality":"Puerto Pilon","scheduled_service":"no"},"geometry":{"type":"Point","coordinates":[-83.10151,8.43267]}},{"id":"41981","type":"Feature","properties":{"ident":"MRRH","type":"small_airport","name":"Rancho Humo Airport","elevation_ft":"33","continent":"NA","iso_country":"CR","iso_region":"CR-G","municipality":"Santa Cruz","scheduled_service":"no","gps_code":"MRRH"},"geometry":{"type":"Point","coordinates":[-85.333336,10.316667]}},{"id":"41983","type":"Feature","properties":{"ident":"MRRN","type":"small_airport","name":"Rancho Nuevo Airport","elevation_ft":"33","continent":"NA","iso_country":"CR","iso_region":"CR-P","municipality":"Puntarenas","scheduled_service":"no","gps_code":"MRRN"},"geometry":{"type":"Point","coordinates":[-84.52399,9.570401]}},{"id":"41980","type":"Feature","properties":{"ident":"MRRF","type":"small_airport","name":"Rio Frio / Progreso Airport","elevation_ft":"350","continent":"NA","iso_country":"CR","iso_region":"CR-H","municipality":"Rio Frio / Progreso","scheduled_service":"no","gps_code":"MRRF","iata_code":"RFR"},"geometry":{"type":"Point","coordinates":[-83.887604,10.3274]}},{"id":"41984","type":"Feature","properties":{"ident":"MRRX","type":"small_airport","name":"Roxana Farms Airport","elevation_ft":"312","continent":"NA","iso_country":"CR","iso_region":"CR-L","municipality":"Limón","scheduled_service":"no","gps_code":"MRRX"},"geometry":{"type":"Point","coordinates":[-83.754303,10.3082]}},{"id":"519483","type":"Feature","properties":{"ident":"MRRP","type":"heliport","name":"Río Perdido Heliport.","elevation_ft":"787","continent":"NA","iso_country":"CR","iso_region":"CR-G","municipality":"La Fortuna","scheduled_service":"no","gps_code":"MRRP"},"geometry":{"type":"Point","coordinates":[-85.198333,10.598333]}},{"id":"31955","type":"Feature","properties":{"ident":"MRSL","type":"small_airport","name":"Salama Airport","elevation_ft":"32","continent":"NA","iso_country":"CR","iso_region":"CR-P","municipality":"Salama","scheduled_service":"no","gps_code":"MRSL"},"geometry":{"type":"Point","coordinates":[-83.271432,8.789362]}},{"id":"41994","type":"Feature","properties":{"ident":"MRST","type":"small_airport","name":"San Agustin Airport","elevation_ft":"66","continent":"NA","iso_country":"CR","iso_region":"CR-P","municipality":"Puntarenas","scheduled_service":"no","gps_code":"MRST"},"geometry":{"type":"Point","coordinates":[-84.876189,10.064518]}},{"id":"31954","type":"Feature","properties":{"ident":"MRSA","type":"small_airport","name":"San Alberto Airport","elevation_ft":"88","continent":"NA","iso_country":"CR","iso_region":"CR-L","municipality":"Limón","scheduled_service":"no","gps_code":"MRSA"},"geometry":{"type":"Point","coordinates":[-83.488197,10.1466]}},{"id":"41985","type":"Feature","properties":{"ident":"MRSB","type":"small_airport","name":"San Cristobal Airport","elevation_ft":"259","continent":"NA","iso_country":"CR","iso_region":"CR-A","municipality":"San Carlos","scheduled_service":"no","gps_code":"MRSB"},"geometry":{"type":"Point","coordinates":[-84.566666,10.5]}},{"id":"41990","type":"Feature","properties":{"ident":"MRSI","type":"small_airport","name":"San Isidro del General Airport","elevation_ft":"2100","continent":"NA","iso_country":"CR","iso_region":"CR-SJ","municipality":"Pérez Zeledón","scheduled_service":"no","gps_code":"MRSI","iata_code":"IPZ"},"geometry":{"type":"Point","coordinates":[-83.713097,9.35262]}},{"id":"41987","type":"Feature","properties":{"ident":"MRSE","type":"heliport","name":"San Jose Heliport","elevation_ft":"3296","continent":"NA","iso_country":"CR","iso_region":"CR-SJ","municipality":"San José","scheduled_service":"no","gps_code":"MRSE"},"geometry":{"type":"Point","coordinates":[-84.166664,9.933333]}},{"id":"41992","type":"Feature","properties":{"ident":"MRSP","type":"small_airport","name":"San Pedro Airport","elevation_ft":"230","continent":"NA","iso_country":"CR","iso_region":"CR-L","municipality":"San Pedro","scheduled_service":"no","gps_code":"MRSP"},"geometry":{"type":"Point","coordinates":[-83.752998,10.4179]}},{"id":"4816","type":"Feature","properties":{"ident":"MRSV","type":"small_airport","name":"San Vito de Java Airport","elevation_ft":"3228","continent":"NA","iso_country":"CR","iso_region":"CR-P","municipality":"Coto Brus","scheduled_service":"no","gps_code":"MRSV","iata_code":"TOO","wikipedia_link":"https://en.wikipedia.org/wiki/San_Vito_de_Java_Airport"},"geometry":{"type":"Point","coordinates":[-82.958922,8.826971]}},{"id":"4815","type":"Feature","properties":{"ident":"MRSG","type":"small_airport","name":"Santa Clara De Guapiles Airport","elevation_ft":"262","continent":"NA","iso_country":"CR","iso_region":"CR-L","municipality":"Limón","scheduled_service":"no","gps_code":"MRSG"},"geometry":{"type":"Point","coordinates":[-83.713501,10.2883]}},{"id":"41986","type":"Feature","properties":{"ident":"MRSC","type":"small_airport","name":"Santa Cruz Airport","elevation_ft":"206","continent":"NA","iso_country":"CR","iso_region":"CR-G","municipality":"Santa Cruz","scheduled_service":"no","gps_code":"MRSC"},"geometry":{"type":"Point","coordinates":[-85.591499,10.2738]}},{"id":"41988","type":"Feature","properties":{"ident":"MRSF","type":"small_airport","name":"Santa Fe Airport","elevation_ft":"1995","continent":"NA","iso_country":"CR","iso_region":"CR-SJ","municipality":"Pérez Zeledón","scheduled_service":"no","gps_code":"MRSF"},"geometry":{"type":"Point","coordinates":[-83.616669,9.3]}},{"id":"31956","type":"Feature","properties":{"ident":"MRSO","type":"small_airport","name":"Santa Maria De Guacimo Airport","elevation_ft":"32","continent":"NA","iso_country":"CR","iso_region":"CR-L","municipality":"Guapiles","scheduled_service":"no","gps_code":"MRSO"},"geometry":{"type":"Point","coordinates":[-83.616997,10.267]}},{"id":"41991","type":"Feature","properties":{"ident":"MRSM","type":"small_airport","name":"Santa Marta Airport","elevation_ft":"417","continent":"NA","iso_country":"CR","iso_region":"CR-A","municipality":"Orotina","scheduled_service":"no","gps_code":"MRSM"},"geometry":{"type":"Point","coordinates":[-84.616669,9.916667]}},{"id":"519430","type":"Feature","properties":{"ident":"MRTS","type":"small_airport","name":"Santa Teresa Airport","elevation_ft":"84","continent":"NA","iso_country":"CR","iso_region":"CR-P","municipality":"Santa Teresa","scheduled_service":"no","gps_code":"MRTS"},"geometry":{"type":"Point","coordinates":[-85.182878,9.690254]}},{"id":"41993","type":"Feature","properties":{"ident":"MRSQ","type":"small_airport","name":"Sarapigui Airport","elevation_ft":"164","continent":"NA","iso_country":"CR","iso_region":"CR-H","municipality":"San Carlos","scheduled_service":"no","gps_code":"MRSQ"},"geometry":{"type":"Point","coordinates":[-83.906788,10.471518]}},{"id":"41989","type":"Feature","properties":{"ident":"MRSH","type":"small_airport","name":"Shiroles Airport","elevation_ft":"20","continent":"NA","iso_country":"CR","iso_region":"CR-L","municipality":"Talamanca","scheduled_service":"no","gps_code":"MRSH"},"geometry":{"type":"Point","coordinates":[-82.9599,9.58077]}},{"id":"324217","type":"Feature","properties":{"ident":"MRSN","type":"small_airport","name":"Sirena Airport","elevation_ft":"70","continent":"NA","iso_country":"CR","iso_region":"CR-P","municipality":"Península de Osa","scheduled_service":"no","gps_code":"MRSN"},"geometry":{"type":"Point","coordinates":[-83.591343,8.4776]}},{"id":"41995","type":"Feature","properties":{"ident":"MRSX","type":"small_airport","name":"Sixaola Airport","elevation_ft":"26","continent":"NA","iso_country":"CR","iso_region":"CR-L","municipality":"Sixaola","scheduled_service":"no","gps_code":"MRSX"},"geometry":{"type":"Point","coordinates":[-82.63135,9.503889]}},{"id":"41997","type":"Feature","properties":{"ident":"MRTG","type":"small_airport","name":"Taboga Airport","elevation_ft":"108","continent":"NA","iso_country":"CR","iso_region":"CR-G","municipality":"Cañas","scheduled_service":"no","gps_code":"MRTG"},"geometry":{"type":"Point","coordinates":[-85.199997,10.35]}},{"id":"41998","type":"Feature","properties":{"ident":"MRTL","type":"small_airport","name":"Talolinga Airport","elevation_ft":"33","continent":"NA","iso_country":"CR","iso_region":"CR-G","municipality":"Nicoya","scheduled_service":"no","gps_code":"MRTL"},"geometry":{"type":"Point","coordinates":[-85.468399,10.3084]}},{"id":"41999","type":"Feature","properties":{"ident":"MRTM","type":"small_airport","name":"Tamarindo Airport","elevation_ft":"41","continent":"NA","iso_country":"CR","iso_region":"CR-G","municipality":"Tamarindo","scheduled_service":"no","gps_code":"MRTM","iata_code":"TNO","wikipedia_link":"https://en.wikipedia.org/wiki/Tamarindo_Airport"},"geometry":{"type":"Point","coordinates":[-85.815498,10.3135]}},{"id":"42000","type":"Feature","properties":{"ident":"MRTR","type":"small_airport","name":"Tambor Airport","elevation_ft":"33","continent":"NA","iso_country":"CR","iso_region":"CR-P","municipality":"Nicoya","scheduled_service":"no","gps_code":"MRTR","iata_code":"TMU","wikipedia_link":"https://en.wikipedia.org/wiki/Tambor_Airport"},"geometry":{"type":"Point","coordinates":[-85.016199,9.739307]}},{"id":"41996","type":"Feature","properties":{"ident":"MRTB","type":"small_airport","name":"Ticaban Airport","elevation_ft":"246","continent":"NA","iso_country":"CR","iso_region":"CR-L","municipality":"Pococi","scheduled_service":"no","gps_code":"MRTB"},"geometry":{"type":"Point","coordinates":[-83.849998,10.366667]}},{"id":"4813","type":"Feature","properties":{"ident":"MRPV","type":"medium_airport","name":"Tobías Bolaños International Airport","elevation_ft":"3287","continent":"NA","iso_country":"CR","iso_region":"CR-SJ","municipality":"San Jose","scheduled_service":"yes","gps_code":"MRPV","iata_code":"SYQ","wikipedia_link":"https://en.wikipedia.org/wiki/Tob%C3%ADas_Bola%C3%B1os_International_Airport","keywords":"Aeropuerto Internacional Tobías Bolaños Palma"},"geometry":{"type":"Point","coordinates":[-84.139801,9.95705]}},{"id":"4817","type":"Feature","properties":{"ident":"MRUP","type":"medium_airport","name":"Upala Airport","elevation_ft":"184","continent":"NA","iso_country":"CR","iso_region":"CR-A","municipality":"Upala","scheduled_service":"no","gps_code":"MRUP","iata_code":"UPL","home_link":"https://www.facebook.com/AerodromoUpala/","wikipedia_link":"https://en.m.wikipedia.org/wiki/Upala_Airport"},"geometry":{"type":"Point","coordinates":[-85.016197,10.8922]}},{"id":"42001","type":"Feature","properties":{"ident":"MRYT","type":"small_airport","name":"Yucatica Airport","elevation_ft":"151","continent":"NA","iso_country":"CR","iso_region":"CR-L","municipality":"Guacimo","scheduled_service":"no","gps_code":"MRYT"},"geometry":{"type":"Point","coordinates":[-83.666664,10.333333]}},{"id":"42002","type":"Feature","properties":{"ident":"MRZP","type":"small_airport","name":"Zapotal De Guanacaste Airport","elevation_ft":"1305","continent":"NA","iso_country":"CR","iso_region":"CR-G","municipality":"Zapotal","scheduled_service":"no","gps_code":"MRZP"},"geometry":{"type":"Point","coordinates":[-85.310204,9.99401]}}]}