{"type":"FeatureCollection","features":[{"id":"329257","type":"Feature","properties":{"ident":"DE-0422","type":"heliport","name":"Aachen Hospital Heliport","continent":"EU","iso_country":"DE","iso_region":"DE-NW","municipality":"Aachen","scheduled_service":"no","keywords":"Rettende Hand"},"geometry":{"type":"Point","coordinates":[6.044372,50.775674]}},{"id":"28490","type":"Feature","properties":{"ident":"EDKA","type":"small_airport","name":"Aachen-Merzbrück Airport","elevation_ft":"623","continent":"EU","iso_country":"DE","iso_region":"DE-NW","municipality":"Aachen","scheduled_service":"no","gps_code":"EDKA","iata_code":"AAH","home_link":"https://www.flugplatz-aachen.de","wikipedia_link":"https://en.wikipedia.org/wiki/Aachen_Merzbr%C3%BCck_Airfield","keywords":"EDCM, ETBA, Flugplatz Aachen Merzbrück, Segelflug Aachen, Motorflug Aachen"},"geometry":{"type":"Point","coordinates":[6.186389,50.823055]}},{"id":"2260","type":"Feature","properties":{"ident":"EDPA","type":"small_airport","name":"Aalen Heidenheim Elchingen Airfield","elevation_ft":"1916","continent":"EU","iso_country":"DE","iso_region":"DE-BW","municipality":"Neresheim","scheduled_service":"no","gps_code":"EDPA","home_link":"https://edpa.de/","wikipedia_link":"https://de.wikipedia.org/wiki/Verkehrslandeplatz_Aalen-Heidenheim/Elchingen","keywords":"Flugplatz Aalen-Elchingen, Verkehrslandeplatz Aalen-Heidenheim/Elchingen"},"geometry":{"type":"Point","coordinates":[10.264722,48.777779]}},{"id":"353759","type":"Feature","properties":{"ident":"DE-0468","type":"heliport","name":"ADAC Air Rescue Center Heliport (Christoph 1)","elevation_ft":"1853","continent":"EU","iso_country":"DE","iso_region":"DE-BY","municipality":"München","scheduled_service":"no"},"geometry":{"type":"Point","coordinates":[11.559414,48.083663]}},{"id":"514686","type":"Feature","properties":{"ident":"DE-0603","type":"heliport","name":"ADAC Air Rescue Station Bremen Heliport (Christoph 6)","elevation_ft":"13","continent":"EU","iso_country":"DE","iso_region":"DE-HB","municipality":"Bremen","scheduled_service":"no"},"geometry":{"type":"Point","coordinates":[8.816995,53.035281]}},{"id":"515555","type":"Feature","properties":{"ident":"DE-0693","type":"heliport","name":"ADAC Air Rescue Station Dinkelsbühl Heliport","elevation_ft":"1614","continent":"EU","iso_country":"DE","iso_region":"DE-BY","municipality":"Dinkelsbühl","scheduled_service":"no","keywords":"Christoph 65"},"geometry":{"type":"Point","coordinates":[10.40159,49.06596]}},{"id":"514689","type":"Feature","properties":{"ident":"DE-0606","type":"heliport","name":"ADAC Air Rescue Station Leipzig/Schkeuditz-Dölzig Heliport (Christoph 61)","elevation_ft":"367","continent":"EU","iso_country":"DE","iso_region":"DE-SN","municipality":"Schkeuditz","scheduled_service":"no"},"geometry":{"type":"Point","coordinates":[12.19252,51.35124]}},{"id":"355233","type":"Feature","properties":{"ident":"DE-0487","type":"heliport","name":"ADAC Air Rescue Station Rheine Heliport (Christoph Europa 2)","elevation_ft":"40","continent":"EU","iso_country":"DE","iso_region":"DE-NW","municipality":"Rheine","scheduled_service":"no"},"geometry":{"type":"Point","coordinates":[7.431425,52.277279]}},{"id":"513714","type":"Feature","properties":{"ident":"DE-0524","type":"heliport","name":"ADAC Air Rescue Station Senftenberg Heliport","elevation_ft":"390","continent":"EU","iso_country":"DE","iso_region":"DE-BR","municipality":"Senftenberg","scheduled_service":"no"},"geometry":{"type":"Point","coordinates":[13.988192,51.530666]}},{"id":"514687","type":"Feature","properties":{"ident":"DE-0604","type":"heliport","name":"ADAC Air Rescue Station Uelzen Heliport (Christoph 19)","elevation_ft":"194","continent":"EU","iso_country":"DE","iso_region":"DE-NI","municipality":"Uelzen","scheduled_service":"no"},"geometry":{"type":"Point","coordinates":[10.53266,52.97323]}},{"id":"514812","type":"Feature","properties":{"ident":"DE-0617","type":"heliport","name":"ADAC Air Rescue Station Ulm (Christoph 22)","elevation_ft":"2031","continent":"EU","iso_country":"DE","iso_region":"DE-BW","municipality":"Ulm","scheduled_service":"no"},"geometry":{"type":"Point","coordinates":[9.9455,48.42654]}},{"id":"516084","type":"Feature","properties":{"ident":"DE-0789","type":"heliport","name":"ADAC Air Rescue Station Zwickau Heliport","elevation_ft":"1135","continent":"EU","iso_country":"DE","iso_region":"DE-SN","municipality":"Zwickau","scheduled_service":"no","keywords":"Christoph 46"},"geometry":{"type":"Point","coordinates":[12.43055,50.71988]}},{"id":"2278","type":"Feature","properties":{"ident":"EDTY","type":"medium_airport","name":"Adolf Würth Airport","elevation_ft":"1299","continent":"EU","iso_country":"DE","iso_region":"DE-BW","municipality":"Schwäbisch Hall","scheduled_service":"no","gps_code":"EDTY","home_link":"http://www.edty.de","wikipedia_link":"https://de.wikipedia.org/wiki/Flugplatz_Schw%C3%A4bisch_Hall-Hessental"},"geometry":{"type":"Point","coordinates":[9.783889,49.118332]}},{"id":"507833","type":"Feature","properties":{"ident":"DE-0509","type":"heliport","name":"Agaplesion Markus Hospital Heliport","elevation_ft":"420","continent":"EU","iso_country":"DE","iso_region":"DE-HE","municipality":"Frankfurt am Main","scheduled_service":"no"},"geometry":{"type":"Point","coordinates":[8.64781,50.13542]}},{"id":"507047","type":"Feature","properties":{"ident":"DE-0505","type":"heliport","name":"Agatharied Hospital Heliport","elevation_ft":"2440","continent":"EU","iso_country":"DE","iso_region":"DE-BY","municipality":"Hausham","scheduled_service":"no","local_code":"HAR"},"geometry":{"type":"Point","coordinates":[11.82824,47.768412]}},{"id":"309957","type":"Feature","properties":{"ident":"DE-0094","type":"small_airport","name":"Agathazell Airfield","elevation_ft":"2383","continent":"EU","iso_country":"DE","iso_region":"DE-BY","municipality":"Burgberg im Allgäu","scheduled_service":"no","home_link":"http://www.agathazell.info/index.php/flugplatz"},"geometry":{"type":"Point","coordinates":[10.272868,47.554788]}},{"id":"315485","type":"Feature","properties":{"ident":"DE-0217","type":"small_airport","name":"Ahlen Airfield","continent":"EU","iso_country":"DE","iso_region":"DE-NW","municipality":"Ahlen","scheduled_service":"no","keywords":"Agrarflug Helilift"},"geometry":{"type":"Point","coordinates":[7.909969,51.784001]}},{"id":"28492","type":"Feature","properties":{"ident":"EDHO","type":"small_airport","name":"Ahrenlohe Airfield","elevation_ft":"33","continent":"EU","iso_country":"DE","iso_region":"DE-SH","municipality":"Tornesch","scheduled_service":"no","gps_code":"EDHO","wikipedia_link":"https://de.wikipedia.org/wiki/Flugplatz_Ahrenlohe","keywords":"Flugplatz Ahrenlohe"},"geometry":{"type":"Point","coordinates":[9.742119,53.70031]}},{"id":"45042","type":"Feature","properties":{"ident":"EDOY","type":"heliport","name":"Ahrensfelde Heliport","continent":"EU","iso_country":"DE","iso_region":"DE-BR","scheduled_service":"no","gps_code":"EDOY"},"geometry":{"type":"Point","coordinates":[13.576,52.601]}},{"id":"308153","type":"Feature","properties":{"ident":"DE-0039","type":"small_airport","name":"Aichach Airfield","elevation_ft":"1445","continent":"EU","iso_country":"DE","iso_region":"DE-BY","municipality":"Aichach","scheduled_service":"no","home_link":"https://lsvaichach.de/","keywords":"Flugplatz Aichach"},"geometry":{"type":"Point","coordinates":[11.134243,48.471797]}},{"id":"28493","type":"Feature","properties":{"ident":"EDGA","type":"small_airport","name":"Ailertchen Airfield","elevation_ft":"1542","continent":"EU","iso_country":"DE","iso_region":"DE-RP","municipality":"Ailertchen","scheduled_service":"no","gps_code":"EDGA","wikipedia_link":"https://de.wikipedia.org/wiki/Flugplatz_Ailertchen"},"geometry":{"type":"Point","coordinates":[7.945,50.593056]}},{"id":"28494","type":"Feature","properties":{"ident":"EDSA","type":"small_airport","name":"Albstadt-Degerfeld Airfield","elevation_ft":"2881","continent":"EU","iso_country":"DE","iso_region":"DE-BW","municipality":"Albstadt","scheduled_service":"no","gps_code":"EDSA","home_link":"http://www.lsv-degerfeld.de/","wikipedia_link":"http://de.wikipedia.org/wiki/Flugplatz_Albstadt-Degerfeld"},"geometry":{"type":"Point","coordinates":[9.0625,48.249722]}},{"id":"515194","type":"Feature","properties":{"ident":"DE-0637","type":"heliport","name":"Alfried Krupp Hospital Heliport","elevation_ft":"391","continent":"EU","iso_country":"DE","iso_region":"DE-NW","municipality":"Essen","scheduled_service":"no"},"geometry":{"type":"Point","coordinates":[7.00968,51.42772]}},{"id":"2229","type":"Feature","properties":{"ident":"EDFQ","type":"small_airport","name":"Allendorf-Eder Airfield","elevation_ft":"1158","continent":"EU","iso_country":"DE","iso_region":"DE-HE","municipality":"Allendorf (Eder)","scheduled_service":"no","gps_code":"EDFQ","wikipedia_link":"https://en.wikipedia.org/wiki/Allendorf_Airport"},"geometry":{"type":"Point","coordinates":[8.681002,51.035268]}},{"id":"2201","type":"Feature","properties":{"ident":"EDBT","type":"small_airport","name":"Allstedt Airfield","elevation_ft":"932","continent":"EU","iso_country":"DE","iso_region":"DE-ST","municipality":"Allstedt","scheduled_service":"no","gps_code":"EDBT","wikipedia_link":"https://de.wikipedia.org/wiki/Flugplatz_Allstedt","keywords":"Flugplatz Allstedt"},"geometry":{"type":"Point","coordinates":[11.446667,51.380554]}},{"id":"308211","type":"Feature","properties":{"ident":"DE-0050","type":"small_airport","name":"Alsfeld Airfield","elevation_ft":"970","continent":"EU","iso_country":"DE","iso_region":"DE-HE","municipality":"Alsfeld","scheduled_service":"no"},"geometry":{"type":"Point","coordinates":[9.248615,50.750565]}},{"id":"308215","type":"Feature","properties":{"ident":"DE-0051","type":"small_airport","name":"Altdorf-Hagenhausen Airfield","elevation_ft":"1770","continent":"EU","iso_country":"DE","iso_region":"DE-BY","municipality":"Altdorf bei Nürnberg","scheduled_service":"no","home_link":"http://www.altdorf-hagenhausen.de/","keywords":"Flugplatz Altdorf-Hagenhausen"},"geometry":{"type":"Point","coordinates":[11.422305,49.387387]}},{"id":"28496","type":"Feature","properties":{"ident":"EDSW","type":"small_airport","name":"Altdorf-Wallburg Airfield","elevation_ft":"623","continent":"EU","iso_country":"DE","iso_region":"DE-BW","municipality":"Kippenheim","scheduled_service":"no","gps_code":"EDSW","wikipedia_link":"https://de.wikipedia.org/wiki/Flugplatz_Altdorf-Wallburg","keywords":"Flugplatz Altdorf-Wallburg"},"geometry":{"type":"Point","coordinates":[7.841942,48.269883]}},{"id":"309980","type":"Feature","properties":{"ident":"DE-0095","type":"small_airport","name":"Alte Ems Airfield","elevation_ft":"7","continent":"EU","iso_country":"DE","iso_region":"DE-NI","municipality":"Herbrum","scheduled_service":"no"},"geometry":{"type":"Point","coordinates":[7.305385,53.030765]}},{"id":"28497","type":"Feature","properties":{"ident":"EDKD","type":"small_airport","name":"Altena-Hegenscheid Airfield","elevation_ft":"1552","continent":"EU","iso_country":"DE","iso_region":"DE-NW","municipality":"Iserlohn","scheduled_service":"no","gps_code":"EDKD","wikipedia_link":"https://de.wikipedia.org/wiki/Flugplatz_Altena-Hegenscheid"},"geometry":{"type":"Point","coordinates":[7.704134,51.312459]}},{"id":"315388","type":"Feature","properties":{"ident":"DE-0193","type":"small_airport","name":"Altenbachtal Gliderport","elevation_ft":"446","continent":"EU","iso_country":"DE","iso_region":"DE-BY","municipality":"Aschaffenburg","scheduled_service":"no","home_link":"http://www.moeve-obernau.de","keywords":"Segelfluggelände Altenbachtal"},"geometry":{"type":"Point","coordinates":[9.158177,49.922867]}},{"id":"320860","type":"Feature","properties":{"ident":"DE-0372","type":"small_airport","name":"Altenbeuthen UL","elevation_ft":"1715","continent":"EU","iso_country":"DE","iso_region":"DE-TH","municipality":"Altenbeuthen","scheduled_service":"no","home_link":"http://www.flugzentrum.com"},"geometry":{"type":"Point","coordinates":[11.588424,50.592206]}},{"id":"29395","type":"Feature","properties":{"ident":"ETHA","type":"small_airport","name":"Altenstadt Army Airfield","elevation_ft":"2425","continent":"EU","iso_country":"DE","iso_region":"DE-BY","municipality":"Altenstadt","scheduled_service":"no","gps_code":"ETHA","wikipedia_link":"http://de.wikipedia.org/wiki/Heeresflugplatz_Altenstadt","keywords":"Heeresflugplatz Altenstadt"},"geometry":{"type":"Point","coordinates":[10.8712,47.835499]}},{"id":"316121","type":"Feature","properties":{"ident":"DE-0336","type":"small_airport","name":"Altes Lager Airfield","continent":"EU","iso_country":"DE","iso_region":"DE-BR","municipality":"Niedergörsdorf","scheduled_service":"no","keywords":"Sonderlandeplatz \"Altes Lager\""},"geometry":{"type":"Point","coordinates":[12.973008,51.996217]}},{"id":"308209","type":"Feature","properties":{"ident":"DE-0049","type":"small_airport","name":"Altfeld Airfield","elevation_ft":"1160","continent":"EU","iso_country":"DE","iso_region":"DE-BY","municipality":"Marktheidenfeld","scheduled_service":"no","keywords":"Flugplatz Altfeld"},"geometry":{"type":"Point","coordinates":[9.537292,49.831865]}},{"id":"315560","type":"Feature","properties":{"ident":"DE-0222","type":"small_airport","name":"Altomünster Airfield","elevation_ft":"1631","continent":"EU","iso_country":"DE","iso_region":"DE-BY","municipality":"Altomünster","scheduled_service":"no","keywords":"Altomünster ULM, Flugplatz Altomünster"},"geometry":{"type":"Point","coordinates":[11.272777,48.381953]}},{"id":"308330","type":"Feature","properties":{"ident":"DE-0061","type":"small_airport","name":"Altötting Airfield","elevation_ft":"1311","continent":"EU","iso_country":"DE","iso_region":"DE-BY","municipality":"Altötting","scheduled_service":"no","keywords":"Osterwies"},"geometry":{"type":"Point","coordinates":[12.6484,48.2162]}},{"id":"515402","type":"Feature","properties":{"ident":"DE-0667","type":"heliport","name":"Altötting-Burghausen District Hospital Altötting Heliport","elevation_ft":"1306","continent":"EU","iso_country":"DE","iso_region":"DE-BY","municipality":"Altötting","scheduled_service":"no"},"geometry":{"type":"Point","coordinates":[12.67676,48.23503]}},{"id":"515398","type":"Feature","properties":{"ident":"DE-0663","type":"heliport","name":"Altötting-Burghausen District Hospital Burghausen Heliport","elevation_ft":"1388","continent":"EU","iso_country":"DE","iso_region":"DE-BY","municipality":"Burghausen","scheduled_service":"no"},"geometry":{"type":"Point","coordinates":[12.84225,48.167201]}},{"id":"308272","type":"Feature","properties":{"ident":"DE-0057","type":"small_airport","name":"Am Kreuzberg Glider Airfield","elevation_ft":"875","continent":"EU","iso_country":"DE","iso_region":"DE-BY","municipality":"Saal an der Saale","scheduled_service":"no"},"geometry":{"type":"Point","coordinates":[10.3734,50.3088]}},{"id":"309996","type":"Feature","properties":{"ident":"DE-0096","type":"small_airport","name":"Am Salzgittersee Airfield","elevation_ft":"260","continent":"EU","iso_country":"DE","iso_region":"DE-NI","municipality":"Salzgitter","scheduled_service":"no","home_link":"http://www.sg-aero.de/"},"geometry":{"type":"Point","coordinates":[10.31573,52.1702]}},{"id":"516014","type":"Feature","properties":{"ident":"DE-0766","type":"heliport","name":"AMEOS Hospital Aschersleben Heliport","elevation_ft":"449","continent":"EU","iso_country":"DE","iso_region":"DE-ST","municipality":"Aschersleben","scheduled_service":"no"},"geometry":{"type":"Point","coordinates":[11.45676,51.74479]}},{"id":"515781","type":"Feature","properties":{"ident":"DE-0735","type":"heliport","name":"AMEOS Hospital Bernburg Heliport","continent":"EU","iso_country":"DE","iso_region":"DE-ST","municipality":"Bernburg (Saale)","scheduled_service":"no"},"geometry":{"type":"Point","coordinates":[11.73507,51.78164]}},{"id":"515780","type":"Feature","properties":{"ident":"DE-0734","type":"heliport","name":"AMEOS Hospital Sankt Salvator Halberstadt Heliport","elevation_ft":"367","continent":"EU","iso_country":"DE","iso_region":"DE-ST","municipality":"Halberstadt","scheduled_service":"no"},"geometry":{"type":"Point","coordinates":[11.05214,51.90157]}},{"id":"516104","type":"Feature","properties":{"ident":"DE-0797","type":"heliport","name":"AMEOS Hospital Staßfurt Heliport","elevation_ft":"217","continent":"EU","iso_country":"DE","iso_region":"DE-ST","municipality":"Staßfurt","scheduled_service":"no"},"geometry":{"type":"Point","coordinates":[11.59181,51.85366]}},{"id":"28498","type":"Feature","properties":{"ident":"EDNA","type":"small_airport","name":"Ampfing-Waldkraiburg Airfield","elevation_ft":"1362","continent":"EU","iso_country":"DE","iso_region":"DE-BY","municipality":"Ampfing","scheduled_service":"no","gps_code":"EDNA","wikipedia_link":"https://de.wikipedia.org/wiki/Flugplatz_Ampfing"},"geometry":{"type":"Point","coordinates":[12.411667,48.263611]}},{"id":"514043","type":"Feature","properties":{"ident":"DE-0543","type":"heliport","name":"Amsterdam Street Children's Hospital Heliport","elevation_ft":"167","continent":"EU","iso_country":"DE","iso_region":"DE-NW","municipality":"Köln (Cologne)","scheduled_service":"no","keywords":"Kinderkrankenhaus Amsterdamer Straße Hubschrauberlandeplatz"},"geometry":{"type":"Point","coordinates":[6.9669,50.96237]}},{"id":"312208","type":"Feature","properties":{"ident":"DE-0135","type":"small_airport","name":"Amöneburg Airfield","elevation_ft":"790","continent":"EU","iso_country":"DE","iso_region":"DE-HE","municipality":"Amöneburg","scheduled_service":"no","home_link":"http://fsv-blitz.de/de/home.html","keywords":"EDEC"},"geometry":{"type":"Point","coordinates":[8.90635,50.78985]}},{"id":"2203","type":"Feature","properties":{"ident":"EDCA","type":"small_airport","name":"Anklam Otto Lilienthal Airfield","elevation_ft":"16","continent":"EU","iso_country":"DE","iso_region":"DE-MV","municipality":"Anklam","scheduled_service":"no","gps_code":"EDCA","wikipedia_link":"https://de.wikipedia.org/wiki/Flugplatz_Anklam","keywords":"Anklamer Flugplatz Otto Lilienthal"},"geometry":{"type":"Point","coordinates":[13.668611,53.832779]}},{"id":"29393","type":"Feature","properties":{"ident":"ETEB","type":"heliport","name":"Ansbach Katterbach Army Heliport","continent":"EU","iso_country":"DE","iso_region":"DE-BY","municipality":"Ansbach","scheduled_service":"no","gps_code":"ETEB","wikipedia_link":"https://en.wikipedia.org/wiki/Katterbach_Kaserne"},"geometry":{"type":"Point","coordinates":[10.6387,49.308201]}},{"id":"28499","type":"Feature","properties":{"ident":"EDQF","type":"small_airport","name":"Ansbach-Petersdorf Airfield","elevation_ft":"1371","continent":"EU","iso_country":"DE","iso_region":"DE-BY","municipality":"Weihenzell","scheduled_service":"no","gps_code":"EDQF","home_link":"https://www.aeroclub-ansbach.de/startseite.html","wikipedia_link":"https://de.wikipedia.org/wiki/Flugplatz_Ansbach-Petersdorf"},"geometry":{"type":"Point","coordinates":[10.669444,49.361111]}},{"id":"28500","type":"Feature","properties":{"ident":"EDFA","type":"small_airport","name":"Anspach-Taunus Airfield","elevation_ft":"1102","continent":"EU","iso_country":"DE","iso_region":"DE-HE","municipality":"Wehrheim","scheduled_service":"no","gps_code":"EDFA","wikipedia_link":"https://de.wikipedia.org/wiki/Flugplatz_Anspach/Taunus","keywords":"Flugplatz Anspach/Taunus"},"geometry":{"type":"Point","coordinates":[8.533889,50.288334]}},{"id":"315848","type":"Feature","properties":{"ident":"DE-0276","type":"small_airport","name":"Antdorf Ultralight Airfield","elevation_ft":"2014","continent":"EU","iso_country":"DE","iso_region":"DE-BY","municipality":"Antdorf","scheduled_service":"no"},"geometry":{"type":"Point","coordinates":[11.304356,47.760048]}},{"id":"308407","type":"Feature","properties":{"ident":"DE-0062","type":"small_airport","name":"Antersberg Airfield","elevation_ft":"1605","continent":"EU","iso_country":"DE","iso_region":"DE-BY","municipality":"Antersberg","scheduled_service":"no"},"geometry":{"type":"Point","coordinates":[11.9955,47.9629]}},{"id":"28501","type":"Feature","properties":{"ident":"EDNB","type":"small_airport","name":"Arnbruck Airfield","elevation_ft":"1716","continent":"EU","iso_country":"DE","iso_region":"DE-BY","municipality":"Arnbruck","scheduled_service":"no","gps_code":"EDNB","wikipedia_link":"https://de.wikipedia.org/wiki/Flugplatz_Arnbruck"},"geometry":{"type":"Point","coordinates":[12.985556,49.124722]}},{"id":"2240","type":"Feature","properties":{"ident":"EDLA","type":"small_airport","name":"Arnsberg-Menden Airfield","elevation_ft":"794","continent":"EU","iso_country":"DE","iso_region":"DE-NW","municipality":"Arnsberg","scheduled_service":"no","gps_code":"EDLA","wikipedia_link":"https://de.wikipedia.org/wiki/Flugplatz_Arnsberg-Menden"},"geometry":{"type":"Point","coordinates":[7.898333,51.483891]}},{"id":"314555","type":"Feature","properties":{"ident":"DE-0171","type":"small_airport","name":"Arnsberg-Ruhrwiese Airfield","elevation_ft":"611","continent":"EU","iso_country":"DE","iso_region":"DE-NW","municipality":"Arnsberg","scheduled_service":"no","home_link":"http://www.aeroclub-arnsberg.de/","wikipedia_link":"http://de.wikipedia.org/wiki/Segelfluggel%C3%A4nde_Arnsberg_Ruhrwiese"},"geometry":{"type":"Point","coordinates":[8.0605,51.3878]}},{"id":"315725","type":"Feature","properties":{"ident":"DE-0254","type":"small_airport","name":"Arnschwang ULM","elevation_ft":"1355","continent":"EU","iso_country":"DE","iso_region":"DE-BY","municipality":"Arnschwang","scheduled_service":"no"},"geometry":{"type":"Point","coordinates":[12.778309,49.271627]}},{"id":"28495","type":"Feature","properties":{"ident":"EDBA","type":"small_airport","name":"Arnstadt-Alkersleben Airfield","elevation_ft":"1145","continent":"EU","iso_country":"DE","iso_region":"DE-TH","municipality":"Osthausen-Wülfershausen","scheduled_service":"no","gps_code":"EDBA","home_link":"http://www.flugplatz-alkersleben.de/","wikipedia_link":"http://de.wikipedia.org/wiki/Flugplatz_Arnstadt-Alkersleben","keywords":"Flugplatz Arnstadt-Alkersleben"},"geometry":{"type":"Point","coordinates":[11.069934,50.841873]}},{"id":"28502","type":"Feature","properties":{"ident":"EDFC","type":"small_airport","name":"Aschaffenburg Airfield","elevation_ft":"410","continent":"EU","iso_country":"DE","iso_region":"DE-BY","municipality":"Großostheim","scheduled_service":"no","gps_code":"EDFC","wikipedia_link":"https://de.wikipedia.org/wiki/Flugplatz_Aschaffenburg"},"geometry":{"type":"Point","coordinates":[9.062777,49.938806]}},{"id":"575730","type":"Feature","properties":{"ident":"DE-0864","type":"heliport","name":"Aschaffenburg Hospital Heliport","elevation_ft":"751","continent":"EU","iso_country":"DE","iso_region":"DE-BY","municipality":"Aschaffenburg","scheduled_service":"no"},"geometry":{"type":"Point","coordinates":[9.18859,49.9767]}},{"id":"28503","type":"Feature","properties":{"ident":"EDCQ","type":"small_airport","name":"Aschersleben Airfield","elevation_ft":"525","continent":"EU","iso_country":"DE","iso_region":"DE-ST","municipality":"Aschersleben","scheduled_service":"no","gps_code":"EDCQ","wikipedia_link":"https://de.wikipedia.org/wiki/Flugplatz_Aschersleben"},"geometry":{"type":"Point","coordinates":[11.498333,51.766945]}},{"id":"514579","type":"Feature","properties":{"ident":"DE-0592","type":"heliport","name":"Asklepios ASB Hospital Radeberg Heliport","elevation_ft":"833","continent":"EU","iso_country":"DE","iso_region":"DE-SN","municipality":"Radeberg","scheduled_service":"no"},"geometry":{"type":"Point","coordinates":[13.93073,51.12457]}},{"id":"514306","type":"Feature","properties":{"ident":"DE-0561","type":"heliport","name":"Asklepios Children's Clinic Sankt Augustin Heliport","elevation_ft":"206","continent":"EU","iso_country":"DE","iso_region":"DE-NW","municipality":"Sankt Augustin","scheduled_service":"no"},"geometry":{"type":"Point","coordinates":[7.1802,50.77646]}},{"id":"507046","type":"Feature","properties":{"ident":"DE-0504","type":"heliport","name":"Asklepios Clinic Bad Tölz Heliport","elevation_ft":"2160","continent":"EU","iso_country":"DE","iso_region":"DE-BY","municipality":"Bad Tölz","scheduled_service":"no"},"geometry":{"type":"Point","coordinates":[11.551597,47.755941]}},{"id":"514346","type":"Feature","properties":{"ident":"DE-0563","type":"heliport","name":"Asklepios Clinic Langen Heliport","elevation_ft":"522","continent":"EU","iso_country":"DE","iso_region":"DE-HE","municipality":"Langen (Hessen)","scheduled_service":"no"},"geometry":{"type":"Point","coordinates":[8.68459,49.99727]}},{"id":"515993","type":"Feature","properties":{"ident":"DE-0765","type":"heliport","name":"Asklepios Clinic Weißenfels Heliport","elevation_ft":"449","continent":"EU","iso_country":"DE","iso_region":"DE-ST","municipality":"Weißenfels","scheduled_service":"no"},"geometry":{"type":"Point","coordinates":[11.95542,51.19365]}},{"id":"355556","type":"Feature","properties":{"ident":"DE-0495","type":"heliport","name":"Asklepios Hospital Altona Heliport","elevation_ft":"85","continent":"EU","iso_country":"DE","iso_region":"DE-HH","municipality":"Hamburg","scheduled_service":"no","local_code":"AKHA","home_link":"https://www.asklepios.com/hamburg/altona/","wikipedia_link":"https://de.wikipedia.org/wiki/Asklepios_Klinik_Altona"},"geometry":{"type":"Point","coordinates":[9.902346,53.555431]}},{"id":"355555","type":"Feature","properties":{"ident":"DE-0494","type":"heliport","name":"Asklepios Hospital Harburg Helipad","elevation_ft":"210","continent":"EU","iso_country":"DE","iso_region":"DE-HH","municipality":"Hamburg","scheduled_service":"no","local_code":"AKHAR","home_link":"https://www.asklepios.com/hamburg/harburg/"},"geometry":{"type":"Point","coordinates":[9.950835,53.459786]}},{"id":"514582","type":"Feature","properties":{"ident":"DE-0593","type":"heliport","name":"Asklepios Hospital München-Gauting Heliport","elevation_ft":"1932","continent":"EU","iso_country":"DE","iso_region":"DE-BY","municipality":"Gauting","scheduled_service":"no"},"geometry":{"type":"Point","coordinates":[11.35257,48.06684]}},{"id":"28504","type":"Feature","properties":{"ident":"EDKU","type":"small_airport","name":"Attendorn-Finnentrop Airfield","elevation_ft":"1040","continent":"EU","iso_country":"DE","iso_region":"DE-NW","municipality":"Attendorn","scheduled_service":"no","gps_code":"EDKU","home_link":"http://www.edku.de/","wikipedia_link":"https://de.wikipedia.org/wiki/Flugplatz_Attendorn-Finnentrop"},"geometry":{"type":"Point","coordinates":[7.936667,51.145832]}},{"id":"310656","type":"Feature","properties":{"ident":"DE-0108","type":"small_airport","name":"Aue bei Hattorf Airfield","elevation_ft":"618","continent":"EU","iso_country":"DE","iso_region":"DE-NI","municipality":"Hattorf am Harz","scheduled_service":"no"},"geometry":{"type":"Point","coordinates":[10.2544,51.6334]}},{"id":"28505","type":"Feature","properties":{"ident":"EDOA","type":"small_airport","name":"Auerbach Airfield","elevation_ft":"1880","continent":"EU","iso_country":"DE","iso_region":"DE-SN","municipality":"Auerbach/Vogtland","scheduled_service":"no","gps_code":"EDOA","home_link":"http://www.flugplatzgesellschaft-auerbach.de/","wikipedia_link":"http://de.wikipedia.org/wiki/Flugplatz_Auerbach","keywords":"Flugplatz Auerbach"},"geometry":{"type":"Point","coordinates":[12.377987,50.497305]}},{"id":"315935","type":"Feature","properties":{"ident":"DE-0283","type":"small_airport","name":"Auf der Schaufel Ultralight Airfield","elevation_ft":"1102","continent":"EU","iso_country":"DE","iso_region":"DE-NW","municipality":"Bad Wildungen","scheduled_service":"no","keywords":"UL-Flugplatz \"Auf der Schaufel\""},"geometry":{"type":"Point","coordinates":[9.148333,51.093889]}},{"id":"2248","type":"Feature","properties":{"ident":"EDMA","type":"medium_airport","name":"Augsburg Airport","elevation_ft":"1516","continent":"EU","iso_country":"DE","iso_region":"DE-BY","municipality":"Augsburg","scheduled_service":"no","gps_code":"EDMA","iata_code":"AGB","home_link":"https://www.augsburg-airport.de/","wikipedia_link":"https://en.wikipedia.org/wiki/Augsburg_Airport"},"geometry":{"type":"Point","coordinates":[10.931667,48.425278]}},{"id":"515420","type":"Feature","properties":{"ident":"DE-0672","type":"heliport","name":"Augsburg University Hospital Heliport","continent":"EU","iso_country":"DE","iso_region":"DE-BY","municipality":"Augsburg","scheduled_service":"no","keywords":"Christoph 40"},"geometry":{"type":"Point","coordinates":[10.83784,48.38452]}},{"id":"299694","type":"Feature","properties":{"ident":"DE-0003","type":"small_airport","name":"August Euler Airfield","elevation_ft":"358","continent":"EU","iso_country":"DE","iso_region":"DE-HE","municipality":"Griesheim","scheduled_service":"no","gps_code":"EDES","home_link":"https://web.archive.org/web/20201019233127/http://www.sla.tu-darmstadt.de/windkanal/einrichtungen_sla/flugplatz_sla/index.de.jsp","wikipedia_link":"https://en.wikipedia.org/wiki/Griesheim_Airport","keywords":"ZCS, August-Euler Flugplatz, Griesheim Airport"},"geometry":{"type":"Point","coordinates":[8.586243,49.853757]}},{"id":"315304","type":"Feature","properties":{"ident":"DE-0191","type":"small_airport","name":"Aukrug Airfield","elevation_ft":"50","continent":"EU","iso_country":"DE","iso_region":"DE-SH","municipality":"Aukrug","scheduled_service":"no","home_link":"http://www.segelflug-aukrug.de/index.html","wikipedia_link":"https://de.wikipedia.org/wiki/Segelfluggel%C3%A4nde_Aukrug"},"geometry":{"type":"Point","coordinates":[9.7983,54.0647]}},{"id":"353766","type":"Feature","properties":{"ident":"DE-0475","type":"heliport","name":"Aussenlandeplatz Innenstadtkliniken Goetheplatz","elevation_ft":"1725","continent":"EU","iso_country":"DE","iso_region":"DE-BY","municipality":"München","scheduled_service":"no"},"geometry":{"type":"Point","coordinates":[11.562263,48.133208]}},{"id":"563521","type":"Feature","properties":{"ident":"DE-0818","type":"heliport","name":"Autobahn Police Heiligenroth Heliport","elevation_ft":"873","continent":"EU","iso_country":"DE","iso_region":"DE-RP","municipality":"Heiligenroth","scheduled_service":"no"},"geometry":{"type":"Point","coordinates":[7.84539,50.44692]}},{"id":"564949","type":"Feature","properties":{"ident":"DE-0844","type":"heliport","name":"Autobahn Police Ruchheim Heliport","elevation_ft":"328","continent":"EU","iso_country":"DE","iso_region":"DE-RP","municipality":"Ludwigshafen am Rhein","scheduled_service":"no"},"geometry":{"type":"Point","coordinates":[8.32379,49.47969]}},{"id":"563552","type":"Feature","properties":{"ident":"DE-0829","type":"heliport","name":"Autobahn Police South Hesse Heliport","elevation_ft":"420","continent":"EU","iso_country":"DE","iso_region":"DE-HE","municipality":"Darmstadt","scheduled_service":"no"},"geometry":{"type":"Point","coordinates":[8.62122,49.86663]}},{"id":"563502","type":"Feature","properties":{"ident":"DE-0815","type":"heliport","name":"Autobahn Police Wiesbaden Heliport","elevation_ft":"692","continent":"EU","iso_country":"DE","iso_region":"DE-HE","municipality":"Wiesbaden","scheduled_service":"no"},"geometry":{"type":"Point","coordinates":[8.34958,50.09831]}},{"id":"315852","type":"Feature","properties":{"ident":"DE-0278","type":"small_airport","name":"Aventoft Airfield","elevation_ft":"-10","continent":"EU","iso_country":"DE","iso_region":"DE-SH","municipality":"Aventoft","scheduled_service":"no","home_link":"http://www.flugplatz-aventoft.de/"},"geometry":{"type":"Point","coordinates":[8.8208,54.8961]}},{"id":"563549","type":"Feature","properties":{"ident":"DE-0827","type":"heliport","name":"Ayrshire Barracks South Heliport","elevation_ft":"269","continent":"EU","iso_country":"DE","iso_region":"DE-NW","municipality":"Mönchengladbach","scheduled_service":"no"},"geometry":{"type":"Point","coordinates":[6.39323,51.16992]}},{"id":"521444","type":"Feature","properties":{"ident":"DE-0801","type":"small_airport","name":"Aßberg UL","continent":"EU","iso_country":"DE","iso_region":"DE-BY","municipality":"Jandelsbrunn","scheduled_service":"no"},"geometry":{"type":"Point","coordinates":[13.68585,48.71549]}},{"id":"312209","type":"Feature","properties":{"ident":"DE-0136","type":"small_airport","name":"Aßlarer Hütte Airfield","elevation_ft":"753","continent":"EU","iso_country":"DE","iso_region":"DE-HE","municipality":"Aßlar","scheduled_service":"no","home_link":"http://www.vflasslar.de/"},"geometry":{"type":"Point","coordinates":[8.4439,50.5999]}},{"id":"28506","type":"Feature","properties":{"ident":"EDSH","type":"small_airport","name":"Backnang-Heiningen Airfield","elevation_ft":"965","continent":"EU","iso_country":"DE","iso_region":"DE-BW","municipality":"Backnang","scheduled_service":"no","gps_code":"EDSH","home_link":"http://www.edsh.de/","wikipedia_link":"https://de.wikipedia.org/wiki/Flugplatz_Backnang-Heiningen","keywords":"Flugplatz Backnang-Heiningen"},"geometry":{"type":"Point","coordinates":[9.455278,48.919724]}},{"id":"28507","type":"Feature","properties":{"ident":"EDOB","type":"small_airport","name":"Bad Berka Airfield","elevation_ft":"1001","continent":"EU","iso_country":"DE","iso_region":"DE-TH","municipality":"Bad Berka","scheduled_service":"no","gps_code":"EDOB","home_link":"http://www.flugplatz-badberka.de/","wikipedia_link":"http://de.wikipedia.org/wiki/Flugplatz_Bad_Berka","keywords":"Flugplatz Bad Berka"},"geometry":{"type":"Point","coordinates":[11.260278,50.904446]}},{"id":"575707","type":"Feature","properties":{"ident":"DE-0860","type":"heliport","name":"Bad Berka Central Hospital Heliport","continent":"EU","iso_country":"DE","iso_region":"DE-TH","municipality":"Bad Berka","scheduled_service":"no"},"geometry":{"type":"Point","coordinates":[11.26623,50.88993]}},{"id":"516078","type":"Feature","properties":{"ident":"DE-0783","type":"heliport","name":"Bad Berleburg Air Rescue Heliport","elevation_ft":"1490","continent":"EU","iso_country":"DE","iso_region":"DE-NW","municipality":"Bad Berleburg","scheduled_service":"no"},"geometry":{"type":"Point","coordinates":[8.40527,51.06198]}},{"id":"315561","type":"Feature","properties":{"ident":"DE-0223","type":"small_airport","name":"Bad Bibra Airfield","elevation_ft":"984","continent":"EU","iso_country":"DE","iso_region":"DE-ST","municipality":"Finne","scheduled_service":"no"},"geometry":{"type":"Point","coordinates":[11.498222,51.20199]}},{"id":"308606","type":"Feature","properties":{"ident":"EDHX","type":"heliport","name":"Bad Bramstedt Heliport","elevation_ft":"118","continent":"EU","iso_country":"DE","iso_region":"DE-SH","municipality":"Bad Bramstedt","scheduled_service":"no","gps_code":"EDHX"},"geometry":{"type":"Point","coordinates":[9.9055,53.9428]}},{"id":"28508","type":"Feature","properties":{"ident":"EDPB","type":"small_airport","name":"Bad Ditzenbach Airfield","elevation_ft":"2362","continent":"EU","iso_country":"DE","iso_region":"DE-BW","municipality":"Bad Ditzenbach","scheduled_service":"no","gps_code":"EDPB","wikipedia_link":"https://de.wikipedia.org/wiki/Flugplatz_Bad_Ditzenbach"},"geometry":{"type":"Point","coordinates":[9.728889,48.562778]}},{"id":"28509","type":"Feature","properties":{"ident":"EDRF","type":"small_airport","name":"Bad Dürkheim Airfield","elevation_ft":"351","continent":"EU","iso_country":"DE","iso_region":"DE-RP","municipality":"Bad Dürkheim","scheduled_service":"no","gps_code":"EDRF","wikipedia_link":"https://de.wikipedia.org/wiki/Flugplatz_Bad_D%C3%BCrkheim"},"geometry":{"type":"Point","coordinates":[8.195737,49.4728]}},{"id":"29678","type":"Feature","properties":{"ident":"EDPC","type":"small_airport","name":"Bad Endorf/Jolling Airfield","elevation_ft":"1690","continent":"EU","iso_country":"DE","iso_region":"DE-BY","municipality":"Bad Endorf","scheduled_service":"no","gps_code":"EDPC","home_link":"http://www.edpc.de/Willkommen.html","wikipedia_link":"https://de.wikipedia.org/wiki/Flugplatz_Bad_Endorf/Jolling"},"geometry":{"type":"Point","coordinates":[12.2872,47.926899]}},{"id":"28510","type":"Feature","properties":{"ident":"EDOF","type":"small_airport","name":"Bad Frankenhausen Airfield","elevation_ft":"761","continent":"EU","iso_country":"DE","iso_region":"DE-TH","municipality":"Bad Frankenhausen","scheduled_service":"no","gps_code":"EDOF","wikipedia_link":"https://de.wikipedia.org/wiki/Flugplatz_Bad_Frankenhausen","keywords":"Flugplatz Bad Frankenhausen"},"geometry":{"type":"Point","coordinates":[11.141389,51.372501]}},{"id":"28511","type":"Feature","properties":{"ident":"EDVA","type":"small_airport","name":"Bad Gandersheim Airfield","elevation_ft":"791","continent":"EU","iso_country":"DE","iso_region":"DE-NI","municipality":"Bad Gandersheim","scheduled_service":"no","gps_code":"EDVA","wikipedia_link":"https://en.wikipedia.org/wiki/Bad_Gandersheim_Aerodrome","keywords":"Gandersheim-Seesen"},"geometry":{"type":"Point","coordinates":[10.025556,51.854168]}},{"id":"314001","type":"Feature","properties":{"ident":"EDEN","type":"small_airport","name":"Bad Hersfeld Airfield","continent":"EU","iso_country":"DE","iso_region":"DE-HE","municipality":"Bad Hersfeld","scheduled_service":"no","gps_code":"EDEN","wikipedia_link":"https://de.wikipedia.org/wiki/Flugplatz_Bad_Hersfeld","keywords":"EDOZ, Johannesberg"},"geometry":{"type":"Point","coordinates":[9.707218,50.844055]}},{"id":"515918","type":"Feature","properties":{"ident":"DE-0744","type":"heliport","name":"Bad Hersfeld Hospital Heliport","elevation_ft":"874","continent":"EU","iso_country":"DE","iso_region":"DE-HE","municipality":"Bad Hersfeld","scheduled_service":"no"},"geometry":{"type":"Point","coordinates":[9.71497,50.87705]}},{"id":"28512","type":"Feature","properties":{"ident":"EDFK","type":"small_airport","name":"Bad Kissingen Airfield","elevation_ft":"653","continent":"EU","iso_country":"DE","iso_region":"DE-BY","municipality":"Bad Kissingen","scheduled_service":"no","gps_code":"EDFK","wikipedia_link":"https://en.wikipedia.org/wiki/Bad_Kissingen_Airfield"},"geometry":{"type":"Point","coordinates":[10.068889,50.210556]}},{"id":"308980","type":"Feature","properties":{"ident":"DE-0071","type":"small_airport","name":"Bad Königshofen Airfield","elevation_ft":"1030","continent":"EU","iso_country":"DE","iso_region":"DE-BY","municipality":"Bad Königshofen","scheduled_service":"no","home_link":"http://www.amhimmelreich.com/home.html","keywords":"\"Kingdom of Heaven\""},"geometry":{"type":"Point","coordinates":[10.4225,50.2876]}},{"id":"29070","type":"Feature","properties":{"ident":"EDEB","type":"small_airport","name":"Bad Langensalza Airfield","elevation_ft":"650","continent":"EU","iso_country":"DE","iso_region":"DE-TH","municipality":"Bad Langensalza","scheduled_service":"no","gps_code":"EDEB","wikipedia_link":"http://de.wikipedia.org/wiki/Flugplatz_Bad_Langensalza","keywords":"Flugplatz Bad Langensalza"},"geometry":{"type":"Point","coordinates":[10.622222,51.129166]}},{"id":"315891","type":"Feature","properties":{"ident":"DE-0280","type":"small_airport","name":"Bad Marienberg Airfield","elevation_ft":"1792","continent":"EU","iso_country":"DE","iso_region":"DE-RP","municipality":"Oberroßbach","scheduled_service":"no","home_link":"http://www.lcm-badmarienberg.de/","keywords":"Hof, Oberroßbach"},"geometry":{"type":"Point","coordinates":[8.0276,50.6611]}},{"id":"28514","type":"Feature","properties":{"ident":"EDRA","type":"small_airport","name":"Bad Neuenahr-Ahrweiler Airfield","elevation_ft":"673","continent":"EU","iso_country":"DE","iso_region":"DE-RP","municipality":"Bad Neuenahr","scheduled_service":"no","gps_code":"EDRA","wikipedia_link":"https://de.wikipedia.org/wiki/Flugplatz_Bad_Neuenahr-Ahrweiler"},"geometry":{"type":"Point","coordinates":[7.137144,50.557779]}},{"id":"515272","type":"Feature","properties":{"ident":"DE-0640","type":"heliport","name":"Bad Neustadt an der Saale Hospital Heliport","continent":"EU","iso_country":"DE","iso_region":"DE-BY","municipality":"Bad Neustadt an der Saale","scheduled_service":"no","keywords":"RHÖN-KLINIKUM Campus Bad Neustadt"},"geometry":{"type":"Point","coordinates":[10.23508,50.32265]}},{"id":"28515","type":"Feature","properties":{"ident":"EDFD","type":"small_airport","name":"Bad Neustadt/Saale-Grasberg Airfield","elevation_ft":"997","continent":"EU","iso_country":"DE","iso_region":"DE-BY","municipality":"Bad Neustadt an der Saale","scheduled_service":"no","gps_code":"EDFD","wikipedia_link":"https://de.wikipedia.org/wiki/Flugplatz_Bad_Neustadt/Saale-Grasberg"},"geometry":{"type":"Point","coordinates":[10.227284,50.306062]}},{"id":"28516","type":"Feature","properties":{"ident":"EDVW","type":"small_airport","name":"Bad Pyrmont Airfield","elevation_ft":"1178","continent":"EU","iso_country":"DE","iso_region":"DE-NI","municipality":"Bad Pyrmont","scheduled_service":"no","gps_code":"EDVW","wikipedia_link":"https://de.wikipedia.org/wiki/Flugplatz_Bad_Pyrmont","keywords":"Flugplatz Hameln-Pyrmont, Hameln-Pyrmont"},"geometry":{"type":"Point","coordinates":[9.291667,51.966667]}},{"id":"45225","type":"Feature","properties":{"ident":"DE-0031","type":"heliport","name":"Bad Reichenhall Hospital Helipad","continent":"EU","iso_country":"DE","iso_region":"DE-BY","municipality":"Bad Reichenhal","scheduled_service":"no","home_link":"http://www.kliniken-suedostbayern.de/de/main/kreisklinik_bad_reichenhall.htm","keywords":"Kreisklinik Bad Reichenhall Hubschrauberlandeplatz"},"geometry":{"type":"Point","coordinates":[12.872484,47.728492]}},{"id":"329299","type":"Feature","properties":{"ident":"DE-0423","type":"heliport","name":"Bad Saarow Hospital Heliport","continent":"EU","iso_country":"DE","iso_region":"DE-BR","scheduled_service":"no"},"geometry":{"type":"Point","coordinates":[14.06036,52.284419]}},{"id":"515947","type":"Feature","properties":{"ident":"DE-0749","type":"heliport","name":"Bad Salzungen Hospital Heliport","elevation_ft":"942","continent":"EU","iso_country":"DE","iso_region":"DE-TH","municipality":"Bad Salzungen","scheduled_service":"no"},"geometry":{"type":"Point","coordinates":[10.21672,50.8042]}},{"id":"28714","type":"Feature","properties":{"ident":"EDTU","type":"small_airport","name":"Bad Saulgau Airfield","elevation_ft":"1903","continent":"EU","iso_country":"DE","iso_region":"DE-BW","municipality":"Bad Saulgau","scheduled_service":"no","gps_code":"EDTU","wikipedia_link":"https://de.wikipedia.org/wiki/Flugplatz_Saulgau","keywords":"Flugplatz Bad Saulgau, Flugplatz Saulgau"},"geometry":{"type":"Point","coordinates":[9.507222,48.029446]}},{"id":"28729","type":"Feature","properties":{"ident":"EDRS","type":"small_airport","name":"Bad Sobernheim-Domberg Airfield","elevation_ft":"810","continent":"EU","iso_country":"DE","iso_region":"DE-RP","municipality":"Bad Sobernheim","scheduled_service":"no","gps_code":"EDRS","wikipedia_link":"https://de.wikipedia.org/wiki/Flugplatz_Bad_Sobernheim-Domberg","keywords":"Flugplatz Bad Sobernheim-Domberg"},"geometry":{"type":"Point","coordinates":[7.666111,49.790833]}},{"id":"28517","type":"Feature","properties":{"ident":"EDQB","type":"small_airport","name":"Bad Windsheim Airfield","elevation_ft":"1220","continent":"EU","iso_country":"DE","iso_region":"DE-BY","municipality":"Bad Windsheim","scheduled_service":"no","gps_code":"EDQB","wikipedia_link":"https://de.wikipedia.org/wiki/Flugplatz_Bad_Windsheim"},"geometry":{"type":"Point","coordinates":[10.366389,49.509998]}},{"id":"28518","type":"Feature","properties":{"ident":"EDNH","type":"small_airport","name":"Bad Wörishofen (Nord) Airfield","elevation_ft":"2034","continent":"EU","iso_country":"DE","iso_region":"DE-BY","municipality":"Bad Wörishofen","scheduled_service":"no","gps_code":"EDNH","wikipedia_link":"https://de.wikipedia.org/wiki/Flugplatz_Bad_W%C3%B6rishofen-Nord","keywords":"Flugplatz Bad Wörishofen (Nord)"},"geometry":{"type":"Point","coordinates":[10.615025,48.016124]}},{"id":"308982","type":"Feature","properties":{"ident":"DE-0072","type":"small_airport","name":"Bad Wörishofen Glider Airfield","elevation_ft":"2020","continent":"EU","iso_country":"DE","iso_region":"DE-BY","municipality":"Bad Wörishofen","scheduled_service":"no","home_link":"http://www.badwoerishofen-segelflug.de/","keywords":"Segelflugplatz Bad Wörishofen"},"geometry":{"type":"Point","coordinates":[10.60135,48.02678]}},{"id":"310658","type":"Feature","properties":{"ident":"DE-0110","type":"small_airport","name":"Bad Zwischenahn-Rostrup Airfield","elevation_ft":"33","continent":"EU","iso_country":"DE","iso_region":"DE-NI","municipality":"Bad Zwischenahn","scheduled_service":"no","keywords":"Segelfluggelände Bad Zwischenahn-Rostrup"},"geometry":{"type":"Point","coordinates":[7.9887,53.2102]}},{"id":"2272","type":"Feature","properties":{"ident":"EDTB","type":"small_airport","name":"Baden-Oos Airfield","elevation_ft":"404","continent":"EU","iso_country":"DE","iso_region":"DE-BW","municipality":"Baden-Baden","scheduled_service":"no","gps_code":"EDTB","home_link":"http://www.flugplatz-baden-oos.com/","wikipedia_link":"https://de.wikipedia.org/wiki/Flugplatz_Baden-Oos","keywords":"Flugplatz Baden-Oos"},"geometry":{"type":"Point","coordinates":[8.185833,48.791943]}},{"id":"28519","type":"Feature","properties":{"ident":"EDCB","type":"small_airport","name":"Ballenstedt Airfield","elevation_ft":"535","continent":"EU","iso_country":"DE","iso_region":"DE-ST","municipality":"Ballenstedt","scheduled_service":"no","gps_code":"EDCB","home_link":"http://www.flugplatz-ballenstedt.de","wikipedia_link":"https://de.wikipedia.org/wiki/Flugplatz_Ballenstedt","keywords":"Flugplatz Ballenstedt, Verkehrslandeplatz Ballenstedt/Quedlinburg"},"geometry":{"type":"Point","coordinates":[11.229722,51.745834]}},{"id":"28520","type":"Feature","properties":{"ident":"EDWZ","type":"small_airport","name":"Baltrum Airport","elevation_ft":"7","continent":"EU","iso_country":"DE","iso_region":"DE-NI","municipality":"Baltrum","scheduled_service":"yes","gps_code":"EDWZ","iata_code":"BMR","home_link":"https://www.baltrum-flug.de/","wikipedia_link":"https://de.wikipedia.org/wiki/Flugplatz_Baltrum"},"geometry":{"type":"Point","coordinates":[7.373257,53.72485]}},{"id":"515547","type":"Feature","properties":{"ident":"DE-0687","type":"heliport","name":"Bamberg Hospital Heliport","elevation_ft":"948","continent":"EU","iso_country":"DE","iso_region":"DE-BY","municipality":"Bamberg","scheduled_service":"no"},"geometry":{"type":"Point","coordinates":[10.88804,49.8676]}},{"id":"317932","type":"Feature","properties":{"ident":"EDQA","type":"medium_airport","name":"Bamberg-Breitenau Airfield","elevation_ft":"811","continent":"EU","iso_country":"DE","iso_region":"DE-BY","municipality":"Bamberg","scheduled_service":"no","gps_code":"EDQA","home_link":"http://www.aeroclub-bamberg.de/","wikipedia_link":"https://de.wikipedia.org/wiki/Flugplatz_Bamberg-Breitenau","keywords":"Bamberg, Breitenau"},"geometry":{"type":"Point","coordinates":[10.914233,49.920403]}},{"id":"514772","type":"Feature","properties":{"ident":"DE-0614","type":"heliport","name":"Barmherzige Brüder (Brothers of Mercy) Hospital Regensburg Heliport","continent":"EU","iso_country":"DE","iso_region":"DE-BY","municipality":"Regensburg","scheduled_service":"no","keywords":"Hubschrauberlandeplatz Barmherzige Brüder Regensburg"},"geometry":{"type":"Point","coordinates":[12.06322,49.01728]}},{"id":"29085","type":"Feature","properties":{"ident":"EDPU","type":"small_airport","name":"Bartholomä-Amalienhof Airfield","elevation_ft":"2092","continent":"EU","iso_country":"DE","iso_region":"DE-BW","municipality":"Bartholomä","scheduled_service":"no","gps_code":"EDPU","home_link":"http://edpu.de","wikipedia_link":"https://de.wikipedia.org/wiki/Flugplatz_Bartholom%C3%A4-Amalienhof","keywords":"Akaflieg, Akaflieg Stuttgart"},"geometry":{"type":"Point","coordinates":[10.005,48.746666]}},{"id":"28521","type":"Feature","properties":{"ident":"EDXL","type":"small_airport","name":"Barßel Airfield","elevation_ft":"10","continent":"EU","iso_country":"DE","iso_region":"DE-NI","municipality":"Barßel","scheduled_service":"no","gps_code":"EDXL","wikipedia_link":"https://de.wikipedia.org/wiki/Flugplatz_Bar%C3%9Fel","keywords":"Barßel-Oltmanns, Flugplatz Barßel"},"geometry":{"type":"Point","coordinates":[7.793889,53.164444]}},{"id":"315892","type":"Feature","properties":{"ident":"DE-0281","type":"small_airport","name":"Baumerlenbach Airfield","elevation_ft":"800","continent":"EU","iso_country":"DE","iso_region":"DE-BW","municipality":"Langenbrettach","scheduled_service":"no","home_link":"http://www.fsg-oehringen.de/"},"geometry":{"type":"Point","coordinates":[9.421,49.231]}},{"id":"2183","type":"Feature","properties":{"ident":"EDAB","type":"small_airport","name":"Bautzen Airfield","elevation_ft":"568","continent":"EU","iso_country":"DE","iso_region":"DE-SN","municipality":"Kubschütz","scheduled_service":"no","gps_code":"EDAB","home_link":"http://www.flugplatz-bautzen.de/","wikipedia_link":"http://de.wikipedia.org/wiki/Flugplatz_Bautzen","keywords":"Flugplatz Bautzen"},"geometry":{"type":"Point","coordinates":[14.519722,51.193611]}},{"id":"515340","type":"Feature","properties":{"ident":"DE-0652","type":"heliport","name":"Bautzen-Bischofswerda Hospital Heliport","elevation_ft":"997","continent":"EU","iso_country":"DE","iso_region":"DE-SN","municipality":"Bischofswerda","scheduled_service":"no"},"geometry":{"type":"Point","coordinates":[14.1775,51.13689]}},{"id":"575698","type":"Feature","properties":{"ident":"DE-0856","type":"heliport","name":"Bavaria Hospital Kreischa Heliport","elevation_ft":"725","continent":"EU","iso_country":"DE","iso_region":"DE-SN","municipality":"Kreischa","scheduled_service":"no"},"geometry":{"type":"Point","coordinates":[13.76707,50.94682]}},{"id":"2261","type":"Feature","properties":{"ident":"EDQD","type":"medium_airport","name":"Bayreuth Airport","elevation_ft":"1601","continent":"EU","iso_country":"DE","iso_region":"DE-BY","municipality":"Bindlach","scheduled_service":"no","gps_code":"EDQD","iata_code":"BYU","wikipedia_link":"https://en.wikipedia.org/wiki/Bindlacher_Berg_Airport","keywords":"Bindlacher Berg Airport"},"geometry":{"type":"Point","coordinates":[11.64,49.985001]}},{"id":"516023","type":"Feature","properties":{"ident":"DE-0771","type":"heliport","name":"Bayreuth Hospital Heliport","elevation_ft":"1388","continent":"EU","iso_country":"DE","iso_region":"DE-BY","municipality":"Bayreuth","scheduled_service":"no","keywords":"Christoph 20"},"geometry":{"type":"Point","coordinates":[11.5355,49.94438]}},{"id":"564937","type":"Feature","properties":{"ident":"DE-0841","type":"heliport","name":"Bayreuth Psychiatric Hospital Heliport","elevation_ft":"1122","continent":"EU","iso_country":"DE","iso_region":"DE-BY","municipality":"Bayreuth","scheduled_service":"no"},"geometry":{"type":"Point","coordinates":[11.56823,49.95663]}},{"id":"320213","type":"Feature","properties":{"ident":"DE-0353","type":"small_airport","name":"Beedeln Ultralight Flightpark","continent":"EU","iso_country":"DE","iso_region":"DE-SN","municipality":"Seelitz","scheduled_service":"no"},"geometry":{"type":"Point","coordinates":[12.814543,51.007235]}},{"id":"314002","type":"Feature","properties":{"ident":"EDLQ","type":"small_airport","name":"Beelen Airfield","continent":"EU","iso_country":"DE","iso_region":"DE-NW","municipality":"Beelen","scheduled_service":"no","gps_code":"EDLQ","wikipedia_link":"https://de.wikipedia.org/wiki/Flugplatz_Beelen","keywords":"Flugplatz Beelen"},"geometry":{"type":"Point","coordinates":[8.081667,51.931667]}},{"id":"28522","type":"Feature","properties":{"ident":"EDNC","type":"small_airport","name":"Beilngries Airfield","elevation_ft":"1211","continent":"EU","iso_country":"DE","iso_region":"DE-BY","municipality":"Beilngries","scheduled_service":"no","gps_code":"EDNC","wikipedia_link":"https://de.wikipedia.org/wiki/Flugplatz_Beilngries"},"geometry":{"type":"Point","coordinates":[11.484722,49.021389]}},{"id":"315389","type":"Feature","properties":{"ident":"DE-0194","type":"small_airport","name":"Bell-Hundheim UL","elevation_ft":"1434","continent":"EU","iso_country":"DE","iso_region":"DE-RP","municipality":"Bell","scheduled_service":"no","home_link":"https://www.diamantenwerft.de","keywords":"SolidAir, UL-Flugplatz Bell-Hundheim"},"geometry":{"type":"Point","coordinates":[7.421959,50.027566]}},{"id":"507044","type":"Feature","properties":{"ident":"DE-0502","type":"heliport","name":"Benedictus Hospital Heliport","elevation_ft":"1952","continent":"EU","iso_country":"DE","iso_region":"DE-BY","municipality":"Tutzing","scheduled_service":"no"},"geometry":{"type":"Point","coordinates":[11.276472,47.905973]}},{"id":"308983","type":"Feature","properties":{"ident":"DE-0073","type":"small_airport","name":"Benediktbeuern Airfield","elevation_ft":"2000","continent":"EU","iso_country":"DE","iso_region":"DE-BY","municipality":"Benediktbeuern","scheduled_service":"no","home_link":"http://www.sg-benediktbeuern.de/flugplatz.htm"},"geometry":{"type":"Point","coordinates":[11.3914,47.71564]}},{"id":"312210","type":"Feature","properties":{"ident":"DE-0137","type":"small_airport","name":"Bensheimer Stadtwiesen Airfield","elevation_ft":"314","continent":"EU","iso_country":"DE","iso_region":"DE-HE","municipality":"Bensheim","scheduled_service":"no","wikipedia_link":"http://de.wikipedia.org/wiki/Segelfluggel%C3%A4nde_Bensheim"},"geometry":{"type":"Point","coordinates":[8.5819,49.6926]}},{"id":"29077","type":"Feature","properties":{"ident":"EDNI","type":"small_airport","name":"Berching Airfield","elevation_ft":"1266","continent":"EU","iso_country":"DE","iso_region":"DE-BY","municipality":"Berching","scheduled_service":"no","gps_code":"EDNI","wikipedia_link":"https://de.wikipedia.org/wiki/Flugplatz_Berching","keywords":"Flugplatz Berching"},"geometry":{"type":"Point","coordinates":[11.443205,49.131043]}},{"id":"45226","type":"Feature","properties":{"ident":"DE-0032","type":"heliport","name":"Berchtesgaden Hospital Helipad","continent":"EU","iso_country":"DE","iso_region":"DE-BY","municipality":"Berchtesgaden","scheduled_service":"no","home_link":"http://www.kliniken-suedostbayern.de/de/main/kreisklinik_berchtesgaden.htm","keywords":"Kreisklinik Berchtesgaden Hubschrauberlandeplatz"},"geometry":{"type":"Point","coordinates":[13.006053,47.640345]}},{"id":"315563","type":"Feature","properties":{"ident":"DE-0225","type":"small_airport","name":"Berg Airfield","continent":"EU","iso_country":"DE","iso_region":"DE-BW","municipality":"Berg","scheduled_service":"no","keywords":"Flugplatz Berg, Berg-Ravensburg"},"geometry":{"type":"Point","coordinates":[9.539587,47.830746]}},{"id":"314556","type":"Feature","properties":{"ident":"DE-0172","type":"small_airport","name":"Bergheim Airfield","elevation_ft":"226","continent":"EU","iso_country":"DE","iso_region":"DE-NW","municipality":"Bergheim","scheduled_service":"no","home_link":"http://www.lsc-erftland.de/","wikipedia_link":"http://de.wikipedia.org/wiki/Segelfluggel%C3%A4nde_Bergheim"},"geometry":{"type":"Point","coordinates":[6.6085,50.9772]}},{"id":"505117","type":"Feature","properties":{"ident":"EDKF","type":"small_airport","name":"Bergneustadt-Auf dem Dümpel Airfield","elevation_ft":"1604","continent":"EU","iso_country":"DE","iso_region":"DE-NW","municipality":"Bergneustadt","scheduled_service":"no","gps_code":"EDKF","home_link":"https://www.lsc-duempel.de/","wikipedia_link":"https://de.wikipedia.org/wiki/Flugplatz_Bergneustadt_Auf_dem_D%C3%BCmpel"},"geometry":{"type":"Point","coordinates":[7.70683,51.05209]}},{"id":"516082","type":"Feature","properties":{"ident":"DE-0787","type":"heliport","name":"Bergstadt Schneeberg Polyclinic Heliport","elevation_ft":"1578","continent":"EU","iso_country":"DE","iso_region":"DE-SN","municipality":"Schneeberg","scheduled_service":"no"},"geometry":{"type":"Point","coordinates":[12.64301,50.60464]}},{"id":"514640","type":"Feature","properties":{"ident":"DE-0599","type":"heliport","name":"Bergstraße District Hospital Heliport","elevation_ft":"318","continent":"EU","iso_country":"DE","iso_region":"DE-HE","municipality":"Heppenheim (Bergstraße)","scheduled_service":"no"},"geometry":{"type":"Point","coordinates":[8.6235,49.62937]}},{"id":"301881","type":"Feature","properties":{"ident":"EDDB","type":"large_airport","name":"Berlin Brandenburg Airport","elevation_ft":"157","continent":"EU","iso_country":"DE","iso_region":"DE-BR","municipality":"Berlin","scheduled_service":"yes","gps_code":"EDDB","iata_code":"BER","home_link":"https://ber.berlin-airport.de/","wikipedia_link":"https://en.wikipedia.org/wiki/Berlin_Brandenburg_Airport"},"geometry":{"type":"Point","coordinates":[13.500672,52.362247]}},{"id":"352812","type":"Feature","properties":{"ident":"DE-0458","type":"heliport","name":"Berlin Emergency Hospital Heliport","elevation_ft":"233","continent":"EU","iso_country":"DE","iso_region":"DE-BE","municipality":"Berlin","scheduled_service":"no"},"geometry":{"type":"Point","coordinates":[13.56769,52.51926]}},{"id":"352818","type":"Feature","properties":{"ident":"DE-0463","type":"heliport","name":"Berlin Tempelhof Heliport","elevation_ft":"157","continent":"EU","iso_country":"DE","iso_region":"DE-BE","municipality":"Berlin","scheduled_service":"no"},"geometry":{"type":"Point","coordinates":[13.39561,52.48243]}},{"id":"45185","type":"Feature","properties":{"ident":"DE-0029","type":"small_airport","name":"Berlinchen Airfield","continent":"EU","iso_country":"DE","iso_region":"DE-BR","municipality":"Berlinchen","scheduled_service":"no"},"geometry":{"type":"Point","coordinates":[12.565527,53.225178]}},{"id":"311008","type":"Feature","properties":{"ident":"DE-0111","type":"small_airport","name":"Berliner Heide Airfield","elevation_ft":"226","continent":"EU","iso_country":"DE","iso_region":"DE-NI","municipality":"Metzingen","scheduled_service":"no","home_link":"https://www.flugplatz-berliner-heide.de"},"geometry":{"type":"Point","coordinates":[10.3705,52.6697]}},{"id":"315932","type":"Feature","properties":{"ident":"DE-0282","type":"small_airport","name":"Berneck Airfield","elevation_ft":"2480","continent":"EU","iso_country":"DE","iso_region":"DE-BW","municipality":"Deggingen","scheduled_service":"no","home_link":"http://www.berneck-segelflug.de/"},"geometry":{"type":"Point","coordinates":[9.7291,48.5737]}},{"id":"44592","type":"Feature","properties":{"ident":"DE-0023","type":"heliport","name":"Bernkastel-Kues Cusanus Hospital Heliport","elevation_ft":"499","continent":"EU","iso_country":"DE","iso_region":"DE-RP","municipality":"Bernkastel-Kues","scheduled_service":"no"},"geometry":{"type":"Point","coordinates":[7.0623,49.915699]}},{"id":"514776","type":"Feature","properties":{"ident":"DE-0616","type":"heliport","name":"Bernkastel/Wittlich Compound Hospital Heliport (Christoph 10)","elevation_ft":"807","continent":"EU","iso_country":"DE","iso_region":"DE-RP","municipality":"Wittlich","scheduled_service":"no"},"geometry":{"type":"Point","coordinates":[6.89311,49.99985]}},{"id":"355548","type":"Feature","properties":{"ident":"DE-0490","type":"heliport","name":"Bethesda Hospital Helipad","elevation_ft":"95","continent":"EU","iso_country":"DE","iso_region":"DE-HH","municipality":"Bergedorf","scheduled_service":"no","local_code":"BKB","home_link":"https://www.klinik-bergedorf.de/start"},"geometry":{"type":"Point","coordinates":[10.234677,53.48615]}},{"id":"28524","type":"Feature","properties":{"ident":"EDKI","type":"small_airport","name":"Betzdorf-Kirchen Airfield","elevation_ft":"1125","continent":"EU","iso_country":"DE","iso_region":"DE-RP","municipality":"Kirchen (Sieg)","scheduled_service":"no","gps_code":"EDKI","wikipedia_link":"https://de.wikipedia.org/wiki/Flugplatz_Betzdorf-Kirchen"},"geometry":{"type":"Point","coordinates":[7.830556,50.817223]}},{"id":"314006","type":"Feature","properties":{"ident":"EDRX","type":"small_airport","name":"Bexbach Glider Field","continent":"EU","iso_country":"DE","iso_region":"DE-SL","municipality":"Bexbach","scheduled_service":"no","gps_code":"EDRX","wikipedia_link":"https://de.wikipedia.org/wiki/Flugplatz_Neunkirchen-Bexbach","keywords":"Neunkirchen"},"geometry":{"type":"Point","coordinates":[7.253333,49.34]}},{"id":"515990","type":"Feature","properties":{"ident":"DE-0762","type":"heliport","name":"BG Hospital Bergmannstrost Halle Heliport","continent":"EU","iso_country":"DE","iso_region":"DE-ST","municipality":"Halle (Saale)","scheduled_service":"no"},"geometry":{"type":"Point","coordinates":[11.98771,51.46054]}},{"id":"2249","type":"Feature","properties":{"ident":"EDMB","type":"small_airport","name":"Biberach an der Riß Airfield","elevation_ft":"1903","continent":"EU","iso_country":"DE","iso_region":"DE-BW","municipality":"Warthausen","scheduled_service":"no","gps_code":"EDMB","wikipedia_link":"https://de.wikipedia.org/wiki/Flugplatz_Biberach_a._d._Ri%C3%9F","keywords":"Biberach an der Riss"},"geometry":{"type":"Point","coordinates":[9.764013,48.112359]}},{"id":"511376","type":"Feature","properties":{"ident":"DE-0515","type":"small_airport","name":"Bibergau Ultralight Airfield","elevation_ft":"906","continent":"EU","iso_country":"DE","iso_region":"DE-BY","municipality":"Dettelbach","scheduled_service":"no","keywords":"UL-Flugplatz Bibergau"},"geometry":{"type":"Point","coordinates":[10.11947,49.80707]}},{"id":"44590","type":"Feature","properties":{"ident":"DE-0021","type":"heliport","name":"Biblis Nuclear Power Plant Helipad","continent":"EU","iso_country":"DE","iso_region":"DE-HE","municipality":"Biblis","scheduled_service":"no","keywords":"Biblis Kernkraftwerk Hubschrauberlandeplatz"},"geometry":{"type":"Point","coordinates":[8.4175,49.7075]}},{"id":"2242","type":"Feature","properties":{"ident":"EDLI","type":"small_airport","name":"Bielefeld Airport","elevation_ft":"454","continent":"EU","iso_country":"DE","iso_region":"DE-NW","municipality":"Bielefeld","scheduled_service":"no","gps_code":"EDLI","iata_code":"BFE","home_link":"http://www.flugplatz-bielefeld.de/","wikipedia_link":"http://de.wikipedia.org/wiki/Flugplatz_Bielefeld","keywords":"Flugplatz-Windelsbleiche"},"geometry":{"type":"Point","coordinates":[8.544444,51.964722]}},{"id":"28525","type":"Feature","properties":{"ident":"EDOI","type":"small_airport","name":"Bienenfarm Airfield","elevation_ft":"120","continent":"EU","iso_country":"DE","iso_region":"DE-BR","municipality":"Paulinenaue","scheduled_service":"no","gps_code":"EDOI","home_link":"http://www.bienenfarmfliegen.com","wikipedia_link":"https://de.wikipedia.org/wiki/Flugplatz_Bienenfarm"},"geometry":{"type":"Point","coordinates":[12.745833,52.661667]}},{"id":"515528","type":"Feature","properties":{"ident":"DE-0685","type":"heliport","name":"Bietigheim Hospital Heliport","elevation_ft":"689","continent":"EU","iso_country":"DE","iso_region":"DE-BW","municipality":"Bietigheim-Bissingen","scheduled_service":"no"},"geometry":{"type":"Point","coordinates":[9.13568,48.95662]}},{"id":"28526","type":"Feature","properties":{"ident":"EDSI","type":"small_airport","name":"Binningen Glider Field","elevation_ft":"1594","continent":"EU","iso_country":"DE","iso_region":"DE-BW","municipality":"Hilzingen","scheduled_service":"no","gps_code":"EDSI","wikipedia_link":"https://de.wikipedia.org/wiki/Flugplatz_Binningen","keywords":"Flugplatz Binningen, Segelflugplatz Binningen"},"geometry":{"type":"Point","coordinates":[8.718553,47.798772]}},{"id":"308221","type":"Feature","properties":{"ident":"DE-0052","type":"small_airport","name":"Bischofsberg Airfield","elevation_ft":"1080","continent":"EU","iso_country":"DE","iso_region":"DE-BY","municipality":"Mellrichstadt","scheduled_service":"no"},"geometry":{"type":"Point","coordinates":[10.28316,50.432197]}},{"id":"311009","type":"Feature","properties":{"ident":"DE-0112","type":"small_airport","name":"Bisperode Airfield","elevation_ft":"635","continent":"EU","iso_country":"DE","iso_region":"DE-NI","municipality":"Coppenbrügge","scheduled_service":"no","home_link":"http://www.lsv-hameln.de/wordpress/","keywords":"Luftsportverein Hameln"},"geometry":{"type":"Point","coordinates":[9.476,52.0788]}},{"id":"2265","type":"Feature","properties":{"ident":"EDRB","type":"small_airport","name":"Bitburg Airport","elevation_ft":"1220","continent":"EU","iso_country":"DE","iso_region":"DE-RP","municipality":"Bitburg","scheduled_service":"no","gps_code":"EDRB","iata_code":"BBJ","wikipedia_link":"https://en.wikipedia.org/wiki/Bitburg_Airport"},"geometry":{"type":"Point","coordinates":[6.565,49.945278]}},{"id":"323838","type":"Feature","properties":{"ident":"DE-0351","type":"balloonport","name":"Bitterfeld Balloonport","elevation_ft":"256","continent":"EU","iso_country":"DE","iso_region":"DE-ST","municipality":"Bitterfeld","scheduled_service":"no","home_link":"http://www.ballon-bitterfeld.de/","keywords":"Ballonflugplatz Bitterfeld"},"geometry":{"type":"Point","coordinates":[12.29462,51.624671]}},{"id":"516021","type":"Feature","properties":{"ident":"DE-0769","type":"heliport","name":"Bitterfield-Wolfen Health Center Heliport","elevation_ft":"249","continent":"EU","iso_country":"DE","iso_region":"DE-ST","municipality":"Bitterfeld-Wolfen","scheduled_service":"no"},"geometry":{"type":"Point","coordinates":[12.33311,51.63308]}},{"id":"28527","type":"Feature","properties":{"ident":"EDMC","type":"small_airport","name":"Blaubeuren Airfield","elevation_ft":"2218","continent":"EU","iso_country":"DE","iso_region":"DE-BW","municipality":"Blaubeuren","scheduled_service":"no","gps_code":"EDMC","wikipedia_link":"https://de.wikipedia.org/wiki/Flugplatz_Blaubeuren"},"geometry":{"type":"Point","coordinates":[9.798333,48.419724]}},{"id":"515463","type":"Feature","properties":{"ident":"DE-0677","type":"small_airport","name":"Bleicherode Airfield","elevation_ft":"981","continent":"EU","iso_country":"DE","iso_region":"DE-TH","municipality":"Lipprechterode","scheduled_service":"no"},"geometry":{"type":"Point","coordinates":[10.57113,51.47292]}},{"id":"311010","type":"Feature","properties":{"ident":"DE-0113","type":"small_airport","name":"Blexen Airfield","elevation_ft":"4","continent":"EU","iso_country":"DE","iso_region":"DE-NI","municipality":"Blexen","scheduled_service":"no","gps_code":"EDWT","home_link":"http://www.wlv-blexen.de/flugplatz/","wikipedia_link":"https://de.wikipedia.org/wiki/Flugplatz_Blexen"},"geometry":{"type":"Point","coordinates":[8.5388,53.5383]}},{"id":"28528","type":"Feature","properties":{"ident":"EDVF","type":"small_airport","name":"Blomberg-Borkhausen Airfield","elevation_ft":"535","continent":"EU","iso_country":"DE","iso_region":"DE-NW","municipality":"Blomberg","scheduled_service":"no","gps_code":"EDVF","wikipedia_link":"https://de.wikipedia.org/wiki/Flugplatz_Blomberg-Borkhausen","keywords":"Flugplatz Blomberg-Borkhausen"},"geometry":{"type":"Point","coordinates":[9.111667,51.917221]}},{"id":"28529","type":"Feature","properties":{"ident":"EDSL","type":"small_airport","name":"Blumberg Airfield","elevation_ft":"2290","continent":"EU","iso_country":"DE","iso_region":"DE-BW","municipality":"Blumberg","scheduled_service":"no","gps_code":"EDSL","wikipedia_link":"https://de.wikipedia.org/wiki/Flugplatz_Blumberg","keywords":"Flugplatz Blumberg"},"geometry":{"type":"Point","coordinates":[8.564344,47.843676]}},{"id":"315961","type":"Feature","properties":{"ident":"DE-0299","type":"small_airport","name":"Boberg Airfield","elevation_ft":"2","continent":"EU","iso_country":"DE","iso_region":"DE-HH","scheduled_service":"no","home_link":"http://www.hac-boberg.de/"},"geometry":{"type":"Point","coordinates":[10.1442,53.5147]}},{"id":"315564","type":"Feature","properties":{"ident":"DE-0226","type":"small_airport","name":"Bobzin Ultralight Airfield","continent":"EU","iso_country":"DE","iso_region":"DE-MV","municipality":"Bobzin","scheduled_service":"no","keywords":"Ultraleicht-Fluggelände Bobzin"},"geometry":{"type":"Point","coordinates":[11.168333,53.486111]}},{"id":"515583","type":"Feature","properties":{"ident":"DE-0706","type":"heliport","name":"Bochum University Miners' Hospital Heliport","elevation_ft":"374","continent":"EU","iso_country":"DE","iso_region":"DE-NW","municipality":"Bochum","scheduled_service":"no"},"geometry":{"type":"Point","coordinates":[7.32754,51.46541]}},{"id":"311547","type":"Feature","properties":{"ident":"DE-0121","type":"small_airport","name":"Bohlenbergerfeld Airfield","elevation_ft":"26","continent":"EU","iso_country":"DE","iso_region":"DE-NI","municipality":"Zetel","scheduled_service":"no","home_link":"http://lsg-segelflieger-zetel.de/willkommen.html","keywords":"Segelflugplatz Zetel-Bohlenbergerfeld"},"geometry":{"type":"Point","coordinates":[7.9039,53.418]}},{"id":"315962","type":"Feature","properties":{"ident":"DE-0300","type":"small_airport","name":"Bohlhof Glider Field","elevation_ft":"1885","continent":"EU","iso_country":"DE","iso_region":"DE-BW","municipality":"Wutöschingen","scheduled_service":"no","home_link":"http://www.bohlhof.de/","wikipedia_link":"https://de.wikipedia.org/wiki/Segelfluggel%C3%A4nde_Bohlhof","keywords":"Segelfluggelände Bohlhof"},"geometry":{"type":"Point","coordinates":[8.3867,47.6509]}},{"id":"28531","type":"Feature","properties":{"ident":"EDXD","type":"small_airport","name":"Bohmte-Bad Essen Airfield","elevation_ft":"148","continent":"EU","iso_country":"DE","iso_region":"DE-NI","municipality":"Bohmte","scheduled_service":"no","gps_code":"EDXD","wikipedia_link":"https://de.wikipedia.org/wiki/Flugplatz_Bohmte-Bad_Essen","keywords":"Flugplatz Bohmte-Bad Essen"},"geometry":{"type":"Point","coordinates":[8.328333,52.351391]}},{"id":"311548","type":"Feature","properties":{"ident":"DE-0122","type":"small_airport","name":"Bollrich Airfield","elevation_ft":"945","continent":"EU","iso_country":"DE","iso_region":"DE-NI","municipality":"Goslar","scheduled_service":"no","home_link":"http://www.bollrich.de/"},"geometry":{"type":"Point","coordinates":[10.4619,51.9058]}},{"id":"350927","type":"Feature","properties":{"ident":"DE-0457","type":"heliport","name":"Bonn University Hospital Heliport","continent":"EU","iso_country":"DE","iso_region":"DE-NW","municipality":"Bonn","scheduled_service":"no"},"geometry":{"type":"Point","coordinates":[7.102408,50.701752]}},{"id":"28532","type":"Feature","properties":{"ident":"EDKB","type":"small_airport","name":"Bonn-Hangelar Airfield","elevation_ft":"197","continent":"EU","iso_country":"DE","iso_region":"DE-NW","municipality":"Bonn","scheduled_service":"no","gps_code":"EDKB","wikipedia_link":"http://de.wikipedia.org/wiki/Flugplatz_Bonn/Hangelar"},"geometry":{"type":"Point","coordinates":[7.163333,50.76889]}},{"id":"29396","type":"Feature","properties":{"ident":"ETHH","type":"heliport","name":"Bonn-Hardthöhe Air Base","elevation_ft":"522","continent":"EU","iso_country":"DE","iso_region":"DE-NW","municipality":"Bonn","scheduled_service":"no","gps_code":"ETHH"},"geometry":{"type":"Point","coordinates":[7.045111,50.696503]}},{"id":"28533","type":"Feature","properties":{"ident":"EDNQ","type":"small_airport","name":"Bopfingen Airfield","elevation_ft":"2028","continent":"EU","iso_country":"DE","iso_region":"DE-BW","municipality":"Bopfingen","scheduled_service":"no","gps_code":"EDNQ","wikipedia_link":"https://de.wikipedia.org/wiki/Flugplatz_Bopfingen"},"geometry":{"type":"Point","coordinates":[10.333889,48.848057]}},{"id":"314691","type":"Feature","properties":{"ident":"DE-0174","type":"small_airport","name":"Borghorst Airfield","elevation_ft":"157","continent":"EU","iso_country":"DE","iso_region":"DE-NW","municipality":"Steinfurt","scheduled_service":"no","home_link":"http://flugplatz-borghorst.de/","wikipedia_link":"http://de.wikipedia.org/wiki/Segelfluggel%C3%A4nde_Borghorst","keywords":"Borghorst-Füchten, Flugplatz Borghorst, Segelfluggelände Borghorst-Füchten"},"geometry":{"type":"Point","coordinates":[7.4531,52.1505]}},{"id":"28535","type":"Feature","properties":{"ident":"EDLY","type":"small_airport","name":"Borken-Hoxfeld Airfield","elevation_ft":"157","continent":"EU","iso_country":"DE","iso_region":"DE-NW","municipality":"Borken","scheduled_service":"no","gps_code":"EDLY","wikipedia_link":"https://de.wikipedia.org/wiki/Flugplatz_Borken-Hoxfeld"},"geometry":{"type":"Point","coordinates":[6.814722,51.853333]}},{"id":"28536","type":"Feature","properties":{"ident":"EDLB","type":"small_airport","name":"Borkenberge Airfield","elevation_ft":"157","continent":"EU","iso_country":"DE","iso_region":"DE-NW","municipality":"Lüdinghausen","scheduled_service":"no","gps_code":"EDLB","home_link":"http://www.borkenberge.com/","wikipedia_link":"https://de.wikipedia.org/wiki/Flugplatz_Borkenberge"},"geometry":{"type":"Point","coordinates":[7.288056,51.779999]}},{"id":"2291","type":"Feature","properties":{"ident":"EDWR","type":"small_airport","name":"Borkum Airport","elevation_ft":"3","continent":"EU","iso_country":"DE","iso_region":"DE-NI","municipality":"Borkum","scheduled_service":"yes","gps_code":"EDWR","iata_code":"BMK","wikipedia_link":"https://en.wikipedia.org/wiki/Borkum_Airfield","keywords":"Borkum"},"geometry":{"type":"Point","coordinates":[6.709167,53.59639]}},{"id":"340434","type":"Feature","properties":{"ident":"DE-0444","type":"heliport","name":"Borkum Heliport","continent":"EU","iso_country":"DE","iso_region":"DE-NI","municipality":"Borkum","scheduled_service":"no"},"geometry":{"type":"Point","coordinates":[6.755764,53.566654]}},{"id":"28537","type":"Feature","properties":{"ident":"EDGT","type":"small_airport","name":"Bottenhorn Airfield","elevation_ft":"1657","continent":"EU","iso_country":"DE","iso_region":"DE-HE","municipality":"Bad Endbach","scheduled_service":"no","gps_code":"EDGT","wikipedia_link":"https://de.wikipedia.org/wiki/Flugplatz_Bottenhorn"},"geometry":{"type":"Point","coordinates":[8.458333,50.795277]}},{"id":"315937","type":"Feature","properties":{"ident":"DE-0285","type":"small_airport","name":"Brakel Airfield","continent":"EU","iso_country":"DE","iso_region":"DE-NW","municipality":"Brakel","scheduled_service":"no","keywords":"Flugplatz Brakel, UL-Flugplatz Brakel"},"geometry":{"type":"Point","coordinates":[9.19977,51.738682]}},{"id":"515582","type":"Feature","properties":{"ident":"DE-0705","type":"heliport","name":"Brambauer Hospital Heliport","elevation_ft":"299","continent":"EU","iso_country":"DE","iso_region":"DE-NW","municipality":"Brambauer","scheduled_service":"no"},"geometry":{"type":"Point","coordinates":[7.443,51.59027]}},{"id":"29060","type":"Feature","properties":{"ident":"EDBE","type":"small_airport","name":"Brandenburg-Mühlenfeld Airfield","elevation_ft":"98","continent":"EU","iso_country":"DE","iso_region":"DE-BR","municipality":"Brandenburg an der Havel","scheduled_service":"no","gps_code":"EDBE","wikipedia_link":"https://de.wikipedia.org/wiki/Flugplatz_Brandenburg/M%C3%BChlenfeld"},"geometry":{"type":"Point","coordinates":[12.59,52.4375]}},{"id":"575824","type":"Feature","properties":{"ident":"DE-0867","type":"heliport","name":"Brandweg Heliport","elevation_ft":"2861","continent":"EU","iso_country":"DE","iso_region":"DE-BY","municipality":"Grainau","scheduled_service":"no"},"geometry":{"type":"Point","coordinates":[11.02754,47.46448]}},{"id":"309024","type":"Feature","properties":{"ident":"DE-0074","type":"small_airport","name":"Brannenburg Airfield","elevation_ft":"1539","continent":"EU","iso_country":"DE","iso_region":"DE-BY","municipality":"Brannenburg","scheduled_service":"no"},"geometry":{"type":"Point","coordinates":[12.11548,47.74075]}},{"id":"320634","type":"Feature","properties":{"ident":"DE-0357","type":"small_airport","name":"Brauna Airfield","elevation_ft":"587","continent":"EU","iso_country":"DE","iso_region":"DE-SN","municipality":"Kamenz","scheduled_service":"no","keywords":"Flugplatz Brauna, UL-Flugplatz Brauna"},"geometry":{"type":"Point","coordinates":[14.055521,51.282857]}},{"id":"312570","type":"Feature","properties":{"ident":"DE-0139","type":"small_airport","name":"Braunfels Airfield","elevation_ft":"800","continent":"EU","iso_country":"DE","iso_region":"DE-HE","municipality":"Kronberg im Taunus","scheduled_service":"no","home_link":"http://www.lsg-braunfels.de/"},"geometry":{"type":"Point","coordinates":[8.392514,50.525446]}},{"id":"2284","type":"Feature","properties":{"ident":"EDVE","type":"medium_airport","name":"Braunschweig-Wolfsburg Airport","elevation_ft":"295","continent":"EU","iso_country":"DE","iso_region":"DE-NI","municipality":"Braunschweig","scheduled_service":"no","gps_code":"EDVE","iata_code":"BWE","home_link":"http://www.flughafen-braunschweig-wolfsburg.de/","wikipedia_link":"https://en.wikipedia.org/wiki/Braunschweig_Airport"},"geometry":{"type":"Point","coordinates":[10.5561,52.319199]}},{"id":"320937","type":"Feature","properties":{"ident":"DE-0383","type":"small_airport","name":"Bredstedt Airfield","elevation_ft":"92","continent":"EU","iso_country":"DE","iso_region":"DE-SH","municipality":"Bredstedt","scheduled_service":"no","keywords":"Breezer, Flugplatz Bredstedt"},"geometry":{"type":"Point","coordinates":[8.985745,54.633425]}},{"id":"28538","type":"Feature","properties":{"ident":"EDGB","type":"small_airport","name":"Breitscheid Airfield","elevation_ft":"1834","continent":"EU","iso_country":"DE","iso_region":"DE-HE","municipality":"Breitscheid","scheduled_service":"no","gps_code":"EDGB","wikipedia_link":"https://de.wikipedia.org/wiki/Flugplatz_Breitscheid"},"geometry":{"type":"Point","coordinates":[8.169444,50.676388]}},{"id":"2225","type":"Feature","properties":{"ident":"EDDW","type":"medium_airport","name":"Bremen Airport","elevation_ft":"14","continent":"EU","iso_country":"DE","iso_region":"DE-HB","municipality":"Bremen","scheduled_service":"yes","gps_code":"EDDW","iata_code":"BRE","home_link":"https://www.bremen-airport.com","wikipedia_link":"https://en.wikipedia.org/wiki/Bremen_Airport"},"geometry":{"type":"Point","coordinates":[8.78932,53.046786]}},{"id":"2275","type":"Feature","properties":{"ident":"EDTG","type":"small_airport","name":"Bremgarten Airfield","elevation_ft":"696","continent":"EU","iso_country":"DE","iso_region":"DE-BW","municipality":"Eschbach","scheduled_service":"no","gps_code":"EDTG","home_link":"http://www.gewerbepark-breisgau.de/Flugplatz","wikipedia_link":"http://de.wikipedia.org/wiki/Flugplatz_Bremgarten","keywords":"Flugplatz Bremgarten, Sonderlandeplatz Bremgarten"},"geometry":{"type":"Point","coordinates":[7.617416,47.903186]}},{"id":"28540","type":"Feature","properties":{"ident":"EDKO","type":"small_airport","name":"Brilon-Hochsauerland Airfield","elevation_ft":"1509","continent":"EU","iso_country":"DE","iso_region":"DE-NW","municipality":"Brilon","scheduled_service":"no","gps_code":"EDKO","wikipedia_link":"https://de.wikipedia.org/wiki/Flugplatz_Brilon/Hochsauerland","keywords":"Brilon-Thülen"},"geometry":{"type":"Point","coordinates":[8.643043,51.402833]}},{"id":"310657","type":"Feature","properties":{"ident":"DE-0109","type":"small_airport","name":"Brockzetel Glider Field","elevation_ft":"34","continent":"EU","iso_country":"DE","iso_region":"DE-NI","municipality":"Aurich","scheduled_service":"no","wikipedia_link":"http://de.wikipedia.org/wiki/Segelfluggel%C3%A4nde_Aurich-Brockzetel"},"geometry":{"type":"Point","coordinates":[7.6511,53.4814]}},{"id":"327063","type":"Feature","properties":{"ident":"DE-0414","type":"small_airport","name":"Brodau Cropduster Strip","elevation_ft":"341","continent":"EU","iso_country":"DE","iso_region":"DE-SN","municipality":"Delitsch","scheduled_service":"no","keywords":"Agrarflugplatz Brodau"},"geometry":{"type":"Point","coordinates":[12.32983,51.4987]}},{"id":"29061","type":"Feature","properties":{"ident":"EDBQ","type":"small_airport","name":"Bronkow Airfield","elevation_ft":"423","continent":"EU","iso_country":"DE","iso_region":"DE-BR","municipality":"Luckaitztal","scheduled_service":"no","gps_code":"EDBQ","wikipedia_link":"https://de.wikipedia.org/wiki/Flugplatz_Bronkow","keywords":"Flugplatz Bronkow"},"geometry":{"type":"Point","coordinates":[13.960104,51.672075]}},{"id":"505112","type":"Feature","properties":{"ident":"EDTC","type":"small_airport","name":"Bruchsal Airfield","continent":"EU","iso_country":"DE","iso_region":"DE-BW","scheduled_service":"no","gps_code":"EDTC","wikipedia_link":"https://de.wikipedia.org/wiki/Flugplatz_Bruchsal"},"geometry":{"type":"Point","coordinates":[8.56412,49.13484]}},{"id":"343912","type":"Feature","properties":{"ident":"DE-0447","type":"small_airport","name":"Bruchsal dropzone","continent":"EU","iso_country":"DE","iso_region":"DE-BW","scheduled_service":"no","home_link":"https://www.fsc-bruchsal.de/dropzone"},"geometry":{"type":"Point","coordinates":[8.59495,49.0975]}},{"id":"43121","type":"Feature","properties":{"ident":"EDBG","type":"small_airport","name":"Burg Airfield","elevation_ft":"174","continent":"EU","iso_country":"DE","iso_region":"DE-ST","municipality":"Burg bei Magdeburg","scheduled_service":"no","gps_code":"EDBG","wikipedia_link":"https://de.wikipedia.org/wiki/Flugplatz_Burg"},"geometry":{"type":"Point","coordinates":[11.85619,52.241772]}},{"id":"2262","type":"Feature","properties":{"ident":"EDQE","type":"small_airport","name":"Burg Feuerstein Airport","elevation_ft":"1673","continent":"EU","iso_country":"DE","iso_region":"DE-BY","municipality":"Ebermannstadt","scheduled_service":"no","gps_code":"EDQE","iata_code":"URD","home_link":"http://www.edqe.de/home/","wikipedia_link":"http://de.wikipedia.org/wiki/Flugplatz_Burg_Feuerstein"},"geometry":{"type":"Point","coordinates":[11.133611,49.794167]}},{"id":"316048","type":"Feature","properties":{"ident":"DE-0330","type":"small_airport","name":"Burgebrach Ultralight Airfield","continent":"EU","iso_country":"DE","iso_region":"DE-BY","municipality":"Burgebrach","scheduled_service":"no"},"geometry":{"type":"Point","coordinates":[10.778872,49.838199]}},{"id":"320635","type":"Feature","properties":{"ident":"DE-0358","type":"small_airport","name":"Burgheim Airfield","elevation_ft":"1332","continent":"EU","iso_country":"DE","iso_region":"DE-BY","municipality":"Burgheim","scheduled_service":"no"},"geometry":{"type":"Point","coordinates":[11.033122,48.692206]}},{"id":"515524","type":"Feature","properties":{"ident":"DE-0683","type":"heliport","name":"Burgholzhausen Rotorflug Heliport","elevation_ft":"616","continent":"EU","iso_country":"DE","iso_region":"DE-HE","municipality":"Friedrichsdorf","scheduled_service":"no"},"geometry":{"type":"Point","coordinates":[8.66629,50.26433]}},{"id":"514159","type":"Feature","properties":{"ident":"DE-0554","type":"heliport","name":"Buttstädt Heliport","elevation_ft":"600","continent":"EU","iso_country":"DE","iso_region":"DE-TH","municipality":"Buttstädt","scheduled_service":"no"},"geometry":{"type":"Point","coordinates":[11.32703,51.11052]}},{"id":"331188","type":"Feature","properties":{"ident":"DE-0429","type":"heliport","name":"Böblingen Hospital Heliport","elevation_ft":"1683","continent":"EU","iso_country":"DE","iso_region":"DE-BW","municipality":"Böblingen","scheduled_service":"no","wikipedia_link":"https://de.wikipedia.org/wiki/Flugfeld_(Stadtteil)","keywords":"PHM"},"geometry":{"type":"Point","coordinates":[9.03221,48.690553]}},{"id":"28530","type":"Feature","properties":{"ident":"EDOE","type":"small_airport","name":"Böhlen Airfield","elevation_ft":"430","continent":"EU","iso_country":"DE","iso_region":"DE-SN","municipality":"Großpösna","scheduled_service":"no","gps_code":"EDOE","home_link":"http://www.edoe.de/","wikipedia_link":"http://de.wikipedia.org/wiki/Flugplatz_B%C3%B6hlen","keywords":"Boehlen, Flugplatz Böhlen"},"geometry":{"type":"Point","coordinates":[12.363611,51.21389]}},{"id":"315565","type":"Feature","properties":{"ident":"DE-0227","type":"small_airport","name":"Bösingen-Dunningen Airfield","elevation_ft":"2287","continent":"EU","iso_country":"DE","iso_region":"DE-BW","municipality":"Bösingen","scheduled_service":"no","keywords":"Sonderlandeplatz Bösingen-Dunningen"},"geometry":{"type":"Point","coordinates":[8.534725,48.227671]}},{"id":"2749","type":"Feature","properties":{"ident":"ETSB","type":"medium_airport","name":"Büchel Air Base","elevation_ft":"1568","continent":"EU","iso_country":"DE","iso_region":"DE-RP","municipality":"Alflen","scheduled_service":"no","gps_code":"ETSB","wikipedia_link":"https://en.wikipedia.org/wiki/B%C3%BCchel_Air_Base"},"geometry":{"type":"Point","coordinates":[7.06333,50.173801]}},{"id":"309385","type":"Feature","properties":{"ident":"DE-0077","type":"small_airport","name":"Büchig Airfield","elevation_ft":"1280","continent":"EU","iso_country":"DE","iso_region":"DE-BY","municipality":"Ostheim","scheduled_service":"no"},"geometry":{"type":"Point","coordinates":[10.2526,50.4483]}},{"id":"2721","type":"Feature","properties":{"ident":"ETHB","type":"medium_airport","name":"Bückeburg Air Base","elevation_ft":"230","continent":"EU","iso_country":"DE","iso_region":"DE-NI","municipality":"Bückeburg","scheduled_service":"no","gps_code":"ETHB","wikipedia_link":"https://en.wikipedia.org/wiki/B%C3%BCckeburg_Air_Base"},"geometry":{"type":"Point","coordinates":[9.08217,52.2785]}},{"id":"311550","type":"Feature","properties":{"ident":"DE-0123","type":"small_airport","name":"Bückeburg-Weinberg Airfield","elevation_ft":"256","continent":"EU","iso_country":"DE","iso_region":"DE-NW","municipality":"Porta Westfalica","scheduled_service":"no","home_link":"http://www.lsv-bueckeburg.de/"},"geometry":{"type":"Point","coordinates":[9.0146,52.2511]}},{"id":"314692","type":"Feature","properties":{"ident":"DE-0175","type":"small_airport","name":"Büren Airfield","elevation_ft":"920","continent":"EU","iso_country":"DE","iso_region":"DE-NW","municipality":"Büren","scheduled_service":"no","home_link":"http://www.ac-bueren.de/","wikipedia_link":"http://de.wikipedia.org/wiki/Segelfluggel%C3%A4nde_B%C3%BCren"},"geometry":{"type":"Point","coordinates":[8.5808,51.5427]}},{"id":"575826","type":"Feature","properties":{"ident":"DE-0869","type":"heliport","name":"Camp Albertshof Army Heliport","elevation_ft":"1549","continent":"EU","iso_country":"DE","iso_region":"DE-BY","municipality":"Hohenfels","scheduled_service":"no"},"geometry":{"type":"Point","coordinates":[11.82518,49.23691]}},{"id":"515904","type":"Feature","properties":{"ident":"DE-0738","type":"heliport","name":"Carl Thien Hospital Cottbus Heliport","continent":"EU","iso_country":"DE","iso_region":"DE-BR","municipality":"Cottbus","scheduled_service":"no"},"geometry":{"type":"Point","coordinates":[14.32204,51.74339]}},{"id":"563566","type":"Feature","properties":{"ident":"DE-0832","type":"heliport","name":"Carl von Basedow Saalekreis Hospital Querfurt Heliport","elevation_ft":"673","continent":"EU","iso_country":"DE","iso_region":"DE-ST","municipality":"Querfurt","scheduled_service":"no"},"geometry":{"type":"Point","coordinates":[11.60606,51.37063]}},{"id":"514095","type":"Feature","properties":{"ident":"DE-0551","type":"heliport","name":"Catholic Clinic Marienhof Koblenz Heliport","elevation_ft":"249","continent":"EU","iso_country":"DE","iso_region":"DE-NW","municipality":"Koblenz","scheduled_service":"no"},"geometry":{"type":"Point","coordinates":[7.57101,50.35987]}},{"id":"563520","type":"Feature","properties":{"ident":"DE-0817","type":"heliport","name":"Catholic Hospital Koblenz-Montabaur Heliport","elevation_ft":"840","continent":"EU","iso_country":"DE","iso_region":"DE-RP","municipality":"Montabaur","scheduled_service":"no"},"geometry":{"type":"Point","coordinates":[7.83303,50.43125]}},{"id":"515636","type":"Feature","properties":{"ident":"DE-0715","type":"heliport","name":"Catholic Hospital Sankt Johann Nepomuk Erfurt Heliport","elevation_ft":"833","continent":"EU","iso_country":"DE","iso_region":"DE-TH","municipality":"Erfurt","scheduled_service":"no"},"geometry":{"type":"Point","coordinates":[11.08564,50.9462]}},{"id":"2722","type":"Feature","properties":{"ident":"ETHC","type":"medium_airport","name":"Celle Army Airfield","elevation_ft":"129","continent":"EU","iso_country":"DE","iso_region":"DE-NI","scheduled_service":"no","gps_code":"ETHC","wikipedia_link":"https://en.wikipedia.org/wiki/Celle_Air_Base"},"geometry":{"type":"Point","coordinates":[10.0221,52.591202]}},{"id":"28542","type":"Feature","properties":{"ident":"EDVC","type":"small_airport","name":"Celle-Arloh Airfield","elevation_ft":"207","continent":"EU","iso_country":"DE","iso_region":"DE-NI","municipality":"Celle","scheduled_service":"no","gps_code":"EDVC","wikipedia_link":"https://de.wikipedia.org/wiki/Flugplatz_Celle-Arloh","keywords":"Flugplatz Celle-Arloh"},"geometry":{"type":"Point","coordinates":[10.111389,52.687222]}},{"id":"514868","type":"Feature","properties":{"ident":"DE-0627","type":"heliport","name":"Cham Hospital Heliport","elevation_ft":"1339","continent":"EU","iso_country":"DE","iso_region":"DE-BY","municipality":"Cham","scheduled_service":"no"},"geometry":{"type":"Point","coordinates":[12.6591,49.2268]}},{"id":"308233","type":"Feature","properties":{"ident":"DE-0053","type":"small_airport","name":"Cham-Janahof Airfield","elevation_ft":"1200","continent":"EU","iso_country":"DE","iso_region":"DE-BY","municipality":"Cham","scheduled_service":"no"},"geometry":{"type":"Point","coordinates":[12.654104,49.212046]}},{"id":"352819","type":"Feature","properties":{"ident":"DE-0464","type":"heliport","name":"Charité Clinic Benjamin Franklin Campus Heliport","elevation_ft":"128","continent":"EU","iso_country":"DE","iso_region":"DE-BE","municipality":"Berlin","scheduled_service":"no"},"geometry":{"type":"Point","coordinates":[13.32286,52.44135]}},{"id":"352816","type":"Feature","properties":{"ident":"DE-0461","type":"heliport","name":"Charité Clinic Virchow Campus Heliport","elevation_ft":"131","continent":"EU","iso_country":"DE","iso_region":"DE-BE","municipality":"Berlin","scheduled_service":"no"},"geometry":{"type":"Point","coordinates":[13.34266,52.54049]}},{"id":"515020","type":"Feature","properties":{"ident":"DE-0635","type":"heliport","name":"Chemnitz-Glösa Industrial Park Heliport","elevation_ft":"935","continent":"EU","iso_country":"DE","iso_region":"DE-SN","municipality":"Chemnitz","scheduled_service":"no"},"geometry":{"type":"Point","coordinates":[12.904403,50.871811]}},{"id":"29067","type":"Feature","properties":{"ident":"EDCJ","type":"small_airport","name":"Chemnitz/Jahnsdorf Airfield","elevation_ft":"1198","continent":"EU","iso_country":"DE","iso_region":"DE-SN","municipality":"Jahnsdorf","scheduled_service":"no","gps_code":"EDCJ","home_link":"http://www.chemnitz-airport.de/","wikipedia_link":"http://de.wikipedia.org/wiki/Flugplatz_Chemnitz-Jahnsdorf"},"geometry":{"type":"Point","coordinates":[12.8375,50.747501]}},{"id":"515575","type":"Feature","properties":{"ident":"DE-0700","type":"heliport","name":"Christian Hospital Unna Central Heliport","elevation_ft":"348","continent":"EU","iso_country":"DE","iso_region":"DE-NW","municipality":"Unna","scheduled_service":"no"},"geometry":{"type":"Point","coordinates":[7.68307,51.53704]}},{"id":"515574","type":"Feature","properties":{"ident":"DE-0699","type":"heliport","name":"Christian Hospital Unna West Heliport","elevation_ft":"387","continent":"EU","iso_country":"DE","iso_region":"DE-NW","municipality":"Unna","scheduled_service":"no"},"geometry":{"type":"Point","coordinates":[7.67634,51.53263]}},{"id":"355232","type":"Feature","properties":{"ident":"DE-0486","type":"heliport","name":"Christoph  Westfalen-ADAC","elevation_ft":"50","continent":"EU","iso_country":"DE","iso_region":"DE-NW","municipality":"Greven","scheduled_service":"no"},"geometry":{"type":"Point","coordinates":[7.690313,52.123376]}},{"id":"334188","type":"Feature","properties":{"ident":"DE-0434","type":"heliport","name":"Christoph 12 Luftrettungszentrum","continent":"EU","iso_country":"DE","iso_region":"DE-SH","scheduled_service":"no"},"geometry":{"type":"Point","coordinates":[10.562518,54.034939]}},{"id":"355231","type":"Feature","properties":{"ident":"HHBG","type":"heliport","name":"Christoph Hansa ADAC Helipad","elevation_ft":"136","continent":"EU","iso_country":"DE","iso_region":"DE-HH","municipality":"Hamburg","scheduled_service":"no","wikipedia_link":"https://de.wikipedia.org/wiki/Christoph_Hansa","keywords":"HHBG, BG Klinikum Boberg"},"geometry":{"type":"Point","coordinates":[10.173382,53.507971]}},{"id":"534599","type":"Feature","properties":{"ident":"DE-0812","type":"heliport","name":"Christophsbad Heliport","elevation_ft":"1093","continent":"EU","iso_country":"DE","iso_region":"DE-BW","municipality":"Göppingen","scheduled_service":"no"},"geometry":{"type":"Point","coordinates":[9.64216,48.70053]}},{"id":"28544","type":"Feature","properties":{"ident":"EDQC","type":"small_airport","name":"Coburg-Brandensteinsebene Airfield","elevation_ft":"1490","continent":"EU","iso_country":"DE","iso_region":"DE-BY","municipality":"Coburg","scheduled_service":"no","gps_code":"EDQC","home_link":"http://www.aeroclub-coburg.de","wikipedia_link":"https://de.wikipedia.org/wiki/Flugplatz_Coburg-Brandensteinsebene","keywords":"Brose, Flugplatz Coburg-Brandensteinsebene, Schuhmacher Packaging"},"geometry":{"type":"Point","coordinates":[10.995556,50.262501]}},{"id":"28545","type":"Feature","properties":{"ident":"EDQY","type":"small_airport","name":"Coburg-Steinrücken Airfield","elevation_ft":"1184","continent":"EU","iso_country":"DE","iso_region":"DE-BY","municipality":"Coburg","scheduled_service":"no","gps_code":"EDQY","wikipedia_link":"https://de.wikipedia.org/wiki/Flugplatz_Coburg-Steinr%C3%BCcken","keywords":"Flugplatz Coburg-Steinrücken"},"geometry":{"type":"Point","coordinates":[10.995833,50.230556]}},{"id":"28546","type":"Feature","properties":{"ident":"EDBC","type":"small_airport","name":"Cochstedt Airport","elevation_ft":"594","continent":"EU","iso_country":"DE","iso_region":"DE-ST","municipality":"Hecklingen","scheduled_service":"no","gps_code":"EDBC","iata_code":"CSO","wikipedia_link":"https://en.wikipedia.org/wiki/Magdeburg-Cochstedt_Airport"},"geometry":{"type":"Point","coordinates":[11.4203,51.8564]}},{"id":"2746","type":"Feature","properties":{"ident":"ETOR","type":"small_airport","name":"Coleman Army Air Field","elevation_ft":"309","continent":"EU","iso_country":"DE","iso_region":"DE-BW","scheduled_service":"no","gps_code":"ETOR","wikipedia_link":"https://en.wikipedia.org/wiki/Coleman_Army_Airfield"},"geometry":{"type":"Point","coordinates":[8.46339,49.563599]}},{"id":"514084","type":"Feature","properties":{"ident":"DE-0548","type":"heliport","name":"Collm Clinic Oschatz Heliport","continent":"EU","iso_country":"DE","iso_region":"DE-SN","municipality":"Oschatz","scheduled_service":"no"},"geometry":{"type":"Point","coordinates":[13.11432,51.291871]}},{"id":"2216","type":"Feature","properties":{"ident":"EDDK","type":"large_airport","name":"Cologne Bonn Airport","elevation_ft":"302","continent":"EU","iso_country":"DE","iso_region":"DE-NW","municipality":"Köln (Cologne)","scheduled_service":"yes","gps_code":"EDDK","iata_code":"CGN","home_link":"http://www.koeln-bonn-airport.de/en/","wikipedia_link":"https://en.wikipedia.org/wiki/Cologne_Bonn_Airport","keywords":"Köln"},"geometry":{"type":"Point","coordinates":[7.14274,50.865898]}},{"id":"513983","type":"Feature","properties":{"ident":"DE-0530","type":"heliport","name":"Coswig Specialty Hospital Heliport","elevation_ft":"410","continent":"EU","iso_country":"DE","iso_region":"DE-SN","municipality":"Coswig","scheduled_service":"no"},"geometry":{"type":"Point","coordinates":[13.5931,51.13189]}},{"id":"28659","type":"Feature","properties":{"ident":"EDAP","type":"small_airport","name":"Cottbus-Neuhausen Airfield","elevation_ft":"279","continent":"EU","iso_country":"DE","iso_region":"DE-BR","municipality":"Neuhausen/Spree","scheduled_service":"no","gps_code":"EDAP","home_link":"https://flughafen-cottbus.de/","wikipedia_link":"https://en.wikipedia.org/wiki/Cottbus-Neuhausen_Airport"},"geometry":{"type":"Point","coordinates":[14.423056,51.684723]}},{"id":"515911","type":"Feature","properties":{"ident":"DE-0741","type":"heliport","name":"Crailsheim Hospital Heliport","elevation_ft":"1365","continent":"EU","iso_country":"DE","iso_region":"DE-BW","municipality":"Crailsheim","scheduled_service":"no"},"geometry":{"type":"Point","coordinates":[10.07877,49.13545]}},{"id":"316126","type":"Feature","properties":{"ident":"DE-0337","type":"small_airport","name":"Crawinkel Airfield","elevation_ft":"1549","continent":"EU","iso_country":"DE","iso_region":"DE-TH","municipality":"Ohrdruf","scheduled_service":"no","home_link":"http://www.flugplatz-crawinkel.de/","keywords":"Flugplatz Crawinkel"},"geometry":{"type":"Point","coordinates":[10.81692,50.778494]}},{"id":"28547","type":"Feature","properties":{"ident":"EDMD","type":"small_airport","name":"Dachau-Gröbenried Airfield","elevation_ft":"1608","continent":"EU","iso_country":"DE","iso_region":"DE-BY","municipality":"Bergkirchen","scheduled_service":"no","gps_code":"EDMD","home_link":"https://www.ac-dachau.de/","wikipedia_link":"https://de.wikipedia.org/wiki/Flugplatz_Dachau-Gr%C3%B6benried"},"geometry":{"type":"Point","coordinates":[11.422134,48.228675]}},{"id":"2238","type":"Feature","properties":{"ident":"EDKV","type":"small_airport","name":"Dahlemer Binz Airfield","elevation_ft":"1896","continent":"EU","iso_country":"DE","iso_region":"DE-RP","municipality":"Dahlhem","scheduled_service":"no","gps_code":"EDKV","wikipedia_link":"https://en.wikipedia.org/wiki/Dahlemer_Binz_Airfield","keywords":"Flugplatz Dahlemer Binz"},"geometry":{"type":"Point","coordinates":[6.530256,50.40611]}},{"id":"28548","type":"Feature","properties":{"ident":"EDWC","type":"small_airport","name":"Damme Airfield","elevation_ft":"151","continent":"EU","iso_country":"DE","iso_region":"DE-NI","municipality":"Damme","scheduled_service":"no","gps_code":"EDWC","wikipedia_link":"https://de.wikipedia.org/wiki/Flugplatz_Damme","keywords":"Flugplatz Damme"},"geometry":{"type":"Point","coordinates":[8.185151,52.487558]}},{"id":"315391","type":"Feature","properties":{"ident":"DE-0195","type":"small_airport","name":"Dankern Airfield","elevation_ft":"48","continent":"EU","iso_country":"DE","iso_region":"DE-NI","municipality":"Haren (Ems)","scheduled_service":"no","home_link":"http://www.flugplatz-dankern.de","keywords":"Flugplatz Dankern"},"geometry":{"type":"Point","coordinates":[7.160291,52.802319]}},{"id":"514690","type":"Feature","properties":{"ident":"DE-0607","type":"heliport","name":"Darmstadt Hospital Heliport","continent":"EU","iso_country":"DE","iso_region":"DE-HE","municipality":"Darmstadt","scheduled_service":"no"},"geometry":{"type":"Point","coordinates":[8.64535,49.87451]}},{"id":"315846","type":"Feature","properties":{"ident":"DE-0274","type":"small_airport","name":"Dauborn Airfield","continent":"EU","iso_country":"DE","iso_region":"DE-HE","municipality":"Hünfelden","scheduled_service":"no","keywords":"Flugplatz Dauborn"},"geometry":{"type":"Point","coordinates":[8.193889,50.321667]}},{"id":"315843","type":"Feature","properties":{"ident":"DE-0273","type":"small_airport","name":"Daun-Senheld Gliderport","elevation_ft":"1718","continent":"EU","iso_country":"DE","iso_region":"DE-RP","municipality":"Mehren","scheduled_service":"no"},"geometry":{"type":"Point","coordinates":[6.857754,50.175895]}},{"id":"315960","type":"Feature","properties":{"ident":"DE-0298","type":"small_airport","name":"Deckenpfronn-Egelsee Airfield","elevation_ft":"1895","continent":"EU","iso_country":"DE","iso_region":"DE-BW","municipality":"Sindelfingen","scheduled_service":"no","gps_code":"EDSD","home_link":"https://translate.google.com/translate?hl=en&sl=de&u=https://www.fsv-sindelfingen-ev.de/index.php%3Fid%3D84&prev=search","wikipedia_link":"https://de.wikipedia.org/wiki/Segelfluggel%C3%A4nde_Deckenpfronn-Egelsee"},"geometry":{"type":"Point","coordinates":[8.8175,48.6385]}},