{"type":"FeatureCollection","features":[{"id":"526439","type":"Feature","properties":{"ident":"EKAF","type":"heliport","name":"A6A Helideck","continent":"EU","iso_country":"DK","iso_region":"DK-XX","scheduled_service":"no","icao_code":"EKAF","gps_code":"EKAF"},"geometry":{"type":"Point","coordinates":[3.9925,55.7905]}},{"id":"2562","type":"Feature","properties":{"ident":"EKYT","type":"medium_airport","name":"Aalborg Airport","elevation_ft":"10","continent":"EU","iso_country":"DK","iso_region":"DK-81","municipality":"Aalborg","scheduled_service":"yes","icao_code":"EKYT","iata_code":"AAL","gps_code":"EKYT","home_link":"http://www.aal.dk","wikipedia_link":"https://en.wikipedia.org/wiki/Aalborg_Airport"},"geometry":{"type":"Point","coordinates":[9.84993,57.094763]}},{"id":"2540","type":"Feature","properties":{"ident":"EKAH","type":"medium_airport","name":"Aarhus Airport","elevation_ft":"82","continent":"EU","iso_country":"DK","iso_region":"DK-82","municipality":"Aarhus","scheduled_service":"yes","icao_code":"EKAH","iata_code":"AAR","gps_code":"EKAH","home_link":"http://www.aar.dk/default.asp?id=87","wikipedia_link":"https://en.wikipedia.org/wiki/Aarhus_Airport"},"geometry":{"type":"Point","coordinates":[10.618286,56.303331]}},{"id":"326142","type":"Feature","properties":{"ident":"EKAC","type":"seaplane_base","name":"Aarhus Seaplane Terminal","continent":"EU","iso_country":"DK","iso_region":"DK-82","municipality":"Aarhus","scheduled_service":"yes","gps_code":"EKAC"},"geometry":{"type":"Point","coordinates":[10.25106,56.152602]}},{"id":"319199","type":"Feature","properties":{"ident":"DK-0012","type":"heliport","name":"Aarhus University Hospital Helipad","continent":"EU","iso_country":"DK","iso_region":"DK-82","municipality":"Åarhus","scheduled_service":"no","icao_code":"EKAS","gps_code":"EKAS","wikipedia_link":"https://en.wikipedia.org/wiki/Skejby_Sygehus","keywords":"Skejby, Århus"},"geometry":{"type":"Point","coordinates":[10.167553,56.192954]}},{"id":"341524","type":"Feature","properties":{"ident":"DK-0042","type":"heliport","name":"Aarhus University Hospital Helipad B","continent":"EU","iso_country":"DK","iso_region":"DK-82","municipality":"Aarhus","scheduled_service":"no"},"geometry":{"type":"Point","coordinates":[10.17492,56.19078]}},{"id":"29234","type":"Feature","properties":{"ident":"EKAT","type":"small_airport","name":"Anholt Airfield","elevation_ft":"23","continent":"EU","iso_country":"DK","iso_region":"DK-82","municipality":"Anholt","scheduled_service":"yes","icao_code":"EKAT","gps_code":"EKAT","home_link":"https://web.archive.org/web/20130521142132/http://www.anholt.dk/anholt_flyveplads.htm","wikipedia_link":"https://en.wikipedia.org/wiki/Anholt_(Denmark)#Connections"},"geometry":{"type":"Point","coordinates":[11.555718,56.698347]}},{"id":"318327","type":"Feature","properties":{"ident":"EKHE","type":"small_airport","name":"Annisse flyveplads","continent":"EU","iso_country":"DK","iso_region":"DK-84","municipality":"Annisse","scheduled_service":"no","gps_code":"EKHE"},"geometry":{"type":"Point","coordinates":[12.214444,55.984722]}},{"id":"318287","type":"Feature","properties":{"ident":"EKBH","type":"small_airport","name":"Arnborg Gliding Center","elevation_ft":"144","continent":"EU","iso_country":"DK","iso_region":"DK-82","municipality":"Herning","scheduled_service":"no","icao_code":"EKAB","gps_code":"EKAB","wikipedia_link":"https://da.wikipedia.org/wiki/Sv%C3%A6veflyvecenter_Arnborg","keywords":"Bolhede, Arnborg, Svæveflyvecenter Arnborg"},"geometry":{"type":"Point","coordinates":[9.016041,56.011109]}},{"id":"345938","type":"Feature","properties":{"ident":"EKCB","type":"heliport","name":"Arslev Heliport","elevation_ft":"132","continent":"EU","iso_country":"DK","iso_region":"DK-82","scheduled_service":"no","gps_code":"EKCB"},"geometry":{"type":"Point","coordinates":[10.081111,56.134444]}},{"id":"549717","type":"Feature","properties":{"ident":"DK-0054","type":"small_airport","name":"Avedøre Airfield","elevation_ft":"13","continent":"EU","iso_country":"DK","iso_region":"DK-84","municipality":"Copenhagen","scheduled_service":"no","wikipedia_link":"https://en.wikipedia.org/wiki/Aved%C3%B8re_Airfield"},"geometry":{"type":"Point","coordinates":[12.442886,55.619529]}},{"id":"320938","type":"Feature","properties":{"ident":"DK-0015","type":"small_airport","name":"Aversi Airfield","continent":"EU","iso_country":"DK","iso_region":"DK-85","municipality":"Haslev","scheduled_service":"no","home_link":"http://aversi.dk"},"geometry":{"type":"Point","coordinates":[11.832681,55.342295]}},{"id":"2541","type":"Feature","properties":{"ident":"EKBI","type":"large_airport","name":"Billund Airport","elevation_ft":"247","continent":"EU","iso_country":"DK","iso_region":"DK-83","municipality":"Billund","scheduled_service":"yes","icao_code":"EKBI","iata_code":"BLL","gps_code":"EKBI","home_link":"http://www.billund-airport.dk/?sc_lang=en","wikipedia_link":"https://en.wikipedia.org/wiki/Billund_Airport"},"geometry":{"type":"Point","coordinates":[9.157019,55.740335]}},{"id":"326132","type":"Feature","properties":{"ident":"DK-0033","type":"small_airport","name":"Bjedstrup Airstrip","elevation_ft":"295","continent":"EU","iso_country":"DK","iso_region":"DK-82","municipality":"Skanderborg","scheduled_service":"no"},"geometry":{"type":"Point","coordinates":[9.867514,56.071002]}},{"id":"331803","type":"Feature","properties":{"ident":"DK-0038","type":"small_airport","name":"Bjørnø Airfield","elevation_ft":"14","continent":"EU","iso_country":"DK","iso_region":"DK-83","municipality":"Faaborg","scheduled_service":"no"},"geometry":{"type":"Point","coordinates":[10.241796,55.067742]}},{"id":"318903","type":"Feature","properties":{"ident":"DK-0005","type":"small_airport","name":"Bogense Flyveplads","continent":"EU","iso_country":"DK","iso_region":"DK-83","municipality":"Bogense","scheduled_service":"no"},"geometry":{"type":"Point","coordinates":[10.032566,55.543022]}},{"id":"319129","type":"Feature","properties":{"ident":"DK-0009","type":"small_airport","name":"Bolhede Glider Field","continent":"EU","iso_country":"DK","iso_region":"DK-83","municipality":"Bolhede","scheduled_service":"no","gps_code":"EKBH","home_link":"http://bolhede.dk/"},"geometry":{"type":"Point","coordinates":[8.755736,55.631971]}},{"id":"2552","type":"Feature","properties":{"ident":"EKRN","type":"medium_airport","name":"Bornholm Airport","elevation_ft":"52","continent":"EU","iso_country":"DK","iso_region":"DK-84","municipality":"Rønne","scheduled_service":"yes","icao_code":"EKRN","iata_code":"RNN","gps_code":"EKRN","home_link":"http://www.bornholms-lufthavn.dk/en/","wikipedia_link":"https://en.wikipedia.org/wiki/Bornholm_Airport","keywords":"Roenne"},"geometry":{"type":"Point","coordinates":[14.7596,55.063301]}},{"id":"529369","type":"Feature","properties":{"ident":"EKRB","type":"heliport","name":"Bornholm Hospital Heliport","elevation_ft":"62","continent":"EU","iso_country":"DK","iso_region":"DK-84","municipality":"Rønne","scheduled_service":"no","icao_code":"EKRB","gps_code":"EKRB"},"geometry":{"type":"Point","coordinates":[14.70809,55.090753]}},{"id":"348971","type":"Feature","properties":{"ident":"DK-0049","type":"small_airport","name":"Bramming Airstrip","continent":"EU","iso_country":"DK","iso_region":"DK-83","municipality":"Bramming","scheduled_service":"no"},"geometry":{"type":"Point","coordinates":[8.79486,55.53471]}},{"id":"317475","type":"Feature","properties":{"ident":"DK-0004","type":"small_airport","name":"Brædstrup Airfield","continent":"EU","iso_country":"DK","iso_region":"DK-82","municipality":"Brædstrup","scheduled_service":"no","gps_code":"EKBR","home_link":"http://www.ekbr.dk/","keywords":"RAF/RCAF Mindekors"},"geometry":{"type":"Point","coordinates":[9.653333,55.943611]}},{"id":"44008","type":"Feature","properties":{"ident":"EKCE","type":"heliport","name":"Cecilie Helideck","continent":"EU","iso_country":"DK","iso_region":"DK-XX","scheduled_service":"no","gps_code":"EKCE"},"geometry":{"type":"Point","coordinates":[4.759611,56.402115]}},{"id":"317784","type":"Feature","properties":{"ident":"EKCR","type":"small_airport","name":"Christianshede Airfield","elevation_ft":"3274","continent":"EU","iso_country":"DK","iso_region":"DK-82","municipality":"Bording","scheduled_service":"no","gps_code":"EKCR","keywords":"Ekcr, Christianshede, Silkeborg flyveplads, Silkeborg flyveklub"},"geometry":{"type":"Point","coordinates":[9.392495,56.104407]}},{"id":"2542","type":"Feature","properties":{"ident":"EKCH","type":"large_airport","name":"Copenhagen Kastrup Airport","elevation_ft":"17","continent":"EU","iso_country":"DK","iso_region":"DK-84","municipality":"Copenhagen","scheduled_service":"yes","icao_code":"EKCH","iata_code":"CPH","gps_code":"EKCH","home_link":"http://www.cph.dk/en/","wikipedia_link":"https://en.wikipedia.org/wiki/Copenhagen_Airport","keywords":"København, Malmö"},"geometry":{"type":"Point","coordinates":[12.656,55.617901]}},{"id":"2551","type":"Feature","properties":{"ident":"EKRK","type":"medium_airport","name":"Copenhagen Roskilde Airport","elevation_ft":"146","continent":"EU","iso_country":"DK","iso_region":"DK-85","municipality":"Roskilde","scheduled_service":"yes","icao_code":"EKRK","iata_code":"RKE","gps_code":"EKRK","wikipedia_link":"https://en.wikipedia.org/wiki/Roskilde_Airport","keywords":"København, Copenhagen"},"geometry":{"type":"Point","coordinates":[12.1314,55.585602]}},{"id":"44009","type":"Feature","properties":{"ident":"EKDB","type":"heliport","name":"Dan B Helideck","continent":"EU","iso_country":"DK","iso_region":"DK-XX","scheduled_service":"no","gps_code":"EKDB"},"geometry":{"type":"Point","coordinates":[5.133056,55.46904]}},{"id":"44010","type":"Feature","properties":{"ident":"EKDE","type":"heliport","name":"Dan E Helideck","continent":"EU","iso_country":"DK","iso_region":"DK-XX","scheduled_service":"no","gps_code":"EKDE"},"geometry":{"type":"Point","coordinates":[5.116167,55.48064]}},{"id":"44011","type":"Feature","properties":{"ident":"EKDF","type":"heliport","name":"Dan F Helideck","continent":"EU","iso_country":"DK","iso_region":"DK-XX","scheduled_service":"no","gps_code":"EKDF"},"geometry":{"type":"Point","coordinates":[5.105528,55.4781]}},{"id":"347942","type":"Feature","properties":{"ident":"DK-0047","type":"small_airport","name":"Drejø Airstrip","continent":"EU","iso_country":"DK","iso_region":"DK-83","municipality":"Svendborg","scheduled_service":"no"},"geometry":{"type":"Point","coordinates":[10.39631,54.9741]}},{"id":"319112","type":"Feature","properties":{"ident":"DK-0007","type":"small_airport","name":"Ejstruphede Glider Field","elevation_ft":"100","continent":"EU","iso_country":"DK","iso_region":"DK-82","municipality":"Videbæk","scheduled_service":"no","home_link":"http://svaeveflyvning.dk/side1","keywords":"Vestjyllands Svæveflyveklub"},"geometry":{"type":"Point","coordinates":[8.69093,56.02115]}},{"id":"320947","type":"Feature","properties":{"ident":"DK-0017","type":"small_airport","name":"Ejstrupholm Airfield","continent":"EU","iso_country":"DK","iso_region":"DK-82","municipality":"Ejstrupholm","scheduled_service":"no"},"geometry":{"type":"Point","coordinates":[9.267537,55.990993]}},{"id":"539879","type":"Feature","properties":{"ident":"DK-0053","type":"small_airport","name":"Elsesminde Airfield","continent":"EU","iso_country":"DK","iso_region":"DK-82","municipality":"Odder","scheduled_service":"no"},"geometry":{"type":"Point","coordinates":[10.24296,55.93825]}},{"id":"347231","type":"Feature","properties":{"ident":"DK-0044","type":"small_airport","name":"Emmelev Flyveplads","continent":"EU","iso_country":"DK","iso_region":"DK-82","scheduled_service":"no"},"geometry":{"type":"Point","coordinates":[10.78563,56.47528]}},{"id":"29235","type":"Feature","properties":{"ident":"EKEL","type":"small_airport","name":"Endelave Airfield","elevation_ft":"15","continent":"EU","iso_country":"DK","iso_region":"DK-82","municipality":"Endelave","scheduled_service":"no","gps_code":"EKEL","home_link":"http://www.toftair.dk/"},"geometry":{"type":"Point","coordinates":[10.248697,55.756753]}},{"id":"2543","type":"Feature","properties":{"ident":"EKEB","type":"medium_airport","name":"Esbjerg Airport","elevation_ft":"97","continent":"EU","iso_country":"DK","iso_region":"DK-83","municipality":"Esbjerg","scheduled_service":"yes","icao_code":"EKEB","iata_code":"EBJ","gps_code":"EKEB","home_link":"http://www.esbjerg-lufthavn.dk/en/","wikipedia_link":"https://en.wikipedia.org/wiki/Esbjerg_Airport","keywords":"offshore, North Sea"},"geometry":{"type":"Point","coordinates":[8.5534,55.525902]}},{"id":"320949","type":"Feature","properties":{"ident":"DK-0019","type":"small_airport","name":"Estruplund Airfield","elevation_ft":"14","continent":"EU","iso_country":"DK","iso_region":"DK-82","municipality":"Estruplund","scheduled_service":"no"},"geometry":{"type":"Point","coordinates":[10.358906,56.557898]}},{"id":"320948","type":"Feature","properties":{"ident":"DK-0018","type":"small_airport","name":"Filskov Airfield","continent":"EU","iso_country":"DK","iso_region":"DK-83","municipality":"Grindsted","scheduled_service":"no"},"geometry":{"type":"Point","coordinates":[9.047152,55.81478]}},{"id":"320954","type":"Feature","properties":{"ident":"DK-0022","type":"small_airport","name":"Frederikssund Nord Glider Field","continent":"EU","iso_country":"DK","iso_region":"DK-84","scheduled_service":"no","home_link":"http://www.f-f-f.dk"},"geometry":{"type":"Point","coordinates":[12.074404,55.852511]}},{"id":"320950","type":"Feature","properties":{"ident":"DK-0020","type":"small_airport","name":"Frederikssund Syd Flyveplads","continent":"EU","iso_country":"DK","iso_region":"DK-84","scheduled_service":"no"},"geometry":{"type":"Point","coordinates":[12.081471,55.814761]}},{"id":"316647","type":"Feature","properties":{"ident":"EKFR","type":"small_airport","name":"Freerslev","continent":"EU","iso_country":"DK","iso_region":"DK-84","scheduled_service":"no","gps_code":"EKFR"},"geometry":{"type":"Point","coordinates":[12.245,55.898611]}},{"id":"29884","type":"Feature","properties":{"ident":"EKFU","type":"small_airport","name":"Fur Airstrip","elevation_ft":"30","continent":"EU","iso_country":"DK","iso_region":"DK-82","municipality":"Fur","scheduled_service":"no","gps_code":"EKFU","keywords":"Salling peninsula, Skive"},"geometry":{"type":"Point","coordinates":[8.987213,56.824886]}},{"id":"347254","type":"Feature","properties":{"ident":"DK-0045","type":"small_airport","name":"Fårbæk Private Airstrip","continent":"EU","iso_country":"DK","iso_region":"DK-82","municipality":"Herning","scheduled_service":"no"},"geometry":{"type":"Point","coordinates":[9.067647,56.367199]}},{"id":"320953","type":"Feature","properties":{"ident":"DK-0021","type":"small_airport","name":"Gesten Glider Field","continent":"EU","iso_country":"DK","iso_region":"DK-83","municipality":"Gesten","scheduled_service":"no","gps_code":"EKGE"},"geometry":{"type":"Point","coordinates":[9.189979,55.550967]}},{"id":"331156","type":"Feature","properties":{"ident":"DK-0037","type":"small_airport","name":"Gilleleje Airstrip","continent":"EU","iso_country":"DK","iso_region":"DK-84","municipality":"Gilleleje","scheduled_service":"no"},"geometry":{"type":"Point","coordinates":[12.323405,56.106298]}},{"id":"44012","type":"Feature","properties":{"ident":"EKGC","type":"heliport","name":"Gorm C Helideck","continent":"EU","iso_country":"DK","iso_region":"DK-XX","scheduled_service":"no","gps_code":"EKGC"},"geometry":{"type":"Point","coordinates":[4.758889,55.579849]}},{"id":"29916","type":"Feature","properties":{"ident":"EKGR","type":"small_airport","name":"Grenaa Airfield","elevation_ft":"20","continent":"EU","iso_country":"DK","iso_region":"DK-82","municipality":"Grenaa","scheduled_service":"no","gps_code":"EKGR","keywords":"Grenå"},"geometry":{"type":"Point","coordinates":[10.9306,56.442501]}},{"id":"506663","type":"Feature","properties":{"ident":"DK-0051","type":"small_airport","name":"Grimlund/Hoven Airstrip","elevation_ft":"96","continent":"EU","iso_country":"DK","iso_region":"DK-82","municipality":"Hoven","scheduled_service":"no"},"geometry":{"type":"Point","coordinates":[8.717765,55.822478]}},{"id":"320964","type":"Feature","properties":{"ident":"DK-0023","type":"small_airport","name":"Grønbæk Airfield","continent":"EU","iso_country":"DK","iso_region":"DK-82","municipality":"Grønbæk","scheduled_service":"no","keywords":"Grønbæk Flyveplads"},"geometry":{"type":"Point","coordinates":[9.623194,56.270588]}},{"id":"2544","type":"Feature","properties":{"ident":"EKGH","type":"small_airport","name":"Grønholt Hillerød Airfield","elevation_ft":"97","continent":"EU","iso_country":"DK","iso_region":"DK-84","municipality":"Grønholt","scheduled_service":"no","gps_code":"EKGH","wikipedia_link":"https://da.wikipedia.org/wiki/Gr%C3%B8nholt_Flyveplads","keywords":"Gronholt, Groenholt, Hillerod, Hilleroed"},"geometry":{"type":"Point","coordinates":[12.3822,55.941399]}},{"id":"318289","type":"Feature","properties":{"ident":"EKGO","type":"small_airport","name":"Gørlev Airfield","continent":"EU","iso_country":"DK","iso_region":"DK-85","municipality":"Gørlev","scheduled_service":"no","gps_code":"EKGO","keywords":"Gorlev, Gørlev Flyveplads"},"geometry":{"type":"Point","coordinates":[11.196999,55.551963]}},{"id":"320131","type":"Feature","properties":{"ident":"EKGL","type":"small_airport","name":"Gørløse Glider Field","continent":"EU","iso_country":"DK","iso_region":"DK-84","municipality":"Gørløse","scheduled_service":"no","gps_code":"EKGL","home_link":"http://www.glider.dk/node/357"},"geometry":{"type":"Point","coordinates":[12.228056,55.885556]}},{"id":"2545","type":"Feature","properties":{"ident":"EKHV","type":"small_airport","name":"Haderslev Airfield","elevation_ft":"81","continent":"EU","iso_country":"DK","iso_region":"DK-83","municipality":"Haderslev","scheduled_service":"no","gps_code":"EKHV"},"geometry":{"type":"Point","coordinates":[9.524503,55.301829]}},{"id":"44013","type":"Feature","properties":{"ident":"EKHA","type":"heliport","name":"Halfdan A Helideck","continent":"EU","iso_country":"DK","iso_region":"DK-XX","scheduled_service":"no","gps_code":"EKHA"},"geometry":{"type":"Point","coordinates":[5.004167,55.530857]}},{"id":"44014","type":"Feature","properties":{"ident":"EKHB","type":"heliport","name":"Halfdan B Helideck","continent":"EU","iso_country":"DK","iso_region":"DK-XX","scheduled_service":"no","gps_code":"EKHB"},"geometry":{"type":"Point","coordinates":[5.033333,55.538612]}},{"id":"318291","type":"Feature","properties":{"ident":"EKHM","type":"small_airport","name":"Hammer Glider Field","elevation_ft":"290","continent":"EU","iso_country":"DK","iso_region":"DK-82","municipality":"Tørring","scheduled_service":"no","gps_code":"EKHM","home_link":"http://www.vsk.dk/","keywords":"Vejle Svæveflyveklub"},"geometry":{"type":"Point","coordinates":[9.446358,55.908195]}},{"id":"44015","type":"Feature","properties":{"ident":"EKHD","type":"heliport","name":"Harald Helideck","continent":"EU","iso_country":"DK","iso_region":"DK-XX","scheduled_service":"no","gps_code":"EKHD"},"geometry":{"type":"Point","coordinates":[4.271917,56.34412]}},{"id":"29236","type":"Feature","properties":{"ident":"EKHG","type":"small_airport","name":"Herning Airfield","elevation_ft":"167","continent":"EU","iso_country":"DK","iso_region":"DK-82","municipality":"Herning","scheduled_service":"no","gps_code":"EKHG","home_link":"http://www.ekhg.dk/?lang=en","wikipedia_link":"https://en.wikipedia.org/wiki/Herning_Airport"},"geometry":{"type":"Point","coordinates":[9.04445,56.1847]}},{"id":"340594","type":"Feature","properties":{"ident":"DK-0039","type":"small_airport","name":"Hesselø Airstrip","continent":"EU","iso_country":"DK","iso_region":"DK-84","municipality":"Hundested","scheduled_service":"no"},"geometry":{"type":"Point","coordinates":[11.701118,56.198194]}},{"id":"29237","type":"Feature","properties":{"ident":"EKHK","type":"small_airport","name":"Holbæk (Ny Hagested) Airfield","elevation_ft":"2","continent":"EU","iso_country":"DK","iso_region":"DK-85","municipality":"Gislinge","scheduled_service":"no","gps_code":"EKHK","home_link":"https://www.ekhk.dk/","wikipedia_link":"https://da.wikipedia.org/wiki/Holb%C3%A6k_Flyveplads","keywords":"Holbaek, Holbæk Flyveplads"},"geometry":{"type":"Point","coordinates":[11.604706,55.733919]}},{"id":"319127","type":"Feature","properties":{"ident":"DK-0008","type":"small_airport","name":"Holstebro Glider Field","elevation_ft":"102","continent":"EU","iso_country":"DK","iso_region":"DK-82","municipality":"Holstebro","scheduled_service":"no","home_link":"http://www.flyvecenter.dk/"},"geometry":{"type":"Point","coordinates":[8.58603,56.306282]}},{"id":"318902","type":"Feature","properties":{"ident":"EKHL","type":"heliport","name":"Holsted Helipad","continent":"EU","iso_country":"DK","iso_region":"DK-83","municipality":"Holsted","scheduled_service":"no","gps_code":"EKHL","keywords":"Ben Air"},"geometry":{"type":"Point","coordinates":[8.910833,55.496667]}},{"id":"321105","type":"Feature","properties":{"ident":"DK-0030","type":"small_airport","name":"Holsted Private Airfield","continent":"EU","iso_country":"DK","iso_region":"DK-83","municipality":"Holsted","scheduled_service":"no"},"geometry":{"type":"Point","coordinates":[8.936523,55.561962]}},{"id":"44016","type":"Feature","properties":{"ident":"EKHR","type":"heliport","name":"Horns Rev A Helideck","continent":"EU","iso_country":"DK","iso_region":"DK-XX","scheduled_service":"no","gps_code":"EKHR"},"geometry":{"type":"Point","coordinates":[7.874917,55.508949]}},{"id":"44017","type":"Feature","properties":{"ident":"EKHN","type":"heliport","name":"Horns Rev B Helideck","continent":"EU","iso_country":"DK","iso_region":"DK-XX","scheduled_service":"no","gps_code":"EKHN"},"geometry":{"type":"Point","coordinates":[7.623806,55.600166]}},{"id":"353146","type":"Feature","properties":{"ident":"DK-0050","type":"small_airport","name":"Hundelev Private Airstrip","continent":"EU","iso_country":"DK","iso_region":"DK-81","scheduled_service":"no"},"geometry":{"type":"Point","coordinates":[9.862525,57.422473]}},{"id":"345141","type":"Feature","properties":{"ident":"DK-0043","type":"small_airport","name":"Kaleko Airstrip","elevation_ft":"46","continent":"EU","iso_country":"DK","iso_region":"DK-83","municipality":"Faaborg","scheduled_service":"no"},"geometry":{"type":"Point","coordinates":[10.2688,55.09864]}},{"id":"29239","type":"Feature","properties":{"ident":"EKKL","type":"small_airport","name":"Kalundborg Airfield","elevation_ft":"1","continent":"EU","iso_country":"DK","iso_region":"DK-85","municipality":"Kalundborg","scheduled_service":"no","gps_code":"EKKL","wikipedia_link":"https://en.wikipedia.org/wiki/Kalundborg_Airfield"},"geometry":{"type":"Point","coordinates":[11.250095,55.700011]}},{"id":"2558","type":"Feature","properties":{"ident":"EKVD","type":"medium_airport","name":"Kolding Vamdrup Airfield","elevation_ft":"143","continent":"EU","iso_country":"DK","iso_region":"DK-83","municipality":"Kolding / Vamdrup","scheduled_service":"no","gps_code":"EKVD","wikipedia_link":"https://da.wikipedia.org/wiki/Kolding_Lufthavn"},"geometry":{"type":"Point","coordinates":[9.33092,55.436298]}},{"id":"318288","type":"Feature","properties":{"ident":"EKKS","type":"small_airport","name":"Kongsted Gliderfield","continent":"EU","iso_country":"DK","iso_region":"DK-85","municipality":"Rønnede","scheduled_service":"no","gps_code":"EKKS","keywords":"Kongsted Svæveflyveplads, Øst-Sjællands Flyveklub"},"geometry":{"type":"Point","coordinates":[12.062726,55.251511]}},{"id":"30040","type":"Feature","properties":{"ident":"EKKO","type":"small_airport","name":"Korsør Airfield","elevation_ft":"39","continent":"EU","iso_country":"DK","iso_region":"DK-85","municipality":"Vemmelev","scheduled_service":"no","gps_code":"EKKO"},"geometry":{"type":"Point","coordinates":[11.241791,55.337094]}},{"id":"520626","type":"Feature","properties":{"ident":"DK-0052","type":"heliport","name":"Korsør Helipad","elevation_ft":"9","continent":"EU","iso_country":"DK","iso_region":"DK-85","municipality":"Korsør","scheduled_service":"no"},"geometry":{"type":"Point","coordinates":[11.1243,55.35425]}},{"id":"30041","type":"Feature","properties":{"ident":"EKMN","type":"small_airport","name":"Kostervig Mon Airfield","elevation_ft":"3","continent":"EU","iso_country":"DK","iso_region":"DK-85","municipality":"Stege","scheduled_service":"no","gps_code":"EKMN","home_link":"http://www.ekmn.dk/"},"geometry":{"type":"Point","coordinates":[12.196483,54.96545]}},{"id":"2550","type":"Feature","properties":{"ident":"EKPB","type":"small_airport","name":"Kruså-Padborg Airfield","elevation_ft":"88","continent":"EU","iso_country":"DK","iso_region":"DK-83","municipality":"Padborg","scheduled_service":"no","gps_code":"EKPB"},"geometry":{"type":"Point","coordinates":[9.27901,54.8703]}},{"id":"351549","type":"Feature","properties":{"ident":"EKCC","type":"seaplane_base","name":"København Vandflyveplads","continent":"EU","iso_country":"DK","iso_region":"DK-84","scheduled_service":"yes","gps_code":"EKCC"},"geometry":{"type":"Point","coordinates":[12.60009,55.69119]}},{"id":"29240","type":"Feature","properties":{"ident":"EKLV","type":"small_airport","name":"Lemvig Airfield","elevation_ft":"97","continent":"EU","iso_country":"DK","iso_region":"DK-82","municipality":"Lemvig","scheduled_service":"no","gps_code":"EKLV","home_link":"http://www.eklv.dk/","wikipedia_link":"https://en.wikipedia.org/wiki/Lemvig_Airfield"},"geometry":{"type":"Point","coordinates":[8.31133,56.502998]}},{"id":"31002","type":"Feature","properties":{"ident":"EKHO","type":"small_airport","name":"Lindtorp Airfield","elevation_ft":"49","continent":"EU","iso_country":"DK","iso_region":"DK-82","municipality":"Struer","scheduled_service":"no","gps_code":"EKHO"},"geometry":{"type":"Point","coordinates":[8.444061,56.396868]}},{"id":"2548","type":"Feature","properties":{"ident":"EKMB","type":"medium_airport","name":"Lolland Falster Maribo Airport","elevation_ft":"16","continent":"EU","iso_country":"DK","iso_region":"DK-85","municipality":"Rødby","scheduled_service":"no","icao_code":"EKMB","iata_code":"MRW","gps_code":"EKMB","home_link":"http://www.lollandfalsterairport.dk/","wikipedia_link":"https://en.wikipedia.org/wiki/Lolland_Falster_Airport"},"geometry":{"type":"Point","coordinates":[11.438163,54.699447]}},{"id":"2547","type":"Feature","properties":{"ident":"EKLS","type":"small_airport","name":"Læsø Airport","elevation_ft":"25","continent":"EU","iso_country":"DK","iso_region":"DK-81","municipality":"Læsø","scheduled_service":"yes","icao_code":"EKLS","iata_code":"BYR","gps_code":"EKLS","wikipedia_link":"https://en.wikipedia.org/wiki/L%C3%A6s%C3%B8_Airport","keywords":"Laeso, Laesoe"},"geometry":{"type":"Point","coordinates":[11.0001,57.277199]}},{"id":"2546","type":"Feature","properties":{"ident":"EKKA","type":"medium_airport","name":"Midtjyllands Airport / Air Base Karup","elevation_ft":"170","continent":"EU","iso_country":"DK","iso_region":"DK-82","municipality":"Karup","scheduled_service":"yes","icao_code":"EKKA","iata_code":"KRP","gps_code":"EKKA","wikipedia_link":"https://en.wikipedia.org/wiki/Midtjyllands_Airport","keywords":"Karup Airport"},"geometry":{"type":"Point","coordinates":[9.104311,56.297139]}},{"id":"29241","type":"Feature","properties":{"ident":"EKNM","type":"small_airport","name":"Morsø Airfield, Tødsø","elevation_ft":"53","continent":"EU","iso_country":"DK","iso_region":"DK-81","municipality":"Erslev","scheduled_service":"no","gps_code":"EKNM","keywords":"Mors, Morso Airport Todso, Morsoe Airport Toedsoe"},"geometry":{"type":"Point","coordinates":[8.78667,56.824402]}},{"id":"44018","type":"Feature","properties":{"ident":"EKNI","type":"heliport","name":"Nini Helideck","continent":"EU","iso_country":"DK","iso_region":"DK-XX","scheduled_service":"no","gps_code":"EKNI"},"geometry":{"type":"Point","coordinates":[5.321111,56.640804]}},{"id":"320935","type":"Feature","properties":{"ident":"DK-0014","type":"small_airport","name":"Nordborg Pøl Airfield","elevation_ft":"52","continent":"EU","iso_country":"DK","iso_region":"DK-83","municipality":"Nordborg","scheduled_service":"no","gps_code":"EKNB","keywords":"Nordborg/Pøl"},"geometry":{"type":"Point","coordinates":[9.753379,55.07485]}},{"id":"322677","type":"Feature","properties":{"ident":"DK-0031","type":"small_airport","name":"North Jutland Ultralight Flying Club","continent":"EU","iso_country":"DK","iso_region":"DK-81","municipality":"Brønderslev","scheduled_service":"no","home_link":"http://www.nulf.dk","keywords":"Nordjyllands Ultra Light Flyveklub"},"geometry":{"type":"Point","coordinates":[9.940858,57.247811]}},{"id":"320855","type":"Feature","properties":{"ident":"DK-0013","type":"small_airport","name":"Næstved Airfield","elevation_ft":"10","continent":"EU","iso_country":"DK","iso_region":"DK-85","municipality":"Næstved","scheduled_service":"no","keywords":"Naestved"},"geometry":{"type":"Point","coordinates":[11.717592,55.210902]}},{"id":"2549","type":"Feature","properties":{"ident":"EKOD","type":"large_airport","name":"Odense Hans Christian Andersen Airport","elevation_ft":"56","continent":"EU","iso_country":"DK","iso_region":"DK-83","municipality":"Odense","scheduled_service":"yes","icao_code":"EKOD","iata_code":"ODE","gps_code":"EKOD","wikipedia_link":"https://en.wikipedia.org/wiki/Hans_Christian_Andersen_Airport","keywords":"Beldringe"},"geometry":{"type":"Point","coordinates":[10.327206,55.475307]}},{"id":"320965","type":"Feature","properties":{"ident":"DK-0024","type":"small_airport","name":"Orupgård Airfield","continent":"EU","iso_country":"DK","iso_region":"DK-85","municipality":"Nykøbing Falster","scheduled_service":"no","keywords":"Orupgaard Flyveplads"},"geometry":{"type":"Point","coordinates":[11.948487,54.76877]}},{"id":"29242","type":"Feature","properties":{"ident":"EKRD","type":"small_airport","name":"Randers Airfield","elevation_ft":"139","continent":"EU","iso_country":"DK","iso_region":"DK-82","municipality":"Randers","scheduled_service":"no","gps_code":"EKRD","wikipedia_link":"https://en.wikipedia.org/wiki/Randers_Airport"},"geometry":{"type":"Point","coordinates":[10.0364,56.506599]}},{"id":"330092","type":"Feature","properties":{"ident":"DK-0036","type":"small_airport","name":"Revninge Airfield","continent":"EU","iso_country":"DK","iso_region":"DK-83","municipality":"Kerteminde","scheduled_service":"no"},"geometry":{"type":"Point","coordinates":[10.670596,55.418985]}},{"id":"319165","type":"Feature","properties":{"ident":"DK-0011","type":"heliport","name":"Rigshospitalet Helipad","continent":"EU","iso_country":"DK","iso_region":"DK-84","municipality":"Copenhagen","scheduled_service":"no"},"geometry":{"type":"Point","coordinates":[12.566769,55.696662]}},{"id":"29244","type":"Feature","properties":{"ident":"EKRS","type":"small_airport","name":"Ringsted Airfield","elevation_ft":"113","continent":"EU","iso_country":"DK","iso_region":"DK-85","municipality":"Ringsted","scheduled_service":"yes","gps_code":"EKRS","wikipedia_link":"https://da.wikipedia.org/wiki/Ringsted_Flyveplads","keywords":"Ringsted Flyveplads"},"geometry":{"type":"Point","coordinates":[11.8067,55.4258]}},{"id":"44019","type":"Feature","properties":{"ident":"EKRF","type":"heliport","name":"Rolf Helideck","continent":"EU","iso_country":"DK","iso_region":"DK-XX","scheduled_service":"no","gps_code":"EKRF"},"geometry":{"type":"Point","coordinates":[4.491333,55.606155]}},{"id":"320966","type":"Feature","properties":{"ident":"DK-0025","type":"small_airport","name":"Rolfsted Airfield","continent":"EU","iso_country":"DK","iso_region":"DK-83","municipality":"Langeskov","scheduled_service":"no","gps_code":"EKRO"},"geometry":{"type":"Point","coordinates":[10.581682,55.325083]}},{"id":"30324","type":"Feature","properties":{"ident":"EKRA","type":"small_airport","name":"Rårup Airfield","elevation_ft":"131","continent":"EU","iso_country":"DK","iso_region":"DK-82","municipality":"Rårup","scheduled_service":"no","gps_code":"EKRA","keywords":"Rarup"},"geometry":{"type":"Point","coordinates":[9.94154,55.777572]}},{"id":"319090","type":"Feature","properties":{"ident":"DK-0006","type":"small_airport","name":"Rødekro Airfield","elevation_ft":"135","continent":"EU","iso_country":"DK","iso_region":"DK-83","municipality":"Rødekro","scheduled_service":"no","keywords":"Rødekro Flyveplads, Sønderjysk Flyveklub"},"geometry":{"type":"Point","coordinates":[9.300639,55.07824]}},{"id":"602183","type":"Feature","properties":{"ident":"DK-0065","type":"small_airport","name":"Rømø Beach Airstrip","continent":"EU","iso_country":"DK","iso_region":"DK-83","municipality":"Rømø","scheduled_service":"no"},"geometry":{"type":"Point","coordinates":[8.482475,55.144154]}},{"id":"29247","type":"Feature","properties":{"ident":"EKSS","type":"small_airport","name":"Samsø Airfield","elevation_ft":"1","continent":"EU","iso_country":"DK","iso_region":"DK-82","municipality":"Samsø","scheduled_service":"no","gps_code":"EKSS","wikipedia_link":"https://en.wikipedia.org/wiki/Sams%C3%B8_Airport","keywords":"Samso, Samsoe"},"geometry":{"type":"Point","coordinates":[10.613766,55.889073]}},{"id":"316929","type":"Feature","properties":{"ident":"EKSG","type":"heliport","name":"Schelenburg God Heliport","continent":"EU","iso_country":"DK","iso_region":"DK-83","scheduled_service":"no","gps_code":"EKSG"},"geometry":{"type":"Point","coordinates":[10.635833,55.543889]}},{"id":"2554","type":"Feature","properties":{"ident":"EKSN","type":"medium_airport","name":"Sindal Airport","elevation_ft":"92","continent":"EU","iso_country":"DK","iso_region":"DK-81","municipality":"Sindal","scheduled_service":"no","icao_code":"EKSN","iata_code":"CNL","gps_code":"EKSN","home_link":"http://www.eksn.dk/","wikipedia_link":"https://en.wikipedia.org/wiki/Sindal_Airport"},"geometry":{"type":"Point","coordinates":[10.2294,57.503502]}},{"id":"44020","type":"Feature","properties":{"ident":"EKSI","type":"heliport","name":"Siri Helideck","continent":"EU","iso_country":"DK","iso_region":"DK-XX","scheduled_service":"no","gps_code":"EKSI"},"geometry":{"type":"Point","coordinates":[4.911111,56.482716]}},{"id":"572072","type":"Feature","properties":{"ident":"DK-0056","type":"small_airport","name":"Skalmstrup Airfield","elevation_ft":"62","continent":"EU","iso_country":"DK","iso_region":"DK-82","municipality":"Randers","scheduled_service":"no"},"geometry":{"type":"Point","coordinates":[10.19801,56.54294]}},{"id":"2556","type":"Feature","properties":{"ident":"EKSV","type":"medium_airport","name":"Skive Airport","elevation_ft":"74","continent":"EU","iso_country":"DK","iso_region":"DK-82","municipality":"Skive","scheduled_service":"no","icao_code":"EKSV","iata_code":"SQW","gps_code":"EKSV","wikipedia_link":"https://en.wikipedia.org/wiki/Skive_Airport"},"geometry":{"type":"Point","coordinates":[9.17298,56.550201]}},{"id":"549725","type":"Feature","properties":{"ident":"EKSK","type":"heliport","name":"Skive HEMS Heliport","elevation_ft":"29","continent":"EU","iso_country":"DK","iso_region":"DK-82","municipality":"Skive","scheduled_service":"no","gps_code":"EKSK"},"geometry":{"type":"Point","coordinates":[8.975841,56.557277]}},{"id":"44021","type":"Feature","properties":{"ident":"EKSC","type":"heliport","name":"Skjold Helideck","continent":"EU","iso_country":"DK","iso_region":"DK-XX","scheduled_service":"no","gps_code":"EKSC"},"geometry":{"type":"Point","coordinates":[4.906667,55.531593]}},{"id":"2555","type":"Feature","properties":{"ident":"EKSP","type":"medium_airport","name":"Skrydstrup Air Base","elevation_ft":"141","continent":"EU","iso_country":"DK","iso_region":"DK-83","municipality":"Vojens","scheduled_service":"no","icao_code":"EKSP","iata_code":"SKS","gps_code":"EKSP","wikipedia_link":"https://en.wikipedia.org/wiki/Fighter_Wing_Skrydstrup"},"geometry":{"type":"Point","coordinates":[9.26702,55.221048]}},{"id":"326894","type":"Feature","properties":{"ident":"DK-0034","type":"small_airport","name":"Slagelse Private Airstrip","elevation_ft":"33","continent":"EU","iso_country":"DK","iso_region":"DK-85","municipality":"Slagelse","scheduled_service":"no"},"geometry":{"type":"Point","coordinates":[11.309601,55.359919]}},{"id":"315603","type":"Feature","properties":{"ident":"EKSL","type":"small_airport","name":"Slaglille Airfield","elevation_ft":"115","continent":"EU","iso_country":"DK","iso_region":"DK-85","municipality":"Fjenneslev","scheduled_service":"no","gps_code":"EKSL","keywords":"Midtsjællands Svæveflyveklub, Slaglille Flyveplads, Slaglille Svæveflyvecenter"},"geometry":{"type":"Point","coordinates":[11.643544,55.452619]}},{"id":"347612","type":"Feature","properties":{"ident":"DK-0046","type":"small_airport","name":"Solbjerg Airfield","continent":"EU","iso_country":"DK","iso_region":"DK-82","municipality":"Solbjerg","scheduled_service":"no","keywords":"Solbjerg Flyveplads"},"geometry":{"type":"Point","coordinates":[10.081105,56.057195]}},{"id":"44022","type":"Feature","properties":{"ident":"EKAR","type":"heliport","name":"South (Syd) Arne Helideck","continent":"EU","iso_country":"DK","iso_region":"DK-XX","municipality":"North Sea","scheduled_service":"no","icao_code":"EKAR","gps_code":"EKAR"},"geometry":{"type":"Point","coordinates":[4.230389,56.08028]}},{"id":"29246","type":"Feature","properties":{"ident":"EKSD","type":"small_airport","name":"Spjald Airfield","elevation_ft":"249","continent":"EU","iso_country":"DK","iso_region":"DK-82","municipality":"Spjald","scheduled_service":"no","gps_code":"EKSD"},"geometry":{"type":"Point","coordinates":[8.51423,56.102699]}},{"id":"2561","type":"Feature","properties":{"ident":"EKVJ","type":"medium_airport","name":"Stauning Vestjylland  Airport","elevation_ft":"17","continent":"EU","iso_country":"DK","iso_region":"DK-82","municipality":"Skjern","scheduled_service":"no","icao_code":"EKVJ","iata_code":"STA","gps_code":"EKVJ","wikipedia_link":"https://en.wikipedia.org/wiki/Stauning_Vestjylland_Airport","keywords":"Ringkøbing"},"geometry":{"type":"Point","coordinates":[8.35391,55.990101]}},{"id":"321088","type":"Feature","properties":{"ident":"DK-0029","type":"small_airport","name":"Sulkendrup Airstrip","continent":"EU","iso_country":"DK","iso_region":"DK-83","municipality":"Nyborg","scheduled_service":"no"},"geometry":{"type":"Point","coordinates":[10.714227,55.283692]}},{"id":"602261","type":"Feature","properties":{"ident":"EKAN","type":"heliport","name":"Syd Arne Nord Helideck","continent":"EU","iso_country":"DK","iso_region":"DK-XX","municipality":"North Sea","scheduled_service":"no","icao_code":"EKAN","gps_code":"EKAN"},"geometry":{"type":"Point","coordinates":[4.219167,56.095833]}},{"id":"29248","type":"Feature","properties":{"ident":"EKST","type":"small_airport","name":"Sydfyn (Tasinge) Airfield","elevation_ft":"7","continent":"EU","iso_country":"DK","iso_region":"DK-83","municipality":"Svendborg","scheduled_service":"yes","gps_code":"EKST","wikipedia_link":"https://da.wikipedia.org/wiki/Sydfyns_Flyveplads"},"geometry":{"type":"Point","coordinates":[10.5633,55.016602]}},{"id":"29245","type":"Feature","properties":{"ident":"EKSA","type":"small_airport","name":"Sæby (Ottestrup) Airfield","elevation_ft":"110","continent":"EU","iso_country":"DK","iso_region":"DK-81","municipality":"Sæby","scheduled_service":"no","gps_code":"EKSA","keywords":"Saeby"},"geometry":{"type":"Point","coordinates":[10.407,57.346699]}},{"id":"320939","type":"Feature","properties":{"ident":"DK-0016","type":"small_airport","name":"Sølager Airfiield","continent":"EU","iso_country":"DK","iso_region":"DK-84","municipality":"Kulhuse","scheduled_service":"no"},"geometry":{"type":"Point","coordinates":[11.925052,55.949956]}},{"id":"320968","type":"Feature","properties":{"ident":"DK-0026","type":"small_airport","name":"Sønder Felding Airfield","continent":"EU","iso_country":"DK","iso_region":"DK-82","municipality":"Sønder Felding","scheduled_service":"no"},"geometry":{"type":"Point","coordinates":[8.743333,55.946667]}},{"id":"2553","type":"Feature","properties":{"ident":"EKSB","type":"medium_airport","name":"Sønderborg Airport","elevation_ft":"24","continent":"EU","iso_country":"DK","iso_region":"DK-83","municipality":"Sønderborg","scheduled_service":"yes","icao_code":"EKSB","iata_code":"SGD","gps_code":"EKSB","wikipedia_link":"https://en.wikipedia.org/wiki/S%C3%B8nderborg_Airport","keywords":"Sonderborg, Soenderborg"},"geometry":{"type":"Point","coordinates":[9.79173,54.964401]}},{"id":"2557","type":"Feature","properties":{"ident":"EKTS","type":"medium_airport","name":"Thisted Airport","elevation_ft":"23","continent":"EU","iso_country":"DK","iso_region":"DK-81","municipality":"Thisted","scheduled_service":"no","icao_code":"EKTS","iata_code":"TED","gps_code":"EKTS","wikipedia_link":"https://en.wikipedia.org/wiki/Thisted_Airport"},"geometry":{"type":"Point","coordinates":[8.70522,57.068802]}},{"id":"549729","type":"Feature","properties":{"ident":"EKTH","type":"heliport","name":"Thisted HEMS Heliport","elevation_ft":"100","continent":"EU","iso_country":"DK","iso_region":"DK-82","municipality":"Thisted","scheduled_service":"no","gps_code":"EKTH"},"geometry":{"type":"Point","coordinates":[8.705807,56.964866]}},{"id":"319130","type":"Feature","properties":{"ident":"DK-0010","type":"small_airport","name":"True Gliderfield","continent":"EU","iso_country":"DK","iso_region":"DK-82","municipality":"Tilst","scheduled_service":"no","home_link":"http://www.aasvk.dk/","wikipedia_link":"https://da.wikipedia.org/wiki/True_Sv%C3%A6veflyveplads","keywords":"Aarhus Svæveflyveklub"},"geometry":{"type":"Point","coordinates":[10.076621,56.178925]}},{"id":"340595","type":"Feature","properties":{"ident":"DK-0040","type":"small_airport","name":"Tunø Airstrip","continent":"EU","iso_country":"DK","iso_region":"DK-82","municipality":"Odder","scheduled_service":"no"},"geometry":{"type":"Point","coordinates":[10.409408,55.956832]}},{"id":"44023","type":"Feature","properties":{"ident":"EKTE","type":"heliport","name":"Tyra E Helideck","continent":"EU","iso_country":"DK","iso_region":"DK-XX","scheduled_service":"no","gps_code":"EKTE"},"geometry":{"type":"Point","coordinates":[4.802056,55.721523]}},{"id":"44024","type":"Feature","properties":{"ident":"EKTW","type":"heliport","name":"Tyra W Helideck","continent":"EU","iso_country":"DK","iso_region":"DK-XX","scheduled_service":"no","gps_code":"EKTW"},"geometry":{"type":"Point","coordinates":[4.750306,55.71653]}},{"id":"316824","type":"Feature","properties":{"ident":"DK-0003","type":"small_airport","name":"Tølløse Flying Club Glider Field","continent":"EU","iso_country":"DK","iso_region":"DK-85","municipality":"Tølløse","scheduled_service":"no","gps_code":"EKTO","home_link":"http://www.cumulus.dk/","keywords":"Sjaellands Svaeveflyvecentrum"},"geometry":{"type":"Point","coordinates":[11.759105,55.581644]}},{"id":"29249","type":"Feature","properties":{"ident":"EKTD","type":"small_airport","name":"Tønder Airfield","elevation_ft":"1","continent":"EU","iso_country":"DK","iso_region":"DK-83","municipality":"Tønder","scheduled_service":"no","gps_code":"EKTD","wikipedia_link":"https://da.wikipedia.org/wiki/T%C3%B8nder_Flyveplads","keywords":"Tonder, Toender"},"geometry":{"type":"Point","coordinates":[8.84057,54.929699]}},{"id":"321002","type":"Feature","properties":{"ident":"DK-0028","type":"small_airport","name":"Varde Airfield","continent":"EU","iso_country":"DK","iso_region":"DK-83","municipality":"Varde","scheduled_service":"no","gps_code":"EKVA"},"geometry":{"type":"Point","coordinates":[8.440278,55.607778]}},{"id":"322702","type":"Feature","properties":{"ident":"DK-0032","type":"small_airport","name":"Vejrø Airfield","elevation_ft":"1","continent":"EU","iso_country":"DK","iso_region":"DK-85","municipality":"Lolland","scheduled_service":"no","gps_code":"EKVO","home_link":"http://www.vejroe.dk/flyveplads.aspx","keywords":"Vejrø Flyveplads"},"geometry":{"type":"Point","coordinates":[11.347842,55.025703]}},{"id":"348502","type":"Feature","properties":{"ident":"DK-0048","type":"small_airport","name":"Vester Åby Private Airstrip","continent":"EU","iso_country":"DK","iso_region":"DK-83","municipality":"Faaborg","scheduled_service":"no"},"geometry":{"type":"Point","coordinates":[10.368004,55.092503]}},{"id":"2560","type":"Feature","properties":{"ident":"EKVH","type":"small_airport","name":"Vesthimmerland Airfield","elevation_ft":"119","continent":"EU","iso_country":"DK","iso_region":"DK-81","municipality":"Aars","scheduled_service":"no","gps_code":"EKVH","wikipedia_link":"https://en.wikipedia.org/wiki/Vesthimmerland_Airfield","keywords":"Vesthimmerlands Flyveplads, Hornum, Års"},"geometry":{"type":"Point","coordinates":[9.460602,56.846613]}},{"id":"341523","type":"Feature","properties":{"ident":"DK-0041","type":"heliport","name":"Vestre Fjordpark Heliport","continent":"EU","iso_country":"DK","iso_region":"DK-81","municipality":"Aalborg","scheduled_service":"no"},"geometry":{"type":"Point","coordinates":[9.88779,57.05865]}},{"id":"29251","type":"Feature","properties":{"ident":"EKVB","type":"small_airport","name":"Viborg Airfield","elevation_ft":"75","continent":"EU","iso_country":"DK","iso_region":"DK-82","municipality":"Viborg","scheduled_service":"no","gps_code":"EKVB","wikipedia_link":"https://da.wikipedia.org/wiki/Viborg_Flyveplads"},"geometry":{"type":"Point","coordinates":[9.409277,56.409992]}},{"id":"317884","type":"Feature","properties":{"ident":"EKFS","type":"small_airport","name":"Vøjstrup Glider Field","continent":"EU","iso_country":"DK","iso_region":"DK-82","municipality":"Broby","scheduled_service":"no","gps_code":"EKFS","keywords":"Broby, Vøjstrup"},"geometry":{"type":"Point","coordinates":[10.201228,55.247766]}},{"id":"29647","type":"Feature","properties":{"ident":"EKAE","type":"small_airport","name":"Ærø Airfield","elevation_ft":"3","continent":"EU","iso_country":"DK","iso_region":"DK-83","municipality":"Marstal","scheduled_service":"yes","icao_code":"EKAE","gps_code":"EKAE","wikipedia_link":"https://en.wikipedia.org/wiki/%C3%86r%C3%B8_Airport","keywords":"Aero, Aeroe"},"geometry":{"type":"Point","coordinates":[10.4564,54.852798]}},{"id":"602262","type":"Feature","properties":{"ident":"EKAO","type":"heliport","name":"Ærø Heliport","elevation_ft":"50","continent":"EU","iso_country":"DK","iso_region":"DK-83","municipality":"Ærøskøbing","scheduled_service":"no","icao_code":"EKAO","gps_code":"EKAO"},"geometry":{"type":"Point","coordinates":[10.398566,54.89068]}},{"id":"331410","type":"Feature","properties":{"ident":"DK-0035","type":"small_airport","name":"Ølgod / Vallund Airfield","elevation_ft":"130","continent":"EU","iso_country":"DK","iso_region":"DK-83","municipality":"Ølgod","scheduled_service":"no","keywords":"Ølgod / Vallund Flyveplads"},"geometry":{"type":"Point","coordinates":[8.552873,55.833411]}}]}