{"type":"FeatureCollection","features":[{"id":"512193","type":"Feature","properties":{"ident":"SEAC","type":"small_airport","name":"Acado Airport","elevation_ft":"1102","continent":"SA","iso_country":"EC","iso_region":"EC-Y","municipality":"Acado","scheduled_service":"no","gps_code":"SEAC","keywords":"Tono Akoro"},"geometry":{"type":"Point","coordinates":[-77.19885,-1.397507]}},{"id":"324028","type":"Feature","properties":{"ident":"EC-0026","type":"small_airport","name":"Achuar Airstrip","elevation_ft":"1450","continent":"SA","iso_country":"EC","iso_region":"EC-Y","municipality":"Achuar","scheduled_service":"no","gps_code":"SEAT","keywords":"Cotosaz"},"geometry":{"type":"Point","coordinates":[-77.468825,-2.023662]}},{"id":"512199","type":"Feature","properties":{"ident":"SEAH","type":"small_airport","name":"Achuentza Airport","elevation_ft":"902","continent":"SA","iso_country":"EC","iso_region":"EC-S","municipality":"Achuentza","scheduled_service":"no","gps_code":"SEAH"},"geometry":{"type":"Point","coordinates":[-77.761799,-2.833653]}},{"id":"512293","type":"Feature","properties":{"ident":"SEAI","type":"heliport","name":"Adria Heliport","elevation_ft":"98","continent":"SA","iso_country":"EC","iso_region":"EC-M","municipality":"Manta","scheduled_service":"no","gps_code":"SEAI"},"geometry":{"type":"Point","coordinates":[-80.750853,-0.948005]}},{"id":"512597","type":"Feature","properties":{"ident":"SEDB","type":"small_airport","name":"Aerocisne Airport","elevation_ft":"177","continent":"SA","iso_country":"EC","iso_region":"EC-G","municipality":"Guayas","scheduled_service":"no","gps_code":"SEDB"},"geometry":{"type":"Point","coordinates":[-79.492396,-2.551863]}},{"id":"351441","type":"Feature","properties":{"ident":"EC-0039","type":"small_airport","name":"Agro Aereo Jaramillo Airport","elevation_ft":"210","continent":"SA","iso_country":"EC","iso_region":"EC-R","municipality":"Quevedo","scheduled_service":"no","gps_code":"SEJL"},"geometry":{"type":"Point","coordinates":[-79.4445,-0.98762]}},{"id":"512268","type":"Feature","properties":{"ident":"SEIZ","type":"small_airport","name":"Agroazucar Airport","elevation_ft":"151","continent":"SA","iso_country":"EC","iso_region":"EC-F","municipality":"La Troncal","scheduled_service":"no","gps_code":"SEIZ","keywords":"Ingenio Aztra"},"geometry":{"type":"Point","coordinates":[-79.35504,-2.442218]}},{"id":"514256","type":"Feature","properties":{"ident":"SEAO","type":"small_airport","name":"Agromarina Airstrip","elevation_ft":"5","continent":"SA","iso_country":"EC","iso_region":"EC-G","municipality":"Samborondón","scheduled_service":"no","gps_code":"SEAO"},"geometry":{"type":"Point","coordinates":[-80.066835,-2.453185]}},{"id":"512190","type":"Feature","properties":{"ident":"EC-0056","type":"small_airport","name":"Aguayo Airport","elevation_ft":"10","continent":"SA","iso_country":"EC","iso_region":"EC-G","municipality":"Aguayo","scheduled_service":"no","gps_code":"SEAA"},"geometry":{"type":"Point","coordinates":[-80.075941,-2.928941]}},{"id":"2170","type":"Feature","properties":{"ident":"SE01","type":"small_airport","name":"Alba Elena Airport","elevation_ft":"150","continent":"SA","iso_country":"EC","iso_region":"EC-G","municipality":"Bucay","scheduled_service":"no","gps_code":"SEAE","keywords":"SE01, Coronel Marcelino Mariduena"},"geometry":{"type":"Point","coordinates":[-79.280763,-2.173581]}},{"id":"512319","type":"Feature","properties":{"ident":"SEAL","type":"small_airport","name":"Algarrobo Airstrip","elevation_ft":"36","continent":"SA","iso_country":"EC","iso_region":"EC-G","municipality":"Guayaquil","scheduled_service":"no","gps_code":"SEAL"},"geometry":{"type":"Point","coordinates":[-80.019765,-2.288551]}},{"id":"513429","type":"Feature","properties":{"ident":"SEGX","type":"heliport","name":"Alpagro Heliport","elevation_ft":"16","continent":"SA","iso_country":"EC","iso_region":"EC-G","municipality":"Guayas","scheduled_service":"no","gps_code":"SEGX"},"geometry":{"type":"Point","coordinates":[-79.688834,-2.087116]}},{"id":"516151","type":"Feature","properties":{"ident":"SEOC","type":"small_airport","name":"Alto Corrientes Airstrip","elevation_ft":"1048","continent":"SA","iso_country":"EC","iso_region":"EC-Y","municipality":"Alto Corrientes","scheduled_service":"no","gps_code":"SEOC"},"geometry":{"type":"Point","coordinates":[-76.9596,-1.910051]}},{"id":"6070","type":"Feature","properties":{"ident":"SEPS","type":"small_airport","name":"Amable Calle Gutierrez Airport","elevation_ft":"22","continent":"SA","iso_country":"EC","iso_region":"EC-O","municipality":"Pasaje","scheduled_service":"no","gps_code":"SEPS"},"geometry":{"type":"Point","coordinates":[-79.769203,-3.31967]}},{"id":"351438","type":"Feature","properties":{"ident":"EC-0036","type":"small_airport","name":"Ana María Airport","elevation_ft":"236","continent":"SA","iso_country":"EC","iso_region":"EC-R","municipality":"La Esperanza","scheduled_service":"no","gps_code":"SEAN","keywords":"Quevedo"},"geometry":{"type":"Point","coordinates":[-79.4162,-0.96115]}},{"id":"526481","type":"Feature","properties":{"ident":"SETO","type":"small_airport","name":"Andes Aeroclub Airport","elevation_ft":"9760","continent":"SA","iso_country":"EC","iso_region":"EC-P","scheduled_service":"no","gps_code":"SETO"},"geometry":{"type":"Point","coordinates":[-78.222833,0.061667]}},{"id":"323836","type":"Feature","properties":{"ident":"EC-0016","type":"small_airport","name":"Andoas Airstrip","continent":"SA","iso_country":"EC","iso_region":"EC-Y","municipality":"Andoas","scheduled_service":"no"},"geometry":{"type":"Point","coordinates":[-76.660795,-2.568889]}},{"id":"512323","type":"Feature","properties":{"ident":"SEAQ","type":"small_airport","name":"Aquapesca Airstrip","elevation_ft":"49","continent":"SA","iso_country":"EC","iso_region":"EC-25","municipality":"Engunga","scheduled_service":"no","gps_code":"SEAQ","keywords":"Chanduy"},"geometry":{"type":"Point","coordinates":[-80.552155,-2.496764]}},{"id":"41132","type":"Feature","properties":{"ident":"SEAR","type":"small_airport","name":"Arajuno Airport","elevation_ft":"1700","continent":"SA","iso_country":"EC","iso_region":"EC-Y","municipality":"Arajuno","scheduled_service":"no","gps_code":"SEAR"},"geometry":{"type":"Point","coordinates":[-77.685402,-1.23573]}},{"id":"41128","type":"Feature","properties":{"ident":"SEAP","type":"small_airport","name":"Arapicos Airport","elevation_ft":"2920","continent":"SA","iso_country":"EC","iso_region":"EC-S","municipality":"Sangay","scheduled_service":"no","gps_code":"SEAP"},"geometry":{"type":"Point","coordinates":[-77.941399,-1.85762]}},{"id":"512292","type":"Feature","properties":{"ident":"SEAG","type":"heliport","name":"Aringcon S.A. Heliport","elevation_ft":"10","continent":"SA","iso_country":"EC","iso_region":"EC-G","municipality":"Durán","scheduled_service":"no","gps_code":"SEAG"},"geometry":{"type":"Point","coordinates":[-79.847522,-2.164471]}},{"id":"512583","type":"Feature","properties":{"ident":"SEXP","type":"small_airport","name":"Atacapi Airstrip","elevation_ft":"1601","continent":"SA","iso_country":"EC","iso_region":"EC-Y","municipality":"Atacapi","scheduled_service":"no","gps_code":"SEXP"},"geometry":{"type":"Point","coordinates":[-77.621933,-1.353683]}},{"id":"324040","type":"Feature","properties":{"ident":"EC-0034","type":"small_airport","name":"Atatakuinjia Airstrip","elevation_ft":"985","continent":"SA","iso_country":"EC","iso_region":"EC-Y","municipality":"Atatakuinjia","scheduled_service":"no","gps_code":"SEKJ","keywords":"Kapawi Ecolodge"},"geometry":{"type":"Point","coordinates":[-77.047942,-1.649742]}},{"id":"41122","type":"Feature","properties":{"ident":"SE07","type":"heliport","name":"Aviandina Heliport","elevation_ft":"13","continent":"SA","iso_country":"EC","iso_region":"EC-O","municipality":"Machala","scheduled_service":"no","gps_code":"SEXV","keywords":"SE07"},"geometry":{"type":"Point","coordinates":[-79.96167,-3.263056]}},{"id":"41104","type":"Feature","properties":{"ident":"SEAY","type":"small_airport","name":"Ayangue Airport","elevation_ft":"16","continent":"SA","iso_country":"EC","iso_region":"EC-25","municipality":"Ayangue","scheduled_service":"no","gps_code":"SEAY","keywords":"San Pedro"},"geometry":{"type":"Point","coordinates":[-80.745158,-1.977683]}},{"id":"324023","type":"Feature","properties":{"ident":"EC-0021","type":"small_airport","name":"Ayuy Airstrip","continent":"SA","iso_country":"EC","iso_region":"EC-S","municipality":"Ayuy","scheduled_service":"no"},"geometry":{"type":"Point","coordinates":[-77.580241,-2.082567]}},{"id":"41124","type":"Feature","properties":{"ident":"SE13","type":"small_airport","name":"Babahoyo North Airport","elevation_ft":"29","continent":"SA","iso_country":"EC","iso_region":"EC-R","municipality":"Babahoyo","scheduled_service":"no","gps_code":"SE13","local_code":"SE13"},"geometry":{"type":"Point","coordinates":[-79.538048,-1.703353]}},{"id":"512407","type":"Feature","properties":{"ident":"SEBL","type":"small_airport","name":"Balzaura Airstrip","elevation_ft":"751","continent":"SA","iso_country":"EC","iso_region":"EC-Y","municipality":"Balzaura","scheduled_service":"no","gps_code":"SEBL"},"geometry":{"type":"Point","coordinates":[-76.308024,-1.947116]}},{"id":"351443","type":"Feature","properties":{"ident":"EC-0041","type":"small_airport","name":"Banastru Airport","elevation_ft":"20","continent":"SA","iso_country":"EC","iso_region":"EC-G","municipality":"Tres Postes","scheduled_service":"no","gps_code":"SEBS"},"geometry":{"type":"Point","coordinates":[-79.62703,-1.98576]}},{"id":"353415","type":"Feature","properties":{"ident":"EC-0043","type":"small_airport","name":"Barbones - Samuel Quimi Airport","elevation_ft":"20","continent":"SA","iso_country":"EC","iso_region":"EC-O","municipality":"El Guabo","scheduled_service":"no","gps_code":"SESQ"},"geometry":{"type":"Point","coordinates":[-79.86874,-3.18885]}},{"id":"515472","type":"Feature","properties":{"ident":"SELN","type":"heliport","name":"Belén Heliport","elevation_ft":"1140","continent":"SA","iso_country":"EC","iso_region":"EC-26","municipality":"Santo Domingo de los Tsáchilas","scheduled_service":"no","gps_code":"SELN"},"geometry":{"type":"Point","coordinates":[-79.3125,-0.241944]}},{"id":"512412","type":"Feature","properties":{"ident":"SEBP","type":"small_airport","name":"Blanca Piedra Airstrip","elevation_ft":"36","continent":"SA","iso_country":"EC","iso_region":"EC-G","municipality":"Mariscal Sucre","scheduled_service":"no","gps_code":"SEBP"},"geometry":{"type":"Point","coordinates":[-79.469433,-2.103534]}},{"id":"512419","type":"Feature","properties":{"ident":"SEBW","type":"small_airport","name":"Boanamo Airstrip","elevation_ft":"860","continent":"SA","iso_country":"EC","iso_region":"EC-D","municipality":"Boanamo","scheduled_service":"no","gps_code":"SEBW"},"geometry":{"type":"Point","coordinates":[-76.387219,-1.260964]}},{"id":"512411","type":"Feature","properties":{"ident":"SEBO","type":"small_airport","name":"Bototillal Airstrip","elevation_ft":"259","continent":"SA","iso_country":"EC","iso_region":"EC-R","municipality":"Ventanas","scheduled_service":"no","gps_code":"SEBO"},"geometry":{"type":"Point","coordinates":[-79.396144,-1.423874]}},{"id":"512409","type":"Feature","properties":{"ident":"SEBM","type":"small_airport","name":"Brisas del Mar Airstrip.","elevation_ft":"10","continent":"SA","iso_country":"EC","iso_region":"EC-G","municipality":"Isla Puná","scheduled_service":"no","gps_code":"SEBM"},"geometry":{"type":"Point","coordinates":[-80.020884,-2.828381]}},{"id":"512417","type":"Feature","properties":{"ident":"SEBU","type":"small_airport","name":"Bufeo Airstrip","elevation_ft":"1099","continent":"SA","iso_country":"EC","iso_region":"EC-Y","municipality":"Pastaza","scheduled_service":"no","gps_code":"SEBU"},"geometry":{"type":"Point","coordinates":[-76.784617,-2.192174]}},{"id":"512538","type":"Feature","properties":{"ident":"SECD","type":"small_airport","name":"Calademar Airport","elevation_ft":"10","continent":"SA","iso_country":"EC","iso_region":"EC-G","municipality":"Los Lojas","scheduled_service":"no","gps_code":"SECD"},"geometry":{"type":"Point","coordinates":[-79.964156,-2.584669]}},{"id":"512532","type":"Feature","properties":{"ident":"SECI","type":"small_airport","name":"Calica Airstrip","elevation_ft":"13","continent":"SA","iso_country":"EC","iso_region":"EC-G","municipality":"Los Lojas","scheduled_service":"no","gps_code":"SECI"},"geometry":{"type":"Point","coordinates":[-80.13594,-2.516987]}},{"id":"513420","type":"Feature","properties":{"ident":"SEGO","type":"small_airport","name":"Camacongo Airport","elevation_ft":"30","continent":"SA","iso_country":"EC","iso_region":"EC-G","municipality":"Naranjal","scheduled_service":"no","gps_code":"SEGO"},"geometry":{"type":"Point","coordinates":[-79.767049,-2.770718]}},{"id":"512239","type":"Feature","properties":{"ident":"SECY","type":"small_airport","name":"Camaguay Airport","elevation_ft":"13","continent":"SA","iso_country":"EC","iso_region":"EC-G","municipality":"Camaguay","scheduled_service":"no","gps_code":"SECY"},"geometry":{"type":"Point","coordinates":[-80.137167,-2.534167]}},{"id":"41101","type":"Feature","properties":{"ident":"SE12","type":"heliport","name":"Canal Uno Heliport","elevation_ft":"12","continent":"SA","iso_country":"EC","iso_region":"EC-G","municipality":"Guayaquil","scheduled_service":"no","gps_code":"SEUO","keywords":"SE12"},"geometry":{"type":"Point","coordinates":[-79.896942,-2.165556]}},{"id":"324027","type":"Feature","properties":{"ident":"EC-0025","type":"small_airport","name":"Capauari Airstrip","elevation_ft":"1093","continent":"SA","iso_country":"EC","iso_region":"EC-Y","municipality":"Capauari","scheduled_service":"no","gps_code":"SEPH","keywords":"Capahuari"},"geometry":{"type":"Point","coordinates":[-77.173335,-2.070324]}},{"id":"41595","type":"Feature","properties":{"ident":"EC-0001","type":"small_airport","name":"Carabon Airport","elevation_ft":"126","continent":"SA","iso_country":"EC","iso_region":"EC-O","municipality":"Carabon","scheduled_service":"no"},"geometry":{"type":"Point","coordinates":[-80.187798,-3.62855]}},{"id":"6084","type":"Feature","properties":{"ident":"SETN","type":"medium_airport","name":"Carlos Concha Torres International Airport","elevation_ft":"32","continent":"SA","iso_country":"EC","iso_region":"EC-E","municipality":"Tachina","scheduled_service":"yes","icao_code":"SETN","iata_code":"ESM","gps_code":"SETN","wikipedia_link":"https://en.wikipedia.org/wiki/Colonel_Carlos_Concha_Torres_Airport","keywords":"General Rivadeneira"},"geometry":{"type":"Point","coordinates":[-79.626602,0.978519]}},{"id":"554108","type":"Feature","properties":{"ident":"SEXM","type":"small_airport","name":"Carmita Airport","elevation_ft":"79","continent":"SA","iso_country":"EC","iso_region":"EC-G","municipality":"Balao","scheduled_service":"no","gps_code":"SEXM"},"geometry":{"type":"Point","coordinates":[-79.743474,-2.883111]}},{"id":"525310","type":"Feature","properties":{"ident":"SEVS","type":"small_airport","name":"Casa Vinces Airport","elevation_ft":"151","continent":"SA","iso_country":"EC","iso_region":"EC-R","scheduled_service":"no","gps_code":"SEVS"},"geometry":{"type":"Point","coordinates":[-79.560124,-1.30789]}},{"id":"2177","type":"Feature","properties":{"ident":"SE22","type":"small_airport","name":"Celia María Airport","elevation_ft":"112","continent":"SA","iso_country":"EC","iso_region":"EC-O","municipality":"Pasaje","scheduled_service":"no","gps_code":"SEEL","keywords":"SE22"},"geometry":{"type":"Point","coordinates":[-79.80118,-3.27905]}},{"id":"516372","type":"Feature","properties":{"ident":"SEPA","type":"small_airport","name":"Centro Paatin Airstrip","elevation_ft":"1898","continent":"SA","iso_country":"EC","iso_region":"EC-S","municipality":"Morona Santiago","scheduled_service":"no","gps_code":"SEPA"},"geometry":{"type":"Point","coordinates":[-77.712845,-2.247454]}},{"id":"512238","type":"Feature","properties":{"ident":"SECZ","type":"small_airport","name":"Cerro Azul Airport","elevation_ft":"1772","continent":"SA","iso_country":"EC","iso_region":"EC-G","municipality":"Cerro Azul","scheduled_service":"no","gps_code":"SECZ"},"geometry":{"type":"Point","coordinates":[-80.049993,-2.205134]}},{"id":"6051","type":"Feature","properties":{"ident":"SEAM","type":"medium_airport","name":"Chachoán Regional Airport","elevation_ft":"8502","continent":"SA","iso_country":"EC","iso_region":"EC-T","municipality":"Ambato","scheduled_service":"no","icao_code":"SEAM","iata_code":"ATF","gps_code":"SEAM","wikipedia_link":"https://en.wikipedia.org/wiki/Chachoan_Airport","keywords":"Chachoan, Izamba"},"geometry":{"type":"Point","coordinates":[-78.5746,-1.21207]}},{"id":"512534","type":"Feature","properties":{"ident":"SECK","type":"small_airport","name":"Chankuap Airstrip","elevation_ft":"1499","continent":"SA","iso_country":"EC","iso_region":"EC-S","municipality":"Morona Santiago","scheduled_service":"no","gps_code":"SECK"},"geometry":{"type":"Point","coordinates":[-77.459008,-2.240933]}},{"id":"512328","type":"Feature","properties":{"ident":"SEAU","type":"small_airport","name":"Chau Airstrip","elevation_ft":"997","continent":"SA","iso_country":"EC","iso_region":"EC-S","municipality":"Morona Santiago","scheduled_service":"no","gps_code":"SEAU"},"geometry":{"type":"Point","coordinates":[-77.771768,-2.823807]}},{"id":"323835","type":"Feature","properties":{"ident":"EC-0015","type":"small_airport","name":"Chichirata Airstrip","elevation_ft":"844","continent":"SA","iso_country":"EC","iso_region":"EC-Y","municipality":"Chichirata","scheduled_service":"no","gps_code":"SEHT"},"geometry":{"type":"Point","coordinates":[-76.656656,-2.38364]}},{"id":"6074","type":"Feature","properties":{"ident":"SERB","type":"small_airport","name":"Chimborazo Airport","elevation_ft":"9151","continent":"SA","iso_country":"EC","iso_region":"EC-H","municipality":"Riobamba","scheduled_service":"no","gps_code":"SERB","wikipedia_link":"https://en.wikipedia.org/wiki/Chimborazo_Airport"},"geometry":{"type":"Point","coordinates":[-78.656342,-1.653324]}},{"id":"41116","type":"Feature","properties":{"ident":"SECH","type":"small_airport","name":"Chone Airport","elevation_ft":"51","continent":"SA","iso_country":"EC","iso_region":"EC-M","municipality":"Chone","scheduled_service":"no","gps_code":"SECH"},"geometry":{"type":"Point","coordinates":[-80.0886,-0.695101]}},{"id":"512526","type":"Feature","properties":{"ident":"SECG","type":"small_airport","name":"Chongón Airstrip","elevation_ft":"36","continent":"SA","iso_country":"EC","iso_region":"EC-G","municipality":"Chongón","scheduled_service":"no","gps_code":"SECG"},"geometry":{"type":"Point","coordinates":[-80.054455,-2.230291]}},{"id":"513768","type":"Feature","properties":{"ident":"SEHU","type":"small_airport","name":"Chuindia Airstrip","elevation_ft":"752","continent":"SA","iso_country":"EC","iso_region":"EC-Y","municipality":"Chuindia","scheduled_service":"no","gps_code":"SEHU","keywords":"Shuntza"},"geometry":{"type":"Point","coordinates":[-76.681475,-2.014083]}},{"id":"513431","type":"Feature","properties":{"ident":"SEHB","type":"small_airport","name":"Chumbi Airstrip","elevation_ft":"1404","continent":"SA","iso_country":"EC","iso_region":"EC-P","municipality":"Chumbi","scheduled_service":"no","gps_code":"SEHB"},"geometry":{"type":"Point","coordinates":[-77.477692,-2.09847]}},{"id":"6083","type":"Feature","properties":{"ident":"SETM","type":"small_airport","name":"Ciudad de Catamayo Airport","elevation_ft":"4056","continent":"SA","iso_country":"EC","iso_region":"EC-L","municipality":"La Toma (Catamayo)","scheduled_service":"yes","iata_code":"LOH","gps_code":"SECA","wikipedia_link":"https://en.wikipedia.org/wiki/Ciudad_de_Catamayo_Airport","keywords":"SETM, Camilo Ponce Enriquez"},"geometry":{"type":"Point","coordinates":[-79.371902,-3.995606]}},{"id":"513424","type":"Feature","properties":{"ident":"SEGQ","type":"heliport","name":"Clínica Guayaquil Helipad","elevation_ft":"72","continent":"SA","iso_country":"EC","iso_region":"EC-G","municipality":"Guayaquil","scheduled_service":"no","gps_code":"SEGQ"},"geometry":{"type":"Point","coordinates":[-79.880227,-2.185295]}},{"id":"41117","type":"Feature","properties":{"ident":"SECQ","type":"small_airport","name":"Coaque Airport","elevation_ft":"131","continent":"SA","iso_country":"EC","iso_region":"EC-M","municipality":"Coaque","scheduled_service":"no","gps_code":"SECQ"},"geometry":{"type":"Point","coordinates":[-80.091923,0.016175]}},{"id":"512676","type":"Feature","properties":{"ident":"SEDO","type":"small_airport","name":"Colas de Oro Airport","elevation_ft":"3","continent":"SA","iso_country":"EC","iso_region":"EC-G","municipality":"Isla Puná","scheduled_service":"no","gps_code":"SEDO"},"geometry":{"type":"Point","coordinates":[-80.061409,-2.698472]}},{"id":"517464","type":"Feature","properties":{"ident":"SEON","type":"small_airport","name":"Conambo Airport","elevation_ft":"785","continent":"SA","iso_country":"EC","iso_region":"EC-Y","municipality":"Conambo","scheduled_service":"no","gps_code":"SEON"},"geometry":{"type":"Point","coordinates":[-76.877802,-1.871397]}},{"id":"324039","type":"Feature","properties":{"ident":"EC-0033","type":"small_airport","name":"Cononaco Bameno Airstrip","elevation_ft":"840","continent":"SA","iso_country":"EC","iso_region":"EC-Y","municipality":"Cononaco Bameno","scheduled_service":"no","gps_code":"SECB","keywords":"Cabaña Yasuni"},"geometry":{"type":"Point","coordinates":[-76.154546,-1.298779]}},{"id":"324024","type":"Feature","properties":{"ident":"EC-0022","type":"small_airport","name":"Copataza Airstrip","elevation_ft":"1350","continent":"SA","iso_country":"EC","iso_region":"EC-Y","municipality":"Copataza","scheduled_service":"no","gps_code":"SEOZ"},"geometry":{"type":"Point","coordinates":[-77.446868,-2.090779]}},{"id":"6063","type":"Feature","properties":{"ident":"SEMC","type":"medium_airport","name":"Coronel E Carvajal Airport","elevation_ft":"3452","continent":"SA","iso_country":"EC","iso_region":"EC-S","municipality":"Macas","scheduled_service":"yes","icao_code":"SEMC","iata_code":"XMS","gps_code":"SEMC","wikipedia_link":"https://en.wikipedia.org/wiki/Macas_Airport"},"geometry":{"type":"Point","coordinates":[-78.120796,-2.29917]}},{"id":"512337","type":"Feature","properties":{"ident":"SEAZ","type":"small_airport","name":"Costa Azul Airstrip","elevation_ft":"79","continent":"SA","iso_country":"EC","iso_region":"EC-R","municipality":"Valencia","scheduled_service":"no","gps_code":"SEAZ"},"geometry":{"type":"Point","coordinates":[-79.327704,-0.873078]}},{"id":"6061","type":"Feature","properties":{"ident":"SELT","type":"medium_airport","name":"Cotopaxi International Airport","elevation_ft":"9205","continent":"SA","iso_country":"EC","iso_region":"EC-X","municipality":"Latacunga","scheduled_service":"yes","iata_code":"LTX","gps_code":"SELT","wikipedia_link":"https://en.wikipedia.org/wiki/Cotopaxi_International_Airport","keywords":"Latacunga, Vulcano, Ecuador, Cargo, Long runway, Height"},"geometry":{"type":"Point","coordinates":[-78.615799,-0.906833]}},{"id":"512272","type":"Feature","properties":{"ident":"SERS","type":"small_airport","name":"Cristal Airport","elevation_ft":"120","continent":"SA","iso_country":"EC","iso_region":"EC-R","municipality":"Cotopaxi","scheduled_service":"no","gps_code":"SERS"},"geometry":{"type":"Point","coordinates":[-79.358836,-0.999248]}},{"id":"517378","type":"Feature","properties":{"ident":"SEUC","type":"small_airport","name":"Cuchintza Airstrip","elevation_ft":"833","continent":"SA","iso_country":"EC","iso_region":"EC-S","municipality":"Chumbela","scheduled_service":"no","gps_code":"SEUC","keywords":"Kuchintza"},"geometry":{"type":"Point","coordinates":[-77.116389,-2.603056]}},{"id":"512426","type":"Feature","properties":{"ident":"SEBZ","type":"small_airport","name":"Cumbaratza Airport","elevation_ft":"2871","continent":"SA","iso_country":"EC","iso_region":"EC-Z","municipality":"Cumbaratza","scheduled_service":"no","gps_code":"SEBZ"},"geometry":{"type":"Point","coordinates":[-78.887293,-4.018793]}},{"id":"41133","type":"Feature","properties":{"ident":"SECR","type":"small_airport","name":"Curaray Airport","elevation_ft":"832","continent":"SA","iso_country":"EC","iso_region":"EC-Y","municipality":"Curacay","scheduled_service":"no","gps_code":"SECR"},"geometry":{"type":"Point","coordinates":[-76.938944,-1.384465]}},{"id":"513558","type":"Feature","properties":{"ident":"SEUZ","type":"small_airport","name":"Curintza Airstrip","elevation_ft":"965","continent":"SA","iso_country":"EC","iso_region":"EC-Y","municipality":"Kurintza","scheduled_service":"no","gps_code":"SEUZ"},"geometry":{"type":"Point","coordinates":[-76.794788,-2.068437]}},{"id":"512434","type":"Feature","properties":{"ident":"SEYH","type":"small_airport","name":"Cuyacocha Airstrip","elevation_ft":"899","continent":"SA","iso_country":"EC","iso_region":"EC-T","municipality":"Cuyacocha","scheduled_service":"no","gps_code":"SEYH"},"geometry":{"type":"Point","coordinates":[-76.942377,-1.615763]}},{"id":"512674","type":"Feature","properties":{"ident":"SEDM","type":"small_airport","name":"Damointaro Airstrip","elevation_ft":"1099","continent":"SA","iso_country":"EC","iso_region":"EC-Y","municipality":"Damointaro","scheduled_service":"no","gps_code":"SEDM"},"geometry":{"type":"Point","coordinates":[-77.319722,-1.294722]}},{"id":"512680","type":"Feature","properties":{"ident":"SEDS","type":"small_airport","name":"Darsacom Airstrip","elevation_ft":"13","continent":"SA","iso_country":"EC","iso_region":"EC-G","municipality":"Isla Puná","scheduled_service":"no","gps_code":"SEDS"},"geometry":{"type":"Point","coordinates":[-80.13474,-2.723363]}},{"id":"512671","type":"Feature","properties":{"ident":"SEDF","type":"small_airport","name":"Delfines Airstrip","elevation_ft":"52","continent":"SA","iso_country":"EC","iso_region":"EC-G","municipality":"El Morro","scheduled_service":"no","gps_code":"SEDF"},"geometry":{"type":"Point","coordinates":[-80.291019,-2.58906]}},{"id":"512672","type":"Feature","properties":{"ident":"SEDL","type":"heliport","name":"Delipesca Heliport","elevation_ft":"52","continent":"SA","iso_country":"EC","iso_region":"EC-M","municipality":"Manta","scheduled_service":"no","gps_code":"SEDL"},"geometry":{"type":"Point","coordinates":[-80.664091,-0.929935]}},{"id":"505100","type":"Feature","properties":{"ident":"EC-0054","type":"heliport","name":"DGAC Heliport","elevation_ft":"10010","continent":"SA","iso_country":"EC","iso_region":"EC-P","municipality":"Quito","scheduled_service":"no","keywords":"Dirección General de Aviación Civil"},"geometry":{"type":"Point","coordinates":[-78.47779,-0.23626]}},{"id":"512595","type":"Feature","properties":{"ident":"SEDA","type":"small_airport","name":"Dualar Airstrip","elevation_ft":"3","continent":"SA","iso_country":"EC","iso_region":"EC-G","municipality":"El Consuelo","scheduled_service":"no","gps_code":"SEDA"},"geometry":{"type":"Point","coordinates":[-80.162387,-2.361448]}},{"id":"512415","type":"Feature","properties":{"ident":"SEBT","type":"small_airport","name":"El Batán Airport","elevation_ft":"26","continent":"SA","iso_country":"EC","iso_region":"EC-G","municipality":"Samborondón","scheduled_service":"no","gps_code":"SEBT"},"geometry":{"type":"Point","coordinates":[-79.880885,-2.094038]}},{"id":"6065","type":"Feature","properties":{"ident":"SEMO","type":"small_airport","name":"El Carmen Airport","elevation_ft":"960","continent":"SA","iso_country":"EC","iso_region":"EC-Y","municipality":"Montalvo","scheduled_service":"no","gps_code":"SEMO","wikipedia_link":"https://en.wikipedia.org/wiki/El_Carmen_Airport"},"geometry":{"type":"Point","coordinates":[-76.9757,-2.06701]}},{"id":"351440","type":"Feature","properties":{"ident":"EC-0038","type":"small_airport","name":"El Guayabo Airport","elevation_ft":"207","continent":"SA","iso_country":"EC","iso_region":"EC-R","municipality":"Quevedo","scheduled_service":"no","gps_code":"SEEG"},"geometry":{"type":"Point","coordinates":[-79.43663,-0.98999]}},{"id":"512914","type":"Feature","properties":{"ident":"SEEO","type":"small_airport","name":"El Morro Airstrip","elevation_ft":"59","continent":"SA","iso_country":"EC","iso_region":"EC-G","municipality":"El Morro","scheduled_service":"no","gps_code":"SEEO"},"geometry":{"type":"Point","coordinates":[-80.350049,-2.643455]}},{"id":"512269","type":"Feature","properties":{"ident":"SEEP","type":"small_airport","name":"El Piedrero Airport","elevation_ft":"220","continent":"SA","iso_country":"EC","iso_region":"EC-F","municipality":"San Pedro","scheduled_service":"no","gps_code":"SEEP"},"geometry":{"type":"Point","coordinates":[-79.279642,-2.341612]}},{"id":"6066","type":"Feature","properties":{"ident":"SEMT","type":"medium_airport","name":"Eloy Alfaro International Airport","elevation_ft":"48","continent":"SA","iso_country":"EC","iso_region":"EC-M","municipality":"Manta","scheduled_service":"yes","icao_code":"SEMT","iata_code":"MEC","gps_code":"SEMT","wikipedia_link":"https://en.wikipedia.org/wiki/Manta_Air_Base"},"geometry":{"type":"Point","coordinates":[-80.678802,-0.946078]}},{"id":"512910","type":"Feature","properties":{"ident":"SEEM","type":"heliport","name":"Emsecor Heliport","elevation_ft":"8000","continent":"SA","iso_country":"EC","iso_region":"EC-P","municipality":"Tumbaco","scheduled_service":"no","gps_code":"SEEM"},"geometry":{"type":"Point","coordinates":[-78.377947,-0.222535]}},{"id":"512919","type":"Feature","properties":{"ident":"SEES","type":"heliport","name":"Endesa Heliport","elevation_ft":"9400","continent":"SA","iso_country":"EC","iso_region":"EC-P","municipality":"Quito","scheduled_service":"no","gps_code":"SEES"},"geometry":{"type":"Point","coordinates":[-78.540891,-0.288714]}},{"id":"351442","type":"Feature","properties":{"ident":"EC-0040","type":"small_airport","name":"Esterito Airport","elevation_ft":"420","continent":"SA","iso_country":"EC","iso_region":"EC-R","municipality":"Valencia","scheduled_service":"no","gps_code":"SEVL","keywords":"San Pablo"},"geometry":{"type":"Point","coordinates":[-79.31379,-0.94007]}},{"id":"513034","type":"Feature","properties":{"ident":"SEET","type":"small_airport","name":"Etsa Airstrip","elevation_ft":"702","continent":"SA","iso_country":"EC","iso_region":"EC-S","municipality":"Etza","scheduled_service":"no","gps_code":"SEET","keywords":"Vargas Guerra"},"geometry":{"type":"Point","coordinates":[-77.575509,-2.905964]}},{"id":"512874","type":"Feature","properties":{"ident":"SEEF","type":"heliport","name":"Eurofish Manta Heliport","elevation_ft":"354","continent":"SA","iso_country":"EC","iso_region":"EC-M","municipality":"Manta","scheduled_service":"no","gps_code":"SEEF"},"geometry":{"type":"Point","coordinates":[-80.690226,-1.008925]}},{"id":"513037","type":"Feature","properties":{"ident":"SEEX","type":"small_airport","name":"Exportamar Airstrip","elevation_ft":"10","continent":"SA","iso_country":"EC","iso_region":"EC-G","municipality":"Chongón","scheduled_service":"no","gps_code":"SEEX"},"geometry":{"type":"Point","coordinates":[-80.221437,-2.515499]}},{"id":"351444","type":"Feature","properties":{"ident":"EC-0042","type":"heliport","name":"Floreana Heliport","elevation_ft":"138","continent":"SA","iso_country":"EC","iso_region":"EC-W","municipality":"Puerto Velasco Ibarra","scheduled_service":"no"},"geometry":{"type":"Point","coordinates":[-90.48181,-1.27676]}},{"id":"6053","type":"Feature","properties":{"ident":"SECO","type":"medium_airport","name":"Francisco De Orellana Airport","elevation_ft":"834","continent":"SA","iso_country":"EC","iso_region":"EC-D","municipality":"Coca","scheduled_service":"yes","icao_code":"SECO","iata_code":"OCC","gps_code":"SECO","wikipedia_link":"https://en.wikipedia.org/wiki/Francisco_de_Orellana_Airport"},"geometry":{"type":"Point","coordinates":[-76.986801,-0.462886]}},{"id":"513382","type":"Feature","properties":{"ident":"SEFU","type":"small_airport","name":"Fumipalma Airport","elevation_ft":"67","continent":"SA","iso_country":"EC","iso_region":"EC-G","municipality":"Las Mercedes","scheduled_service":"no","gps_code":"SEFU"},"geometry":{"type":"Point","coordinates":[-79.54552,-2.563699]}},{"id":"6076","type":"Feature","properties":{"ident":"SESA","type":"medium_airport","name":"General Ulpiano Paez Airport","elevation_ft":"18","continent":"SA","iso_country":"EC","iso_region":"EC-25","municipality":"Salinas","scheduled_service":"no","icao_code":"SESA","iata_code":"SNC","gps_code":"SESA","wikipedia_link":"https://en.wikipedia.org/wiki/General_Ulpiano_Paez_Airport"},"geometry":{"type":"Point","coordinates":[-80.985067,-2.210057]}},{"id":"41131","type":"Feature","properties":{"ident":"SEII","type":"small_airport","name":"General Villamil Airport","elevation_ft":"35","continent":"SA","iso_country":"EC","iso_region":"EC-W","municipality":"Puerto Villamil","scheduled_service":"yes","icao_code":"SEII","iata_code":"IBB","gps_code":"SEII"},"geometry":{"type":"Point","coordinates":[-90.953003,-0.942628]}},{"id":"2171","type":"Feature","properties":{"ident":"SE02","type":"small_airport","name":"Guabital Airport","elevation_ft":"45","continent":"SA","iso_country":"EC","iso_region":"EC-G","municipality":"Soledad","scheduled_service":"no","gps_code":"SEGB","keywords":"SE02"},"geometry":{"type":"Point","coordinates":[-79.702411,-2.773399]}},{"id":"6057","type":"Feature","properties":{"ident":"SEGZ","type":"small_airport","name":"Gualaquiza Airport","elevation_ft":"2640","continent":"SA","iso_country":"EC","iso_region":"EC-S","municipality":"Santiago","scheduled_service":"no","gps_code":"SEGZ","wikipedia_link":"https://en.wikipedia.org/wiki/Gualaquiza_Airport"},"geometry":{"type":"Point","coordinates":[-78.567001,-3.42321]}},{"id":"41118","type":"Feature","properties":{"ident":"SEGE","type":"small_airport","name":"Guale Airport","elevation_ft":"222","continent":"SA","iso_country":"EC","iso_region":"EC-M","municipality":"Guale","scheduled_service":"no","gps_code":"SEGE"},"geometry":{"type":"Point","coordinates":[-80.233299,-1.61667]}},{"id":"513425","type":"Feature","properties":{"ident":"SEGR","type":"small_airport","name":"Guaraní Airstrip","elevation_ft":"1034","continent":"SA","iso_country":"EC","iso_region":"EC-Y","municipality":"Guaraní","scheduled_service":"no","gps_code":"SEGR"},"geometry":{"type":"Point","coordinates":[-77.240177,-2.235544]}},{"id":"513417","type":"Feature","properties":{"ident":"SEGL","type":"small_airport","name":"Guarumal Airport","elevation_ft":"59","continent":"SA","iso_country":"EC","iso_region":"EC-R","municipality":"Guarumal","scheduled_service":"no","gps_code":"SEGL"},"geometry":{"type":"Point","coordinates":[-79.642868,-1.860214]}},{"id":"517392","type":"Feature","properties":{"ident":"SEUA","type":"small_airport","name":"Guarumo Airport","elevation_ft":"838","continent":"SA","iso_country":"EC","iso_region":"EC-U","municipality":"Lago Agrio","scheduled_service":"no","gps_code":"SEUA","keywords":"Pacayacu"},"geometry":{"type":"Point","coordinates":[-76.568889,-0.050556]}},{"id":"6052","type":"Feature","properties":{"ident":"SECM","type":"small_airport","name":"Hacienda Clementina Airport","elevation_ft":"328","continent":"SA","iso_country":"EC","iso_region":"EC-R","municipality":"Pozuelos","scheduled_service":"no","gps_code":"SECM"},"geometry":{"type":"Point","coordinates":[-79.378899,-1.70627]}},{"id":"513767","type":"Feature","properties":{"ident":"SEGH","type":"small_airport","name":"Hacienda Gran Chaparral Airport","elevation_ft":"622","continent":"SA","iso_country":"EC","iso_region":"EC-G","municipality":"Balzar","scheduled_service":"no","gps_code":"SEGH"},"geometry":{"type":"Point","coordinates":[-79.932926,-1.274146]}},{"id":"513385","type":"Feature","properties":{"ident":"SEFR","type":"small_airport","name":"Hacienda La Fragua Airport","elevation_ft":"16","continent":"SA","iso_country":"EC","iso_region":"EC-G","municipality":"Daule","scheduled_service":"no","gps_code":"SEFR"},"geometry":{"type":"Point","coordinates":[-80.011529,-1.869181]}},{"id":"6060","type":"Feature","properties":{"ident":"SELJ","type":"small_airport","name":"Hacienda La Julia Airport","elevation_ft":"50","continent":"SA","iso_country":"EC","iso_region":"EC-R","municipality":"Julia","scheduled_service":"no","gps_code":"SELJ"},"geometry":{"type":"Point","coordinates":[-79.552299,-1.70438]}},{"id":"513437","type":"Feature","properties":{"ident":"SEHF","type":"heliport","name":"Helidegfer Heliport","elevation_ft":"174","continent":"SA","iso_country":"EC","iso_region":"EC-M","municipality":"Manta","scheduled_service":"no","gps_code":"SEHF"},"geometry":{"type":"Point","coordinates":[-80.651808,-0.973032]}},{"id":"512907","type":"Feature","properties":{"ident":"SEEH","type":"heliport","name":"Heligro Heliport","elevation_ft":"28","continent":"SA","iso_country":"EC","iso_region":"EC-R","municipality":"Los Ríos","scheduled_service":"no","gps_code":"SEEH"},"geometry":{"type":"Point","coordinates":[-79.449722,-1.832222]}},{"id":"351437","type":"Feature","properties":{"ident":"EC-0035","type":"small_airport","name":"Holandesa Airport","elevation_ft":"445","continent":"SA","iso_country":"EC","iso_region":"EC-R","municipality":"Holandesa","scheduled_service":"no"},"geometry":{"type":"Point","coordinates":[-79.46976,-0.72495]}},{"id":"323814","type":"Feature","properties":{"ident":"EC-0013","type":"small_airport","name":"Huito Molino Airstrip","elevation_ft":"1240","continent":"SA","iso_country":"EC","iso_region":"EC-Y","municipality":"Huito Molino","scheduled_service":"no","gps_code":"SEIO"},"geometry":{"type":"Point","coordinates":[-77.321688,-1.828625]}},{"id":"513512","type":"Feature","properties":{"ident":"EC-0060","type":"heliport","name":"IESS Milagro Hospital Heliport","continent":"SA","iso_country":"EC","iso_region":"EC-G","municipality":"Milagro","scheduled_service":"no"},"geometry":{"type":"Point","coordinates":[-79.578722,-2.131837]}},{"id":"512369","type":"Feature","properties":{"ident":"SEZI","type":"small_airport","name":"Imatiño Airstrip","elevation_ft":"714","continent":"SA","iso_country":"EC","iso_region":"EC-Y","municipality":"Imatiño","scheduled_service":"no","gps_code":"SEZI"},"geometry":{"type":"Point","coordinates":[-76.625161,-1.918108]}},{"id":"513514","type":"Feature","properties":{"ident":"SEIV","type":"small_airport","name":"Ingenio Valdez Airport","elevation_ft":"33","continent":"SA","iso_country":"EC","iso_region":"EC-G","municipality":"Milagro","scheduled_service":"no","gps_code":"SEIV"},"geometry":{"type":"Point","coordinates":[-79.599184,-2.111175]}},{"id":"513842","type":"Feature","properties":{"ident":"SEIP","type":"small_airport","name":"Ipiak Airstrip","elevation_ft":"909","continent":"SA","iso_country":"EC","iso_region":"EC-S","municipality":"Ipiak","scheduled_service":"no","gps_code":"SEIP"},"geometry":{"type":"Point","coordinates":[-77.145839,-2.467547]}},{"id":"41105","type":"Feature","properties":{"ident":"SEIS","type":"small_airport","name":"Isabel Maria Airport","elevation_ft":"20","continent":"SA","iso_country":"EC","iso_region":"EC-G","municipality":"América","scheduled_service":"no","gps_code":"SEIS"},"geometry":{"type":"Point","coordinates":[-79.733299,-1.86667]}},{"id":"513777","type":"Feature","properties":{"ident":"SEID","type":"small_airport","name":"Ishpingo de Amuntay Airstrip","elevation_ft":"826","continent":"SA","iso_country":"EC","iso_region":"EC-S","municipality":"Ishpingo de Amuntay","scheduled_service":"no","gps_code":"SEID","keywords":"Amunta"},"geometry":{"type":"Point","coordinates":[-76.756598,-2.566312]}},{"id":"513818","type":"Feature","properties":{"ident":"SEIH","type":"small_airport","name":"Ishpink Airstrip","elevation_ft":"1140","continent":"SA","iso_country":"EC","iso_region":"EC-S","municipality":"Ishpink","scheduled_service":"no","gps_code":"SEIH"},"geometry":{"type":"Point","coordinates":[-77.410011,-2.316061]}},{"id":"512564","type":"Feature","properties":{"ident":"SEXI","type":"small_airport","name":"Itak Airstrip","elevation_ft":"870","continent":"SA","iso_country":"EC","iso_region":"EC-S","municipality":"Itak","scheduled_service":"no","gps_code":"SEXI"},"geometry":{"type":"Point","coordinates":[-77.294678,-2.645666]}},{"id":"512752","type":"Feature","properties":{"ident":"SEIW","type":"small_airport","name":"Iwia Airstrip","elevation_ft":"1499","continent":"SA","iso_country":"EC","iso_region":"EC-Y","municipality":"Iwia","scheduled_service":"no","gps_code":"SEIW"},"geometry":{"type":"Point","coordinates":[-77.523399,-2.071725]}},{"id":"513778","type":"Feature","properties":{"ident":"SEIE","type":"small_airport","name":"Iñaywa Norte Airdtrip","elevation_ft":"1389","continent":"SA","iso_country":"EC","iso_region":"EC-S","municipality":"Morona Santiago","scheduled_service":"no","gps_code":"SEIE"},"geometry":{"type":"Point","coordinates":[-77.484895,-2.162952]}},{"id":"513503","type":"Feature","properties":{"ident":"SEIY","type":"small_airport","name":"Iñaywa Sur Airstrip","elevation_ft":"755","continent":"SA","iso_country":"EC","iso_region":"EC-S","municipality":"Iñaywa Sur","scheduled_service":"no","gps_code":"SEIY","keywords":"Iniayua"},"geometry":{"type":"Point","coordinates":[-77.443761,-2.748776]}},{"id":"323808","type":"Feature","properties":{"ident":"EC-0007","type":"small_airport","name":"Jaime Roldós Airstrip","elevation_ft":"849","continent":"SA","iso_country":"EC","iso_region":"EC-Y","municipality":"Quilloalpa","scheduled_service":"no","gps_code":"SEJR","keywords":"Shivacocha"},"geometry":{"type":"Point","coordinates":[-76.958553,-1.384429]}},{"id":"41120","type":"Feature","properties":{"ident":"SEJM","type":"small_airport","name":"Jama Airport","elevation_ft":"37","continent":"SA","iso_country":"EC","iso_region":"EC-M","municipality":"Jama","scheduled_service":"no","gps_code":"SEJM"},"geometry":{"type":"Point","coordinates":[-80.265404,-0.201497]}},{"id":"513922","type":"Feature","properties":{"ident":"SEJA","type":"small_airport","name":"Jandiyacua Airstrip","elevation_ft":"978","continent":"SA","iso_country":"EC","iso_region":"EC-Y","municipality":"Jandiyacu","scheduled_service":"no","gps_code":"SEJA"},"geometry":{"type":"Point","coordinates":[-77.109686,-1.730931]}},{"id":"513924","type":"Feature","properties":{"ident":"SEJE","type":"small_airport","name":"Jempentza Airstrip","elevation_ft":"735","continent":"SA","iso_country":"EC","iso_region":"EC-S","municipality":"Jempentza","scheduled_service":"no","gps_code":"SEJE","keywords":"Jempents"},"geometry":{"type":"Point","coordinates":[-77.487304,-2.744252]}},{"id":"324025","type":"Feature","properties":{"ident":"EC-0023","type":"small_airport","name":"Jimbiquiti Airstrip","continent":"SA","iso_country":"EC","iso_region":"EC-Y","municipality":"Jimbiquiti","scheduled_service":"no"},"geometry":{"type":"Point","coordinates":[-77.716252,-1.990084]}},{"id":"513964","type":"Feature","properties":{"ident":"SEJZ","type":"small_airport","name":"Jimiarentza Airstrip","elevation_ft":"886","continent":"SA","iso_country":"EC","iso_region":"EC-S","municipality":"Jimiarentsa","scheduled_service":"no","gps_code":"SEJZ","keywords":"Bacundo"},"geometry":{"type":"Point","coordinates":[-77.432241,-2.51669]}},{"id":"41119","type":"Feature","properties":{"ident":"SEJI","type":"small_airport","name":"Jipijapa Airport","elevation_ft":"223","continent":"SA","iso_country":"EC","iso_region":"EC-M","municipality":"Jipijapa","scheduled_service":"no","icao_code":"SEJI","iata_code":"JIP","gps_code":"SEJI"},"geometry":{"type":"Point","coordinates":[-80.666664,-1]}},{"id":"6062","type":"Feature","properties":{"ident":"SEMA","type":"medium_airport","name":"Jose Maria Velasco Ibarra Airport","elevation_ft":"1508","continent":"SA","iso_country":"EC","iso_region":"EC-L","municipality":"Macará","scheduled_service":"no","icao_code":"SEMA","iata_code":"MRR","gps_code":"SEMA","wikipedia_link":"https://en.wikipedia.org/wiki/Jos%C3%A9_Mar%C3%ADa_Velasco_Ibarra_Airport"},"geometry":{"type":"Point","coordinates":[-79.941002,-4.37823]}},{"id":"513769","type":"Feature","properties":{"ident":"SEHV","type":"small_airport","name":"Josema Airport","elevation_ft":"80","continent":"SA","iso_country":"EC","iso_region":"EC-G","municipality":"Progreso","scheduled_service":"no","gps_code":"SEHV"},"geometry":{"type":"Point","coordinates":[-80.20473,-2.33171]}},{"id":"6056","type":"Feature","properties":{"ident":"SEGU","type":"large_airport","name":"José Joaquín de Olmedo International Airport","elevation_ft":"19","continent":"SA","iso_country":"EC","iso_region":"EC-G","municipality":"Guayaquil","scheduled_service":"yes","icao_code":"SEGU","iata_code":"GYE","gps_code":"SEGU","wikipedia_link":"https://en.wikipedia.org/wiki/Jos%C3%A9_Joaqu%C3%ADn_de_Olmedo_International_Airport","keywords":"Simon Bolivar International Airport"},"geometry":{"type":"Point","coordinates":[-79.883598,-2.15742]}},{"id":"513952","type":"Feature","properties":{"ident":"SEJS","type":"small_airport","name":"Joya de Los Sachas Airport","elevation_ft":"904","continent":"SA","iso_country":"EC","iso_region":"EC-D","municipality":"Joya de Los Sachas","scheduled_service":"no","gps_code":"SEJS"},"geometry":{"type":"Point","coordinates":[-76.879399,-0.328361]}},{"id":"309411","type":"Feature","properties":{"ident":"SEJD","type":"medium_airport","name":"Jumandy Airport","elevation_ft":"1234","continent":"SA","iso_country":"EC","iso_region":"EC-N","municipality":"Ahuano","scheduled_service":"no","icao_code":"SEJD","iata_code":"TNW","gps_code":"SEJD","home_link":"http://www.dgac.gob.ec/tena/","wikipedia_link":"https://en.wikipedia.org/wiki/Jumandy_Airport","keywords":"Tena"},"geometry":{"type":"Point","coordinates":[-77.580525,-1.060185]}},{"id":"513962","type":"Feature","properties":{"ident":"SEJY","type":"small_airport","name":"Juyuintsa Airstrip","elevation_ft":"634","continent":"SA","iso_country":"EC","iso_region":"EC-Y","municipality":"Juyuintsa","scheduled_service":"no","gps_code":"SEJY"},"geometry":{"type":"Point","coordinates":[-76.20208,-2.116691]}},{"id":"513950","type":"Feature","properties":{"ident":"SEJK","type":"small_airport","name":"Juyukamentza Airstrip","elevation_ft":"812","continent":"SA","iso_country":"EC","iso_region":"EC-S","municipality":"Juyukam Entsa","scheduled_service":"no","gps_code":"SEJK"},"geometry":{"type":"Point","coordinates":[-77.240896,-2.721043]}},{"id":"513967","type":"Feature","properties":{"ident":"SEKA","type":"small_airport","name":"Kaan Airstrip","elevation_ft":"891","continent":"SA","iso_country":"EC","iso_region":"EC-S","municipality":"Kaank Chico","scheduled_service":"no","gps_code":"SEKA","keywords":"Vargas Guerra"},"geometry":{"type":"Point","coordinates":[-77.868204,-2.873817]}},{"id":"513969","type":"Feature","properties":{"ident":"SEKC","type":"small_airport","name":"Kaiptach Airfield","elevation_ft":"912","continent":"SA","iso_country":"EC","iso_region":"EC-S","municipality":"Kaiptach","scheduled_service":"no","gps_code":"SEKC","keywords":"Chumbela"},"geometry":{"type":"Point","coordinates":[-77.127571,-2.639283]}},{"id":"512566","type":"Feature","properties":{"ident":"SEXK","type":"small_airport","name":"Kambantsa","elevation_ft":"1201","continent":"SA","iso_country":"EC","iso_region":"EC-Y","municipality":"Kambantsa","scheduled_service":"no","gps_code":"SEXK"},"geometry":{"type":"Point","coordinates":[-76.832401,-2.014226]}},{"id":"514029","type":"Feature","properties":{"ident":"SEKN","type":"small_airport","name":"Kaniats Airstrip","elevation_ft":"760","continent":"SA","iso_country":"EC","iso_region":"EC-S","municipality":"Taisha","scheduled_service":"no","gps_code":"SEKN"},"geometry":{"type":"Point","coordinates":[-77.505235,-2.710571]}},{"id":"514030","type":"Feature","properties":{"ident":"SEKP","type":"small_airport","name":"Kapatinentza Airstrip","elevation_ft":"80","continent":"SA","iso_country":"EC","iso_region":"EC-S","municipality":"Kapatinentza","scheduled_service":"no","gps_code":"SEKP"},"geometry":{"type":"Point","coordinates":[-77.477093,-2.681793]}},{"id":"514842","type":"Feature","properties":{"ident":"SEKW","type":"small_airport","name":"Kapawi Airstrip","elevation_ft":"850","continent":"SA","iso_country":"EC","iso_region":"EC-Y","municipality":"Kapawi","scheduled_service":"no","gps_code":"SEKW"},"geometry":{"type":"Point","coordinates":[-76.84217,-2.534276]}},{"id":"513851","type":"Feature","properties":{"ident":"SEIR","type":"small_airport","name":"Kapirna Airstrip","elevation_ft":"941","continent":"SA","iso_country":"EC","iso_region":"EC-Y","municipality":"Kapirna","scheduled_service":"no","gps_code":"SEIR"},"geometry":{"type":"Point","coordinates":[-76.814087,-2.219802]}},{"id":"513855","type":"Feature","properties":{"ident":"SEIT","type":"small_airport","name":"Kapitian Airstrip","elevation_ft":"753","continent":"SA","iso_country":"EC","iso_region":"EC-S","municipality":"Kapitian","scheduled_service":"no","gps_code":"SEIT"},"geometry":{"type":"Point","coordinates":[-77.537105,-2.726732]}},{"id":"512371","type":"Feature","properties":{"ident":"SEZK","type":"small_airport","name":"Karakam Airstrip","elevation_ft":"801","continent":"SA","iso_country":"EC","iso_region":"EC-S","municipality":"Karakam","scheduled_service":"no","gps_code":"SEZK","keywords":"Kukajentsa"},"geometry":{"type":"Point","coordinates":[-77.408045,-2.785009]}},{"id":"513471","type":"Feature","properties":{"ident":"SEHS","type":"small_airport","name":"Kashaints Airstrip","elevation_ft":"784","continent":"SA","iso_country":"EC","iso_region":"EC-S","municipality":"Kashaints","scheduled_service":"no","gps_code":"SEHS"},"geometry":{"type":"Point","coordinates":[-77.536647,-2.698513]}},{"id":"514833","type":"Feature","properties":{"ident":"SEKS","type":"small_airport","name":"Kaspaim Airstrip","elevation_ft":"680","continent":"SA","iso_country":"EC","iso_region":"EC-S","municipality":"Vargas Guerra","scheduled_service":"no","gps_code":"SEKS"},"geometry":{"type":"Point","coordinates":[-77.71069,-2.828304]}},{"id":"513086","type":"Feature","properties":{"ident":"SEWX","type":"small_airport","name":"Kawa Airstrip","elevation_ft":"2129","continent":"SA","iso_country":"EC","iso_region":"EC-Y","municipality":"Kawa","scheduled_service":"no","gps_code":"SEWX"},"geometry":{"type":"Point","coordinates":[-77.669082,-2.001295]}},{"id":"514871","type":"Feature","properties":{"ident":"SEKY","type":"small_airport","name":"Kayamentza Airstrip","elevation_ft":"2175","continent":"SA","iso_country":"EC","iso_region":"EC-S","municipality":"Capadino Entza","scheduled_service":"no","gps_code":"SEKY"},"geometry":{"type":"Point","coordinates":[-77.73578,-2.005646]}},{"id":"514877","type":"Feature","properties":{"ident":"SEKZ","type":"small_airport","name":"Kayantza Airstrip","elevation_ft":"1274","continent":"SA","iso_country":"EC","iso_region":"EC-S","municipality":"Kayantza","scheduled_service":"no","gps_code":"SEKZ"},"geometry":{"type":"Point","coordinates":[-77.368609,-2.174349]}},{"id":"513972","type":"Feature","properties":{"ident":"SEKE","type":"small_airport","name":"Kenkuim Airstrip","elevation_ft":"1930","continent":"SA","iso_country":"EC","iso_region":"EC-S","municipality":"Morona","scheduled_service":"no","gps_code":"SEKE","keywords":"Cangaimine"},"geometry":{"type":"Point","coordinates":[-77.735664,-2.23362]}},{"id":"514650","type":"Feature","properties":{"ident":"SEKQ","type":"small_airport","name":"Kikints Airstrip","elevation_ft":"1180","continent":"SA","iso_country":"EC","iso_region":"EC-S","municipality":"Kikints","scheduled_service":"no","gps_code":"SEKQ"},"geometry":{"type":"Point","coordinates":[-77.357591,-2.301939]}},{"id":"6059","type":"Feature","properties":{"ident":"SEKK","type":"small_airport","name":"Km 192 Airport","elevation_ft":"1247","continent":"SA","iso_country":"EC","iso_region":"EC-E","municipality":"Vía Quinindé-La Concordia","scheduled_service":"no","gps_code":"SEKK","keywords":"Lagartera, La Unión"},"geometry":{"type":"Point","coordinates":[-79.391181,0.18465]}},{"id":"2176","type":"Feature","properties":{"ident":"SE11","type":"small_airport","name":"Km 60 Airport","elevation_ft":"1640","continent":"SA","iso_country":"EC","iso_region":"EC-26","municipality":"Luz de América","scheduled_service":"no","gps_code":"SEKI","keywords":"SE11, Consumulo"},"geometry":{"type":"Point","coordinates":[-79.371976,-0.536183]}},{"id":"513995","type":"Feature","properties":{"ident":"SEKH","type":"small_airport","name":"Kuakash Airfield","elevation_ft":"1979","continent":"SA","iso_country":"EC","iso_region":"EC-Y","municipality":"Kuakash","scheduled_service":"no","gps_code":"SEKH","keywords":"Jimbiquiti"},"geometry":{"type":"Point","coordinates":[-77.670886,-2.033081]}},{"id":"517324","type":"Feature","properties":{"ident":"SEUK","type":"small_airport","name":"Kuankua Airstrip","elevation_ft":"1203","continent":"SA","iso_country":"EC","iso_region":"EC-S","municipality":"Copataza","scheduled_service":"no","gps_code":"SEUK"},"geometry":{"type":"Point","coordinates":[-77.3572,-2.148425]}},{"id":"514839","type":"Feature","properties":{"ident":"SEKU","type":"small_airport","name":"Kupit Airstrip","elevation_ft":"860","continent":"SA","iso_country":"EC","iso_region":"EC-S","municipality":"Pedro","scheduled_service":"no","gps_code":"SEKU"},"geometry":{"type":"Point","coordinates":[-77.223029,-2.644734]}},{"id":"514841","type":"Feature","properties":{"ident":"SEKV","type":"small_airport","name":"Kurinua Airstrip","elevation_ft":"820","continent":"SA","iso_country":"EC","iso_region":"EC-S","municipality":"Iniayu","scheduled_service":"no","gps_code":"SEKV"},"geometry":{"type":"Point","coordinates":[-77.379026,-2.695432]}},{"id":"513988","type":"Feature","properties":{"ident":"SEKF","type":"small_airport","name":"Kuserua Airstrip","elevation_ft":"855","continent":"SA","iso_country":"EC","iso_region":"EC-S","municipality":"Huasaga","scheduled_service":"no","gps_code":"SEKF","keywords":"Kuservantz"},"geometry":{"type":"Point","coordinates":[-76.934738,-2.607173]}},{"id":"517373","type":"Feature","properties":{"ident":"SEUI","type":"small_airport","name":"Kusuimi Airstrip","elevation_ft":"720","continent":"SA","iso_country":"EC","iso_region":"EC-S","municipality":"Taisha","scheduled_service":"no","gps_code":"SEUI"},"geometry":{"type":"Point","coordinates":[-77.681991,-2.72319]}},{"id":"514837","type":"Feature","properties":{"ident":"SEKT","type":"small_airport","name":"Kusutka Airstrip","elevation_ft":"1865","continent":"SA","iso_country":"EC","iso_region":"EC-S","municipality":"Ayuy","scheduled_service":"no","gps_code":"SEKT"},"geometry":{"type":"Point","coordinates":[-77.641338,-2.096276]}},{"id":"513968","type":"Feature","properties":{"ident":"SEKB","type":"small_airport","name":"Kusutkau Airstrip","elevation_ft":"885","continent":"SA","iso_country":"EC","iso_region":"EC-Y","municipality":"Kusutkau","scheduled_service":"no","gps_code":"SEKB"},"geometry":{"type":"Point","coordinates":[-76.896588,-2.515333]}},{"id":"351439","type":"Feature","properties":{"ident":"EC-0037","type":"small_airport","name":"La Cadena Airport","elevation_ft":"246","continent":"SA","iso_country":"EC","iso_region":"EC-R","municipality":"Quevedo","scheduled_service":"no","gps_code":"SELC","keywords":"Valencia"},"geometry":{"type":"Point","coordinates":[-79.420359,-0.93109]}},{"id":"512536","type":"Feature","properties":{"ident":"SECC","type":"small_airport","name":"La Celeste Airport.","elevation_ft":"650","continent":"SA","iso_country":"EC","iso_region":"EC-26","municipality":"La Concordia","scheduled_service":"no","gps_code":"SECC"},"geometry":{"type":"Point","coordinates":[-79.367843,0.012807]}},{"id":"514939","type":"Feature","properties":{"ident":"SESO","type":"small_airport","name":"La Estrella Airport","elevation_ft":"47","continent":"SA","iso_country":"EC","iso_region":"EC-R","municipality":"Puebloviejo","scheduled_service":"no","gps_code":"SESO"},"geometry":{"type":"Point","coordinates":[-79.539826,-1.567288]}},{"id":"41115","type":"Feature","properties":{"ident":"SE04","type":"heliport","name":"La Fabril Heliport","elevation_ft":"40","continent":"SA","iso_country":"EC","iso_region":"EC-M","municipality":"Manta","scheduled_service":"no","gps_code":"SEXF","keywords":"SE04"},"geometry":{"type":"Point","coordinates":[-80.688436,-0.995765]}},{"id":"512463","type":"Feature","properties":{"ident":"SEYJ","type":"small_airport","name":"La Joya Airport","elevation_ft":"322","continent":"SA","iso_country":"EC","iso_region":"EC-G","municipality":"Balao","scheduled_service":"no","gps_code":"SEYJ"},"geometry":{"type":"Point","coordinates":[-79.650605,-2.889273]}},{"id":"515372","type":"Feature","properties":{"ident":"SELL","type":"small_airport","name":"La Lolita Airport.","elevation_ft":"30","continent":"SA","iso_country":"EC","iso_region":"EC-R","municipality":"Babahoyo","scheduled_service":"no","gps_code":"SELL"},"geometry":{"type":"Point","coordinates":[-79.591112,-1.718359]}},{"id":"512465","type":"Feature","properties":{"ident":"SEIA","type":"small_airport","name":"La Maria Airport","elevation_ft":"26","continent":"SA","iso_country":"EC","iso_region":"EC-G","municipality":"Balao","scheduled_service":"no","gps_code":"SEIA"},"geometry":{"type":"Point","coordinates":[-79.812775,-2.898919]}},{"id":"2179","type":"Feature","properties":{"ident":"SE59","type":"small_airport","name":"La Mina Airport","elevation_ft":"13","continent":"SA","iso_country":"EC","iso_region":"EC-O","municipality":"El Guabo","scheduled_service":"no","gps_code":"SEIN","keywords":"SE59"},"geometry":{"type":"Point","coordinates":[-79.79825,-3.202759]}},{"id":"2180","type":"Feature","properties":{"ident":"SE60","type":"small_airport","name":"La Puntilla Airport","elevation_ft":"195","continent":"SA","iso_country":"EC","iso_region":"EC-F","municipality":"La Puntilla","scheduled_service":"no","gps_code":"SELU","keywords":"SE60"},"geometry":{"type":"Point","coordinates":[-79.399167,-2.443333]}},{"id":"515480","type":"Feature","properties":{"ident":"SELV","type":"small_airport","name":"La Virgen Airport","elevation_ft":"110","continent":"SA","iso_country":"EC","iso_region":"EC-R","municipality":"Zapotal","scheduled_service":"no","gps_code":"SELV"},"geometry":{"type":"Point","coordinates":[-79.50581,-1.225142]}},{"id":"516185","type":"Feature","properties":{"ident":"SEOM","type":"small_airport","name":"Langosmar Airport","elevation_ft":"30","continent":"SA","iso_country":"EC","iso_region":"EC-G","municipality":"Progreso","scheduled_service":"no","gps_code":"SEOM"},"geometry":{"type":"Point","coordinates":[-80.13694,-2.463834]}},{"id":"2172","type":"Feature","properties":{"ident":"SE03","type":"small_airport","name":"Las Peñas Airport","elevation_ft":"3","continent":"SA","iso_country":"EC","iso_region":"EC-G","municipality":"Puerto Grande","scheduled_service":"no","gps_code":"SEEN","keywords":"SE03"},"geometry":{"type":"Point","coordinates":[-80.1007,-2.94716]}},{"id":"513511","type":"Feature","properties":{"ident":"EC-0059","type":"heliport","name":"León Becerra Hospital Heliport","elevation_ft":"36","continent":"SA","iso_country":"EC","iso_region":"EC-G","municipality":"Milagro","scheduled_service":"no"},"geometry":{"type":"Point","coordinates":[-79.58841,-2.12665]}},{"id":"515367","type":"Feature","properties":{"ident":"SELK","type":"small_airport","name":"Libertad Sur Airstrip","elevation_ft":"716","continent":"SA","iso_country":"EC","iso_region":"EC-S","municipality":"Panientza","scheduled_service":"no","gps_code":"SELK","keywords":"Puerto Morona"},"geometry":{"type":"Point","coordinates":[-77.569399,-2.802859]}},{"id":"6086","type":"Feature","properties":{"ident":"SETU","type":"medium_airport","name":"Lieutenant Colonel Luis A. Mantilla International Airport","elevation_ft":"9649","continent":"SA","iso_country":"EC","iso_region":"EC-C","municipality":"Tulcán","scheduled_service":"yes","icao_code":"SETU","iata_code":"TUA","gps_code":"SETU","wikipedia_link":"https://en.wikipedia.org/wiki/Teniente_Coronel_Luis_a_Mantilla_International_Airport","keywords":"Teniente Coronel Luis A. Mantilla"},"geometry":{"type":"Point","coordinates":[-77.708099,0.809506]}},{"id":"41129","type":"Feature","properties":{"ident":"SELI","type":"small_airport","name":"Limoncocha Airport","elevation_ft":"820","continent":"SA","iso_country":"EC","iso_region":"EC-U","municipality":"Limoncocha","scheduled_service":"no","gps_code":"SELI"},"geometry":{"type":"Point","coordinates":[-76.623802,-0.406363]}},{"id":"514206","type":"Feature","properties":{"ident":"EC-0062","type":"small_airport","name":"Llanchamacocha Airstrip","elevation_ft":"1139","continent":"SA","iso_country":"EC","iso_region":"EC-Y","municipality":"Moretecocha","scheduled_service":"no","gps_code":"SENH"},"geometry":{"type":"Point","coordinates":[-77.303546,-1.627303]}},{"id":"41113","type":"Feature","properties":{"ident":"SE16","type":"small_airport","name":"Loja Airport","elevation_ft":"7684","continent":"SA","iso_country":"EC","iso_region":"EC-L","municipality":"Loja","scheduled_service":"no","gps_code":"SE16","local_code":"SE16"},"geometry":{"type":"Point","coordinates":[-79.234749,-3.881424]}},{"id":"515366","type":"Feature","properties":{"ident":"SELD","type":"small_airport","name":"Loma Alta Airport","elevation_ft":"215","continent":"SA","iso_country":"EC","iso_region":"EC-G","municipality":"Chongón","scheduled_service":"no","gps_code":"SELD","keywords":"Guayaquil"},"geometry":{"type":"Point","coordinates":[-80.083339,-2.2078]}},{"id":"32278","type":"Feature","properties":{"ident":"SELM","type":"small_airport","name":"Loma Larga Airport","elevation_ft":"210","continent":"SA","iso_country":"EC","iso_region":"EC-R","municipality":"Loma Larga","scheduled_service":"no","gps_code":"SELM"},"geometry":{"type":"Point","coordinates":[-79.480904,-1.50158]}},{"id":"323805","type":"Feature","properties":{"ident":"EC-0005","type":"small_airport","name":"Lorocachi Airstrip","elevation_ft":"630","continent":"SA","iso_country":"EC","iso_region":"EC-Y","municipality":"Lorocachi","scheduled_service":"no","gps_code":"SEOH","keywords":"Ayamu"},"geometry":{"type":"Point","coordinates":[-75.98772,-1.615731]}},{"id":"505096","type":"Feature","properties":{"ident":"EC-0051","type":"heliport","name":"Los Ceibos Hospital Heliport","continent":"SA","iso_country":"EC","iso_region":"EC-G","municipality":"Guayaquil","scheduled_service":"no"},"geometry":{"type":"Point","coordinates":[-79.94109,-2.17613]}},{"id":"6080","type":"Feature","properties":{"ident":"SESV","type":"small_airport","name":"Los Perales Airport","elevation_ft":"10","continent":"SA","iso_country":"EC","iso_region":"EC-M","municipality":"Bahía de Caraquez","scheduled_service":"no","icao_code":"SESV","iata_code":"BHA","gps_code":"SESV","wikipedia_link":"https://en.wikipedia.org/wiki/Los_Perales_Airport","keywords":"SEBC, San Vicente"},"geometry":{"type":"Point","coordinates":[-80.402702,-0.608111]}},{"id":"32281","type":"Feature","properties":{"ident":"SEPZ","type":"small_airport","name":"Los Perez Airport","elevation_ft":"75","continent":"SA","iso_country":"EC","iso_region":"EC-R","municipality":"Los Perez","scheduled_service":"no","gps_code":"SEPZ"},"geometry":{"type":"Point","coordinates":[-79.375331,-0.953189]}},{"id":"505095","type":"Feature","properties":{"ident":"EC-0050","type":"small_airport","name":"Los Rebeldes Airpark","elevation_ft":"105","continent":"SA","iso_country":"EC","iso_region":"EC-G","municipality":"Guayaquil","scheduled_service":"no"},"geometry":{"type":"Point","coordinates":[-80.10262,-2.28323]}},{"id":"512365","type":"Feature","properties":{"ident":"SEZD","type":"heliport","name":"Luz de Mar Heliport","elevation_ft":"40","continent":"SA","iso_country":"EC","iso_region":"EC-M","municipality":"Puerto Cayo","scheduled_service":"no","gps_code":"SEZD"},"geometry":{"type":"Point","coordinates":[-80.748832,-1.333578]}},{"id":"323815","type":"Feature","properties":{"ident":"EC-0014","type":"small_airport","name":"Macuma Airstrip","elevation_ft":"2300","continent":"SA","iso_country":"EC","iso_region":"EC-S","municipality":"Macuma","scheduled_service":"no","gps_code":"SEAK","keywords":"http://www.ais.aviacioncivil.gob.ec/aerodromo/show?aerodromo_sel=aerodromo&designador=SEAk&popup=&boton=Consultar"},"geometry":{"type":"Point","coordinates":[-77.700306,-2.145775]}},{"id":"525294","type":"Feature","properties":{"ident":"SEML","type":"small_airport","name":"Manglaralto Airport","elevation_ft":"30","continent":"SA","iso_country":"EC","iso_region":"EC-G","scheduled_service":"no","gps_code":"SEML"},"geometry":{"type":"Point","coordinates":[-80.73696,-1.844848]}},{"id":"512191","type":"Feature","properties":{"ident":"SEAB","type":"small_airport","name":"Mar Abierto Airport","elevation_ft":"10","continent":"SA","iso_country":"EC","iso_region":"EC-25","municipality":"Mar Abierto","scheduled_service":"no","gps_code":"SEAB"},"geometry":{"type":"Point","coordinates":[-80.773187,-2.156493]}},{"id":"353416","type":"Feature","properties":{"ident":"EC-0044","type":"heliport","name":"Mar y Cielo Heliport","elevation_ft":"36","continent":"SA","iso_country":"EC","iso_region":"EC-O","municipality":"Machala","scheduled_service":"no"},"geometry":{"type":"Point","coordinates":[-79.92046,-3.28783]}},{"id":"6067","type":"Feature","properties":{"ident":"SEMX","type":"small_airport","name":"Maragrosa Airport","elevation_ft":"18","continent":"SA","iso_country":"EC","iso_region":"EC-G","municipality":"Puerto Balao","scheduled_service":"no","gps_code":"SEMX"},"geometry":{"type":"Point","coordinates":[-79.803596,-2.8511]}},{"id":"525311","type":"Feature","properties":{"ident":"SERI","type":"small_airport","name":"Maria Cristina Airport","elevation_ft":"269","continent":"SA","iso_country":"EC","iso_region":"EC-R","scheduled_service":"no","gps_code":"SERI"},"geometry":{"type":"Point","coordinates":[-79.496123,-1.177302]}},{"id":"6054","type":"Feature","properties":{"ident":"SECU","type":"medium_airport","name":"Mariscal Lamar Airport","elevation_ft":"8306","continent":"SA","iso_country":"EC","iso_region":"EC-A","municipality":"Cuenca","scheduled_service":"yes","icao_code":"SECU","iata_code":"CUE","gps_code":"SECU","wikipedia_link":"https://en.wikipedia.org/wiki/Mariscal_Lamar_International_Airport"},"geometry":{"type":"Point","coordinates":[-78.984398,-2.88947]}},{"id":"6073","type":"Feature","properties":{"ident":"EC-0070","type":"heliport","name":"Mariscal Sucre Air Base","elevation_ft":"9228","continent":"SA","iso_country":"EC","iso_region":"EC-P","municipality":"Quito","scheduled_service":"no","local_code":"SEQU","home_link":"http://www.aeropuertoquito.aero/","wikipedia_link":"https://en.wikipedia.org/wiki/Old_Mariscal_Sucre_International_Airport","keywords":"Quito, Ecuador, Dangerous, Closed, Mountains, Volcano, America, Middle of the world, SEQU"},"geometry":{"type":"Point","coordinates":[-78.490598,-0.136782]}},{"id":"308273","type":"Feature","properties":{"ident":"SEQM","type":"large_airport","name":"Mariscal Sucre International Airport","elevation_ft":"7841","continent":"SA","iso_country":"EC","iso_region":"EC-P","municipality":"Quito","scheduled_service":"yes","icao_code":"SEQM","iata_code":"UIO","gps_code":"SEQM","local_code":"UIO","home_link":"https://www.aeropuertoquito.aero/?lang=en","wikipedia_link":"https://en.wikipedia.org/wiki/Mariscal_Sucre_International_Airport","keywords":"Nuevo Aeropuerto Internacional Mariscal Sucre"},"geometry":{"type":"Point","coordinates":[-78.354306,-0.125399]}},{"id":"32279","type":"Feature","properties":{"ident":"SEMY","type":"small_airport","name":"Martinica Airport","elevation_ft":"90","continent":"SA","iso_country":"EC","iso_region":"EC-R","municipality":"Martinica","scheduled_service":"no","gps_code":"SEMY"},"geometry":{"type":"Point","coordinates":[-79.621498,-1.73972]}},{"id":"513433","type":"Feature","properties":{"ident":"SEHE","type":"small_airport","name":"Mashient Airstrip","elevation_ft":"1147","continent":"SA","iso_country":"EC","iso_region":"EC-Y","municipality":"Mashient","scheduled_service":"no","gps_code":"SEHE"},"geometry":{"type":"Point","coordinates":[-77.322834,-2.159177]}},{"id":"513773","type":"Feature","properties":{"ident":"SEHZ","type":"small_airport","name":"Mashientenza Airstrip","elevation_ft":"1047","continent":"SA","iso_country":"EC","iso_region":"EC-S","municipality":"Mashientenza","scheduled_service":"no","gps_code":"SEHZ"},"geometry":{"type":"Point","coordinates":[-77.406923,-2.363793]}},{"id":"513444","type":"Feature","properties":{"ident":"SEHN","type":"small_airport","name":"Mashuin Airstrip","elevation_ft":"854","continent":"SA","iso_country":"EC","iso_region":"EC-S","municipality":"Mashuin","scheduled_service":"no","gps_code":"SEHN","keywords":"Mashumi"},"geometry":{"type":"Point","coordinates":[-76.916497,-2.616113]}},{"id":"513467","type":"Feature","properties":{"ident":"SEHR","type":"small_airport","name":"Masurash Airstrip","elevation_ft":"1107","continent":"SA","iso_country":"EC","iso_region":"EC-Y","municipality":"Masurash","scheduled_service":"no","gps_code":"SEHR"},"geometry":{"type":"Point","coordinates":[-77.265694,-2.205549]}},{"id":"516176","type":"Feature","properties":{"ident":"SEOI","type":"small_airport","name":"Matorrillos Airport","elevation_ft":"20","continent":"SA","iso_country":"EC","iso_region":"EC-G","municipality":"Golfo de Guayaquil","scheduled_service":"no","gps_code":"SEOI","keywords":"Santa Domingo Chico"},"geometry":{"type":"Point","coordinates":[-79.83377,-2.436371]}},{"id":"6082","type":"Feature","properties":{"ident":"SETE","type":"small_airport","name":"Mayor Galo Torres Airport","elevation_ft":"1708","continent":"SA","iso_country":"EC","iso_region":"EC-N","municipality":"Tena","scheduled_service":"no","gps_code":"SETE","wikipedia_link":"https://en.wikipedia.org/wiki/Mayor_Galo_de_la_Torre_Airport"},"geometry":{"type":"Point","coordinates":[-77.819504,-0.986767]}},{"id":"505099","type":"Feature","properties":{"ident":"EC-0053","type":"heliport","name":"Mitad del Mundo Heliport","elevation_ft":"8094","continent":"SA","iso_country":"EC","iso_region":"EC-P","municipality":"Quito","scheduled_service":"no"},"geometry":{"type":"Point","coordinates":[-78.45354,-0.00327]}},{"id":"518563","type":"Feature","properties":{"ident":"SEOU","type":"small_airport","name":"Molaute Airstrip","elevation_ft":"1476","continent":"SA","iso_country":"EC","iso_region":"EC-P","municipality":"Pedro Vicente Maldonado","scheduled_service":"no","gps_code":"SEOU"},"geometry":{"type":"Point","coordinates":[-79.134895,-0.076808]}},{"id":"517375","type":"Feature","properties":{"ident":"SEUD","type":"small_airport","name":"Muruntza Airstrip","elevation_ft":"890","continent":"SA","iso_country":"EC","iso_region":"EC-S","municipality":"Pedro","scheduled_service":"no","gps_code":"SEUD","keywords":"Muruntsa"},"geometry":{"type":"Point","coordinates":[-77.218528,-2.585928]}},{"id":"41594","type":"Feature","properties":{"ident":"EC-MZD","type":"small_airport","name":"Méndez Airport","elevation_ft":"1770","continent":"SA","iso_country":"EC","iso_region":"EC-S","municipality":"Santiago de Méndez","scheduled_service":"no","iata_code":"MZD"},"geometry":{"type":"Point","coordinates":[-78.316704,-2.73333]}},{"id":"517459","type":"Feature","properties":{"ident":"SENF","type":"small_airport","name":"Napurak Airstrip","elevation_ft":"942","continent":"SA","iso_country":"EC","iso_region":"EC-S","municipality":"Napurak","scheduled_service":"no","gps_code":"SENF","keywords":"Chumbela"},"geometry":{"type":"Point","coordinates":[-76.990489,-2.52258]}},{"id":"513553","type":"Feature","properties":{"ident":"EC-0061","type":"small_airport","name":"Nases Airstrip","elevation_ft":"900","continent":"SA","iso_country":"EC","iso_region":"EC-S","municipality":"Huasaga","scheduled_service":"no","gps_code":"SEHG","keywords":"SEHS"},"geometry":{"type":"Point","coordinates":[-77.172101,-2.559842]}},{"id":"515287","type":"Feature","properties":{"ident":"SEND","type":"small_airport","name":"Nemonpade Airstrip","elevation_ft":"1003","continent":"SA","iso_country":"EC","iso_region":"EC-Y","municipality":"Nemonpade","scheduled_service":"no","gps_code":"SEND","keywords":"Nemonpare, Tihuano"},"geometry":{"type":"Point","coordinates":[-77.25913,-1.236018]}},{"id":"505092","type":"Feature","properties":{"ident":"EC-0047","type":"small_airport","name":"NIRSA Airport","elevation_ft":"16","continent":"SA","iso_country":"EC","iso_region":"EC-G","municipality":"Posorja","scheduled_service":"no","gps_code":"SENX","keywords":"Negocios Industriales Real"},"geometry":{"type":"Point","coordinates":[-80.249194,-2.72034]}},{"id":"515284","type":"Feature","properties":{"ident":"SENB","type":"small_airport","name":"Nueva Canusa Airstrip","elevation_ft":"1110","continent":"SA","iso_country":"EC","iso_region":"EC-S","municipality":"Canusa","scheduled_service":"no","gps_code":"SENB","keywords":"Cangaimine"},"geometry":{"type":"Point","coordinates":[-77.740141,-2.407136]}},{"id":"32277","type":"Feature","properties":{"ident":"SENL","type":"small_airport","name":"Nueva Loja Airport","elevation_ft":"980","continent":"SA","iso_country":"EC","iso_region":"EC-U","municipality":"Lago Agrio","scheduled_service":"no","icao_code":"SENL","iata_code":"LGQ","gps_code":"SENL","wikipedia_link":"https://en.wikipedia.org/wiki/Lago_Agrio_Airport","keywords":"SELA, Lago Agrio,"},"geometry":{"type":"Point","coordinates":[-76.8675,0.093056]}},{"id":"515289","type":"Feature","properties":{"ident":"SENE","type":"small_airport","name":"Nuevo Corrientes Airstrip","elevation_ft":"814","continent":"SA","iso_country":"EC","iso_region":"EC-Y","municipality":"Nuevo Corrientes","scheduled_service":"no","gps_code":"SENE","keywords":"Tambo"},"geometry":{"type":"Point","coordinates":[-76.764307,-1.997976]}},{"id":"323803","type":"Feature","properties":{"ident":"EC-0004","type":"small_airport","name":"Nuevo Rocafuerte Airstrip","continent":"SA","iso_country":"EC","iso_region":"EC-D","municipality":"Nuevo Rocafuerte","scheduled_service":"no"},"geometry":{"type":"Point","coordinates":[-75.394383,-0.927875]}},{"id":"518561","type":"Feature","properties":{"ident":"SEOS","type":"heliport","name":"Omarsa Heliport","elevation_ft":"12","continent":"SA","iso_country":"EC","iso_region":"EC-G","municipality":"Durán","scheduled_service":"no","gps_code":"SEOS"},"geometry":{"type":"Point","coordinates":[-79.859172,-2.186138]}},{"id":"512195","type":"Feature","properties":{"ident":"SEAD","type":"small_airport","name":"Paandin Airport","elevation_ft":"2201","continent":"SA","iso_country":"EC","iso_region":"EC-S","municipality":"Paandin","scheduled_service":"no","gps_code":"SEAD"},"geometry":{"type":"Point","coordinates":[-77.677402,-2.137235]}},{"id":"323811","type":"Feature","properties":{"ident":"EC-0010","type":"small_airport","name":"Pacayacu Airstrip","continent":"SA","iso_country":"EC","iso_region":"EC-Y","municipality":"Pacayacu","scheduled_service":"no"},"geometry":{"type":"Point","coordinates":[-77.596069,-1.650816]}},{"id":"518597","type":"Feature","properties":{"ident":"SEPK","type":"small_airport","name":"Pakintza Airstrip","elevation_ft":"1070","continent":"SA","iso_country":"EC","iso_region":"EC-S","municipality":"Pakintza","scheduled_service":"no","gps_code":"SEPK","keywords":"Pakints"},"geometry":{"type":"Point","coordinates":[-77.276133,-2.32312]}},{"id":"41100","type":"Feature","properties":{"ident":"SE06","type":"heliport","name":"Palobamba Heliport","elevation_ft":"22","continent":"SA","iso_country":"EC","iso_region":"EC-G","municipality":"Lérida","scheduled_service":"no","gps_code":"SE06","local_code":"SE06"},"geometry":{"type":"Point","coordinates":[-80.02417,-2.190278]}},{"id":"512917","type":"Feature","properties":{"ident":"SEER","type":"small_airport","name":"Palpailón","elevation_ft":"69","continent":"SA","iso_country":"EC","iso_region":"EC-E","municipality":"Esmeraldas","scheduled_service":"no","gps_code":"SEER","keywords":"Palmeras del Pailon"},"geometry":{"type":"Point","coordinates":[-78.868266,1.221636]}},{"id":"512360","type":"Feature","properties":{"ident":"SEZA","type":"small_airport","name":"Pampantza Airstrip","elevation_ft":"801","continent":"SA","iso_country":"EC","iso_region":"EC-S","municipality":"Pampantza","scheduled_service":"no","gps_code":"SEZA","keywords":"Pampants"},"geometry":{"type":"Point","coordinates":[-77.443745,-2.554289]}},{"id":"525312","type":"Feature","properties":{"ident":"SEPN","type":"small_airport","name":"Panamao Airport","elevation_ft":"26","continent":"SA","iso_country":"EC","iso_region":"EC-G","scheduled_service":"no","gps_code":"SEPN"},"geometry":{"type":"Point","coordinates":[-80.65012,-2.421208]}},{"id":"518568","type":"Feature","properties":{"ident":"SEOY","type":"small_airport","name":"Pantalony Airport","elevation_ft":"515","continent":"SA","iso_country":"EC","iso_region":"EC-R","municipality":"Valencia","scheduled_service":"no","gps_code":"SEOY","keywords":"Paenisola, Naranjal"},"geometry":{"type":"Point","coordinates":[-79.288232,-0.841075]}},{"id":"6069","type":"Feature","properties":{"ident":"SEPC","type":"small_airport","name":"Patuca Airport","elevation_ft":"1781","continent":"SA","iso_country":"EC","iso_region":"EC-S","municipality":"Patuca","scheduled_service":"no","gps_code":"SEPC"},"geometry":{"type":"Point","coordinates":[-78.263603,-2.75172]}},{"id":"323842","type":"Feature","properties":{"ident":"EC-0017","type":"small_airport","name":"Patukmai Airstrip","elevation_ft":"905","continent":"SA","iso_country":"EC","iso_region":"EC-S","municipality":"Patukmai","scheduled_service":"no","gps_code":"SEUX","keywords":"Huasaga"},"geometry":{"type":"Point","coordinates":[-77.201006,-2.483436]}},{"id":"323806","type":"Feature","properties":{"ident":"EC-0006","type":"small_airport","name":"Pavacachi Airstrip","continent":"SA","iso_country":"EC","iso_region":"EC-Y","municipality":"Pavacachi","scheduled_service":"no","gps_code":"SEVA"},"geometry":{"type":"Point","coordinates":[-76.353395,-1.578569]}},{"id":"41109","type":"Feature","properties":{"ident":"SEPX","type":"small_airport","name":"Payo Airport","elevation_ft":"46","continent":"SA","iso_country":"EC","iso_region":"EC-G","municipality":"Hacienda Payo","scheduled_service":"no","gps_code":"SEPX"},"geometry":{"type":"Point","coordinates":[-79.50222,-2.292292]}},{"id":"516374","type":"Feature","properties":{"ident":"SEPE","type":"small_airport","name":"Pechichal Airport","elevation_ft":"55","continent":"SA","iso_country":"EC","iso_region":"EC-G","municipality":"Naranjal","scheduled_service":"no","gps_code":"SEPE"},"geometry":{"type":"Point","coordinates":[-79.618793,-2.658895]}},{"id":"41121","type":"Feature","properties":{"ident":"SEPD","type":"small_airport","name":"Pedernales Airport","elevation_ft":"60","continent":"SA","iso_country":"EC","iso_region":"EC-M","municipality":"Pedernales","scheduled_service":"no","gps_code":"SEPD"},"geometry":{"type":"Point","coordinates":[-80.050499,0.067619]}},{"id":"41106","type":"Feature","properties":{"ident":"SEPB","type":"small_airport","name":"Pedro Carbo Airport","elevation_ft":"321","continent":"SA","iso_country":"EC","iso_region":"EC-G","municipality":"Pecro Carbo","scheduled_service":"no","gps_code":"SEPB"},"geometry":{"type":"Point","coordinates":[-80.23246,-1.811593]}},{"id":"41103","type":"Feature","properties":{"ident":"SE17","type":"heliport","name":"Pepsicola Heliport","elevation_ft":"15","continent":"SA","iso_country":"EC","iso_region":"EC-G","municipality":"Guayaquil","scheduled_service":"no","gps_code":"SEXO","keywords":"SE17"},"geometry":{"type":"Point","coordinates":[-79.934982,-2.118989]}},{"id":"513505","type":"Feature","properties":{"ident":"SEIX","type":"small_airport","name":"Pimpintza Airstrip","elevation_ft":"1224","continent":"SA","iso_country":"EC","iso_region":"EC-S","municipality":"Pimpintza","scheduled_service":"no","gps_code":"SEIX","keywords":"Pimpimtza"},"geometry":{"type":"Point","coordinates":[-77.469444,-2.275]}},{"id":"517412","type":"Feature","properties":{"ident":"SEPI","type":"small_airport","name":"Pindoyacu Airstrip","elevation_ft":"686","continent":"SA","iso_country":"EC","iso_region":"EC-Y","municipality":"Pindoyacu","scheduled_service":"no","gps_code":"SEPI"},"geometry":{"type":"Point","coordinates":[-76.60763,-1.731878]}},{"id":"513857","type":"Feature","properties":{"ident":"SEIU","type":"small_airport","name":"Pitiur Airstrip","elevation_ft":"1238","continent":"SA","iso_country":"EC","iso_region":"EC-S","municipality":"Pitiur","scheduled_service":"no","gps_code":"SEIU"},"geometry":{"type":"Point","coordinates":[-77.401788,-2.251998]}},{"id":"505093","type":"Feature","properties":{"ident":"EC-0048","type":"small_airport","name":"Playas Airport","elevation_ft":"49","continent":"SA","iso_country":"EC","iso_region":"EC-G","municipality":"General Villamil","scheduled_service":"no","gps_code":"SEPL"},"geometry":{"type":"Point","coordinates":[-80.40429,-2.6338]}},{"id":"41107","type":"Feature","properties":{"ident":"SEPO","type":"small_airport","name":"Posorja Airport","elevation_ft":"30","continent":"SA","iso_country":"EC","iso_region":"EC-G","municipality":"Posorja","scheduled_service":"no","gps_code":"SEPO"},"geometry":{"type":"Point","coordinates":[-80.276606,-2.681735]}},{"id":"41099","type":"Feature","properties":{"ident":"SE05","type":"heliport","name":"Posorja Heliport","elevation_ft":"18","continent":"SA","iso_country":"EC","iso_region":"EC-G","municipality":"Posorja","scheduled_service":"no","gps_code":"SE05","local_code":"SE05"},"geometry":{"type":"Point","coordinates":[-80.245834,-2.731667]}},{"id":"512421","type":"Feature","properties":{"ident":"SEBX","type":"small_airport","name":"Probana Airport","elevation_ft":"79","continent":"SA","iso_country":"EC","iso_region":"EC-G","municipality":"El Recreo","scheduled_service":"no","gps_code":"SEBX"},"geometry":{"type":"Point","coordinates":[-79.614612,-2.605359]}},{"id":"513548","type":"Feature","properties":{"ident":"SEUR","type":"small_airport","name":"Pucar Airport","elevation_ft":"770","continent":"SA","iso_country":"EC","iso_region":"EC-S","municipality":"Pucar","scheduled_service":"no","gps_code":"SEUR"},"geometry":{"type":"Point","coordinates":[-77.648093,-2.78881]}},{"id":"512679","type":"Feature","properties":{"ident":"SEDP","type":"small_airport","name":"Pukuan Airstrip","elevation_ft":"1104","continent":"SA","iso_country":"EC","iso_region":"EC-Y","municipality":"Pukuan","scheduled_service":"no","gps_code":"SEDP"},"geometry":{"type":"Point","coordinates":[-77.15742,-2.101027]}},{"id":"517328","type":"Feature","properties":{"ident":"SEUE","type":"small_airport","name":"Pumpuentza Airstrip","elevation_ft":"941","continent":"SA","iso_country":"EC","iso_region":"EC-S","municipality":"Pedro","scheduled_service":"no","gps_code":"SEUE","keywords":"Pumpuentsa"},"geometry":{"type":"Point","coordinates":[-77.333041,-2.474584]}},{"id":"353417","type":"Feature","properties":{"ident":"EC-0045","type":"small_airport","name":"Puná Southwest Airport","elevation_ft":"15","continent":"SA","iso_country":"EC","iso_region":"EC-G","municipality":"Aguada","scheduled_service":"no"},"geometry":{"type":"Point","coordinates":[-80.257,-3.01335]}},{"id":"512714","type":"Feature","properties":{"ident":"SEUV","type":"small_airport","name":"Putuimi Achuar Airstrip","elevation_ft":"925","continent":"SA","iso_country":"EC","iso_region":"EC-S","municipality":"Putuimi","scheduled_service":"no","gps_code":"SEUV","keywords":"Nases"},"geometry":{"type":"Point","coordinates":[-77.117863,-2.548547]}},{"id":"41130","type":"Feature","properties":{"ident":"SEPT","type":"small_airport","name":"Putumayo Airport","elevation_ft":"733","continent":"SA","iso_country":"EC","iso_region":"EC-U","municipality":"Puerto Putumayo","scheduled_service":"no","icao_code":"SEPT","iata_code":"PYO","gps_code":"SEPT","wikipedia_link":"https://en.wikipedia.org/wiki/Putumayo_Airport"},"geometry":{"type":"Point","coordinates":[-75.85022,0.115949]}},{"id":"513542","type":"Feature","properties":{"ident":"SEUN","type":"small_airport","name":"Putuntz Airstrip","elevation_ft":"849","continent":"SA","iso_country":"EC","iso_region":"EC-S","municipality":"Putunts","scheduled_service":"no","gps_code":"SEUN"},"geometry":{"type":"Point","coordinates":[-77.420483,-2.596584]}},{"id":"6072","type":"Feature","properties":{"ident":"SEQE","type":"small_airport","name":"Quevedo Airport","elevation_ft":"350","continent":"SA","iso_country":"EC","iso_region":"EC-R","municipality":"Quevedo","scheduled_service":"no","gps_code":"SEQE"},"geometry":{"type":"Point","coordinates":[-79.465571,-0.989013]}},{"id":"41125","type":"Feature","properties":{"ident":"SE15","type":"small_airport","name":"Quevedo North Airport","elevation_ft":"314","continent":"SA","iso_country":"EC","iso_region":"EC-R","municipality":"Quevedo","scheduled_service":"no","gps_code":"SE15","local_code":"SE15"},"geometry":{"type":"Point","coordinates":[-79.415359,-0.999826]}},{"id":"6071","type":"Feature","properties":{"ident":"SEPV","type":"medium_airport","name":"Reales Tamarindos Airport","elevation_ft":"130","continent":"SA","iso_country":"EC","iso_region":"EC-M","municipality":"Portoviejo","scheduled_service":"no","icao_code":"SEPV","iata_code":"PVO","gps_code":"SEPV","wikipedia_link":"https://en.wikipedia.org/wiki/Reales_Tamarindos_Airport"},"geometry":{"type":"Point","coordinates":[-80.472198,-1.04165]}},{"id":"6078","type":"Feature","properties":{"ident":"SESM","type":"small_airport","name":"Rio Amazonas Airport","elevation_ft":"3465","continent":"SA","iso_country":"EC","iso_region":"EC-Y","municipality":"Shell Mera","scheduled_service":"no","icao_code":"SESM","iata_code":"PTZ","gps_code":"SESM","wikipedia_link":"https://en.wikipedia.org/wiki/Rio_Amazonas_Airport"},"geometry":{"type":"Point","coordinates":[-78.062698,-1.50524]}},{"id":"513562","type":"Feature","properties":{"ident":"SERL","type":"small_airport","name":"Roble Mar Airport","elevation_ft":"10","continent":"SA","iso_country":"EC","iso_region":"EC-G","municipality":"Isla Puná,","scheduled_service":"no","gps_code":"SERL"},"geometry":{"type":"Point","coordinates":[-80.229,-3.00529]}},{"id":"514254","type":"Feature","properties":{"ident":"SEAJ","type":"small_airport","name":"San Alejandro Airport","elevation_ft":"407","continent":"SA","iso_country":"EC","iso_region":"EC-R","municipality":"Valencia","scheduled_service":"no","gps_code":"SEAJ","home_link":"https://www.airhistory.net/photo/55957"},"geometry":{"type":"Point","coordinates":[-79.396645,-0.881361]}},{"id":"515029","type":"Feature","properties":{"ident":"SESP","type":"small_airport","name":"San Andres Airport","elevation_ft":"6","continent":"SA","iso_country":"EC","iso_region":"EC-G","municipality":"Golfo de Guayaquil","scheduled_service":"no","gps_code":"SESP","keywords":"Puerto Salinas"},"geometry":{"type":"Point","coordinates":[-80.034351,-2.578345]}},{"id":"41102","type":"Feature","properties":{"ident":"SE14","type":"small_airport","name":"San Carlos Airport","elevation_ft":"126","continent":"SA","iso_country":"EC","iso_region":"EC-G","municipality":"Coronel Marcelino Maridueña","scheduled_service":"no","gps_code":"SESN","keywords":"SE14"},"geometry":{"type":"Point","coordinates":[-79.43136,-2.21775]}},{"id":"2173","type":"Feature","properties":{"ident":"SE08","type":"small_airport","name":"San Carlos Costa Airport","elevation_ft":"21","continent":"SA","iso_country":"EC","iso_region":"EC-G","municipality":"Lorenzo de Garaicoa","scheduled_service":"no","gps_code":"SE08","local_code":"SE08"},"geometry":{"type":"Point","coordinates":[-79.433098,-2.05472]}},{"id":"515039","type":"Feature","properties":{"ident":"SESS","type":"small_airport","name":"San Carlos Oriente Airstrip","elevation_ft":"1706","continent":"SA","iso_country":"EC","iso_region":"EC-Y","municipality":"San Carlos","scheduled_service":"no","gps_code":"SESS"},"geometry":{"type":"Point","coordinates":[-77.590771,-2.055229]}},{"id":"6079","type":"Feature","properties":{"ident":"SEST","type":"small_airport","name":"San Cristóbal Airport","elevation_ft":"62","continent":"SA","iso_country":"EC","iso_region":"EC-W","municipality":"Puerto Baquerizo Moreno","scheduled_service":"yes","icao_code":"SEST","iata_code":"SCY","gps_code":"SEST","wikipedia_link":"https://en.wikipedia.org/wiki/San_Cristóbal_Airport"},"geometry":{"type":"Point","coordinates":[-89.617401,-0.910206]}},{"id":"512872","type":"Feature","properties":{"ident":"SEED","type":"small_airport","name":"San Eduardo Airstrip","elevation_ft":"1001","continent":"SA","iso_country":"EC","iso_region":"EC-D","municipality":"San Eduardo","scheduled_service":"no","gps_code":"SEED"},"geometry":{"type":"Point","coordinates":[-77.302946,-0.365597]}},{"id":"513380","type":"Feature","properties":{"ident":"SEFM","type":"small_airport","name":"San Francisco de Macuma Airstrip","elevation_ft":"1689","continent":"SA","iso_country":"EC","iso_region":"EC-S","municipality":"San Francisco de Macuma","scheduled_service":"no","gps_code":"SEFM"},"geometry":{"type":"Point","coordinates":[-77.608323,-2.060004]}},{"id":"525309","type":"Feature","properties":{"ident":"SESH","type":"small_airport","name":"San Honorato Airport","elevation_ft":"20","continent":"SA","iso_country":"EC","iso_region":"EC-G","scheduled_service":"no","gps_code":"SESH"},"geometry":{"type":"Point","coordinates":[-79.680157,-1.113791]}},{"id":"513949","type":"Feature","properties":{"ident":"SEJG","type":"small_airport","name":"San Jacinto Airport","elevation_ft":"11","continent":"SA","iso_country":"EC","iso_region":"EC-G","municipality":"Yaguachi","scheduled_service":"no","gps_code":"SEJG"},"geometry":{"type":"Point","coordinates":[-79.672864,-2.084547]}},{"id":"514913","type":"Feature","properties":{"ident":"SESJ","type":"small_airport","name":"San José Airport","elevation_ft":"36","continent":"SA","iso_country":"EC","iso_region":"EC-G","municipality":"Hacienda San José","scheduled_service":"no","gps_code":"SESJ"},"geometry":{"type":"Point","coordinates":[-79.490485,-1.893894]}},{"id":"513956","type":"Feature","properties":{"ident":"SEJT","type":"small_airport","name":"San José de Taisha Airstrip","elevation_ft":"1457","continent":"SA","iso_country":"EC","iso_region":"EC-S","municipality":"Taisha","scheduled_service":"no","gps_code":"SEJT"},"geometry":{"type":"Point","coordinates":[-77.509117,-2.389295]}},{"id":"513959","type":"Feature","properties":{"ident":"SEJU","type":"small_airport","name":"San Juan Airstrip","elevation_ft":"1635","continent":"SA","iso_country":"EC","iso_region":"EC-S","municipality":"San Juan","scheduled_service":"no","gps_code":"SEJU","keywords":"Tres Marias"},"geometry":{"type":"Point","coordinates":[-77.519023,-2.105596]}},{"id":"514925","type":"Feature","properties":{"ident":"SESL","type":"small_airport","name":"San Lorenzo Airport","elevation_ft":"142","continent":"SA","iso_country":"EC","iso_region":"EC-E","municipality":"San Lorenzo","scheduled_service":"no","gps_code":"SESL"},"geometry":{"type":"Point","coordinates":[-78.797094,1.264791]}},{"id":"2174","type":"Feature","properties":{"ident":"SE09","type":"small_airport","name":"San Rafael Airport","elevation_ft":"190","continent":"SA","iso_country":"EC","iso_region":"EC-G","municipality":"Bucay","scheduled_service":"no","gps_code":"SESR","keywords":"SE09"},"geometry":{"type":"Point","coordinates":[-79.234887,-2.174602]}},{"id":"512584","type":"Feature","properties":{"ident":"SEXS","type":"small_airport","name":"San Simón Airstrip","elevation_ft":"200","continent":"SA","iso_country":"EC","iso_region":"EC-R","municipality":"Los Rios","scheduled_service":"no","gps_code":"SEXS"},"geometry":{"type":"Point","coordinates":[-79.365556,-0.749722]}},{"id":"514233","type":"Feature","properties":{"ident":"SEIM","type":"small_airport","name":"Santa María Airport","elevation_ft":"147","continent":"SA","iso_country":"EC","iso_region":"EC-G","municipality":"Naranjito","scheduled_service":"no","gps_code":"SEIM"},"geometry":{"type":"Point","coordinates":[-79.381905,-2.104494]}},{"id":"6075","type":"Feature","properties":{"ident":"SERO","type":"medium_airport","name":"Santa Rosa - Artillery Colonel Victor Larrea International Airport","elevation_ft":"20","continent":"SA","iso_country":"EC","iso_region":"EC-O","municipality":"Santa Rosa","scheduled_service":"yes","icao_code":"SERO","iata_code":"ETR","gps_code":"SERO","wikipedia_link":"https://en.wikipedia.org/wiki/Santa_Rosa_International_Airport","keywords":"Machala International Airport"},"geometry":{"type":"Point","coordinates":[-79.996957,-3.441986]}},{"id":"324021","type":"Feature","properties":{"ident":"EC-0019","type":"small_airport","name":"Santa Rosa 2 Airstrip","continent":"SA","iso_country":"EC","iso_region":"EC-S","scheduled_service":"no"},"geometry":{"type":"Point","coordinates":[-77.572687,-2.212734]}},{"id":"513815","type":"Feature","properties":{"ident":"SEIG","type":"small_airport","name":"Santiago Airport","elevation_ft":"999","continent":"SA","iso_country":"EC","iso_region":"EC-S","municipality":"Santiago","scheduled_service":"no","gps_code":"SEIG"},"geometry":{"type":"Point","coordinates":[-78.010229,-3.049372]}},{"id":"6077","type":"Feature","properties":{"ident":"SESD","type":"small_airport","name":"Santo Domingo de Los Colorados Airport","elevation_ft":"1640","continent":"SA","iso_country":"EC","iso_region":"EC-26","municipality":"Santo Domingo de Los Colorades","scheduled_service":"no","gps_code":"SESD"},"geometry":{"type":"Point","coordinates":[-79.209062,-0.248288]}},{"id":"505094","type":"Feature","properties":{"ident":"EC-0049","type":"small_airport","name":"Saraguro Army Airfield","elevation_ft":"187","continent":"SA","iso_country":"EC","iso_region":"EC-G","municipality":"San Antonio de Playas","scheduled_service":"no"},"geometry":{"type":"Point","coordinates":[-80.40968,-2.53345]}},{"id":"323812","type":"Feature","properties":{"ident":"EC-0011","type":"small_airport","name":"Sarayaku Airstrip","continent":"SA","iso_country":"EC","iso_region":"EC-Y","municipality":"Sarayaku","scheduled_service":"no"},"geometry":{"type":"Point","coordinates":[-77.485087,-1.739358]}},{"id":"513812","type":"Feature","properties":{"ident":"SEIF","type":"small_airport","name":"Sasain Airstrip","elevation_ft":"1150","continent":"SA","iso_country":"EC","iso_region":"EC-S","municipality":"Sasain","scheduled_service":"no","gps_code":"SEIF","keywords":"Taisha"},"geometry":{"type":"Point","coordinates":[-77.33273,-2.261075]}},{"id":"514878","type":"Feature","properties":{"ident":"SESB","type":"small_airport","name":"Sebastián Airstrip","elevation_ft":"845","continent":"SA","iso_country":"EC","iso_region":"EC-S","municipality":"Morona Santiago","scheduled_service":"no","gps_code":"SESB","keywords":"Chumbela, Sawastiab"},"geometry":{"type":"Point","coordinates":[-77.15722,-2.641853]}},{"id":"514887","type":"Feature","properties":{"ident":"SESE","type":"small_airport","name":"Secadal Airport","elevation_ft":"100","continent":"SA","iso_country":"EC","iso_region":"EC-G","municipality":"Jesús María","scheduled_service":"no","gps_code":"SESE","keywords":"Las Mercedes"},"geometry":{"type":"Point","coordinates":[-79.516547,-2.579977]}},{"id":"513036","type":"Feature","properties":{"ident":"SEEU","type":"small_airport","name":"Setuch Airstrip","elevation_ft":"899","continent":"SA","iso_country":"EC","iso_region":"EC-S","municipality":"Setuch","scheduled_service":"no","gps_code":"SEEU","keywords":"Situchi"},"geometry":{"type":"Point","coordinates":[-77.281829,-2.794536]}},{"id":"6055","type":"Feature","properties":{"ident":"SEGS","type":"small_airport","name":"Seymour Galapagos Ecological Airport","elevation_ft":"207","continent":"SA","iso_country":"EC","iso_region":"EC-W","municipality":"Isla Baltra","scheduled_service":"yes","icao_code":"SEGS","iata_code":"GPS","gps_code":"SEGS","wikipedia_link":"https://en.wikipedia.org/wiki/Seymour_Airport"},"geometry":{"type":"Point","coordinates":[-90.2659,-0.453758]}},{"id":"324029","type":"Feature","properties":{"ident":"EC-0027","type":"small_airport","name":"Shaimi Airstrip","elevation_ft":"1464","continent":"SA","iso_country":"EC","iso_region":"EC-Y","municipality":"Shaimi","scheduled_service":"no","gps_code":"SEHX","keywords":"Tutaguana"},"geometry":{"type":"Point","coordinates":[-77.505011,-1.926173]}},{"id":"324026","type":"Feature","properties":{"ident":"EC-0024","type":"small_airport","name":"Sharamentza Airstrip","elevation_ft":"997","continent":"SA","iso_country":"EC","iso_region":"EC-Y","municipality":"Sharamentza","scheduled_service":"no","gps_code":"SEAW","keywords":"Jibaría Añangu"},"geometry":{"type":"Point","coordinates":[-76.992629,-2.463387]}},{"id":"514875","type":"Feature","properties":{"ident":"SEKX","type":"small_airport","name":"Shinkiatam Airstrip","elevation_ft":"925","continent":"SA","iso_country":"EC","iso_region":"EC-S","municipality":"Chimbucta","scheduled_service":"no","gps_code":"SEKX"},"geometry":{"type":"Point","coordinates":[-77.459466,-2.462189]}},{"id":"513040","type":"Feature","properties":{"ident":"SEEZ","type":"small_airport","name":"Shiramentza Airstrip","elevation_ft":"738","continent":"SA","iso_country":"EC","iso_region":"EC-S","municipality":"Shiramentza","scheduled_service":"no","gps_code":"SEEZ"},"geometry":{"type":"Point","coordinates":[-77.556644,-2.750557]}},{"id":"514911","type":"Feature","properties":{"ident":"SESF","type":"small_airport","name":"Shushufindi Airport","elevation_ft":"844","continent":"SA","iso_country":"EC","iso_region":"EC-U","municipality":"Shushufind","scheduled_service":"no","gps_code":"SESF","keywords":"San Francisco"},"geometry":{"type":"Point","coordinates":[-76.648237,-0.195626]}},{"id":"513771","type":"Feature","properties":{"ident":"SEHW","type":"small_airport","name":"Shuwin Mamus Airstrip","elevation_ft":"899","continent":"SA","iso_country":"EC","iso_region":"EC-S","municipality":"Shuwin Mamus","scheduled_service":"no","gps_code":"SEHW","keywords":"Shuin, Shuim"},"geometry":{"type":"Point","coordinates":[-77.039586,-2.465768]}},{"id":"514027","type":"Feature","properties":{"ident":"SEKL","type":"small_airport","name":"Silok Airport","elevation_ft":"825","continent":"SA","iso_country":"EC","iso_region":"EC-26","municipality":"La Concordia","scheduled_service":"no","gps_code":"SEKL"},"geometry":{"type":"Point","coordinates":[-79.366315,-0.03085]}},{"id":"2178","type":"Feature","properties":{"ident":"SE58","type":"small_airport","name":"Solbananas Airport","elevation_ft":"9","continent":"SA","iso_country":"EC","iso_region":"EC-O","municipality":"Buenavista","scheduled_service":"no","gps_code":"SEBA","keywords":"SE58, Banasur"},"geometry":{"type":"Point","coordinates":[-79.8638,-3.34094]}},{"id":"32391","type":"Feature","properties":{"ident":"SESC","type":"small_airport","name":"Sucúa Airport","elevation_ft":"3116","continent":"SA","iso_country":"EC","iso_region":"EC-S","municipality":"Sucúa","scheduled_service":"no","icao_code":"SESC","iata_code":"SUQ","gps_code":"SESC","wikipedia_link":"https://en.wikipedia.org/wiki/Suc%C3%BAa_Airport"},"geometry":{"type":"Point","coordinates":[-78.169041,-2.474201]}},{"id":"512404","type":"Feature","properties":{"ident":"SEZR","type":"small_airport","name":"Surik Nuevo Airstrip","elevation_ft":"1099","continent":"SA","iso_country":"EC","iso_region":"EC-S","municipality":"Surikentza","scheduled_service":"no","gps_code":"SEZR"},"geometry":{"type":"Point","coordinates":[-77.089405,-2.598404]}},