{"type":"FeatureCollection","features":[{"id":"3112","type":"Feature","properties":{"ident":"GMML","type":"medium_airport","name":"Hassan I Airport","elevation_ft":"207","continent":"AF","iso_country":"EH","iso_region":"EH-U-A","municipality":"El Aaiún","scheduled_service":"yes","gps_code":"GMML","iata_code":"EUN","wikipedia_link":"https://en.wikipedia.org/wiki/Hassan_Airport","keywords":"GSAI, Laâyoune"},"geometry":{"type":"Point","coordinates":[-13.224947,27.142467]}},{"id":"3110","type":"Feature","properties":{"ident":"GMMH","type":"medium_airport","name":"Dakhla Airport","elevation_ft":"36","continent":"AF","iso_country":"EH","iso_region":"EH-U-A","municipality":"Dakhla","scheduled_service":"yes","gps_code":"GMMH","iata_code":"VIL","wikipedia_link":"https://en.wikipedia.org/wiki/Dakhla_Airport","keywords":"GSVO, Villa Cisneros, Dajla, Oued Ed-Dahab"},"geometry":{"type":"Point","coordinates":[-15.932,23.7183]}},{"id":"3108","type":"Feature","properties":{"ident":"GMMA","type":"medium_airport","name":"Smara Airport","elevation_ft":"350","continent":"AF","iso_country":"EH","iso_region":"EH-U-A","municipality":"Smara","scheduled_service":"yes","gps_code":"GMMA","iata_code":"SMW","wikipedia_link":"https://en.wikipedia.org/wiki/Smara_Airport","keywords":"GSMA, Semara"},"geometry":{"type":"Point","coordinates":[-11.683655,26.731987]}},{"id":"332605","type":"Feature","properties":{"ident":"GMAR","type":"small_airport","name":"Al Mahbes Airstrip","elevation_ft":"1520","continent":"AF","iso_country":"EH","iso_region":"EH-U-A","municipality":"Al Mahbes","scheduled_service":"no","local_code":"AG5964"},"geometry":{"type":"Point","coordinates":[-9.073016,27.409695]}},{"id":"429808","type":"Feature","properties":{"ident":"EH-0023","type":"heliport","name":"Barbas Heliport","continent":"AF","iso_country":"EH","iso_region":"EH-U-A","municipality":"Barbas","scheduled_service":"no"},"geometry":{"type":"Point","coordinates":[-16.75565,22.05675]}},{"id":"429807","type":"Feature","properties":{"ident":"EH-0022","type":"heliport","name":"Barbas Heliport","continent":"AF","iso_country":"EH","iso_region":"EH-U-A","municipality":"Barbas","scheduled_service":"no"},"geometry":{"type":"Point","coordinates":[-16.75565,22.05675]}},{"id":"429806","type":"Feature","properties":{"ident":"EH-0021","type":"heliport","name":"Bir Gandouz Heliport","continent":"AF","iso_country":"EH","iso_region":"EH-U-A","municipality":"Bir Gandouz","scheduled_service":"no"},"geometry":{"type":"Point","coordinates":[-16.46674,21.61217]}},{"id":"429805","type":"Feature","properties":{"ident":"EH-0020","type":"small_airport","name":"Guerguerat Airport","continent":"AF","iso_country":"EH","iso_region":"EH-U-A","municipality":"Guerguerat","scheduled_service":"no"},"geometry":{"type":"Point","coordinates":[-16.95683,21.3915]}},{"id":"429804","type":"Feature","properties":{"ident":"EH-0019","type":"heliport","name":"Guerguerat Border Heliport","continent":"AF","iso_country":"EH","iso_region":"EH-U-A","municipality":"Guerguerat","scheduled_service":"no"},"geometry":{"type":"Point","coordinates":[-16.95759,21.369]}},{"id":"429803","type":"Feature","properties":{"ident":"EH-0018","type":"heliport","name":"El Argoub Heliport","continent":"AF","iso_country":"EH","iso_region":"EH-U-A","municipality":"El Argoub","scheduled_service":"no"},"geometry":{"type":"Point","coordinates":[-15.87001,23.60283]}},{"id":"429802","type":"Feature","properties":{"ident":"EH-0017","type":"heliport","name":"Aousserd MINURSO Heliport","continent":"AF","iso_country":"EH","iso_region":"EH-U-A","municipality":"Aousserd","scheduled_service":"no"},"geometry":{"type":"Point","coordinates":[-14.33507,22.56279]}},{"id":"429801","type":"Feature","properties":{"ident":"EH-0016","type":"small_airport","name":"Aousserd MINURSO Airstrip","continent":"AF","iso_country":"EH","iso_region":"EH-U-A","municipality":"Aousserd","scheduled_service":"no"},"geometry":{"type":"Point","coordinates":[-14.35505,22.5831]}},{"id":"347422","type":"Feature","properties":{"ident":"EH-0015","type":"heliport","name":"Mijek Heliport","elevation_ft":"911","continent":"AF","iso_country":"EH","iso_region":"EH-U-A","municipality":"Mijek","scheduled_service":"no"},"geometry":{"type":"Point","coordinates":[-12.81737,23.44641]}},{"id":"347420","type":"Feature","properties":{"ident":"EH-0014","type":"heliport","name":"Bir Lehlou Heliport","elevation_ft":"1545","continent":"AF","iso_country":"EH","iso_region":"EH-U-A","municipality":"Bir Lehlou","scheduled_service":"no"},"geometry":{"type":"Point","coordinates":[-9.54894,26.32541]}},{"id":"347418","type":"Feature","properties":{"ident":"EH-0013","type":"small_airport","name":"Agounit Airport","continent":"AF","iso_country":"EH","iso_region":"EH-U-A","municipality":"Agounit","scheduled_service":"no"},"geometry":{"type":"Point","coordinates":[-13.14609,22.20343]}},{"id":"347417","type":"Feature","properties":{"ident":"EH-0012","type":"heliport","name":"Dcheira Heliport","continent":"AF","iso_country":"EH","iso_region":"EH-U-A","municipality":"Dcheira","scheduled_service":"no"},"geometry":{"type":"Point","coordinates":[-12.98781,27.00162]}},{"id":"347416","type":"Feature","properties":{"ident":"EH-0011","type":"small_airport","name":"Boukraa Airport","continent":"AF","iso_country":"EH","iso_region":"EH-U-A","municipality":"Boukraa","scheduled_service":"no"},"geometry":{"type":"Point","coordinates":[-12.84913,26.35988]}},{"id":"347415","type":"Feature","properties":{"ident":"EH-0010","type":"heliport","name":"Gueltat Zemmour Heliport","continent":"AF","iso_country":"EH","iso_region":"EH-U-A","municipality":"Gueltat Zemmour","scheduled_service":"no"},"geometry":{"type":"Point","coordinates":[-12.36986,25.15038]}},{"id":"347414","type":"Feature","properties":{"ident":"EH-0009","type":"heliport","name":"Boujdour Military Heliport","continent":"AF","iso_country":"EH","iso_region":"EH-U-A","municipality":"Boujdour","scheduled_service":"no"},"geometry":{"type":"Point","coordinates":[-14.48609,26.10788]}},{"id":"347413","type":"Feature","properties":{"ident":"EH-0008","type":"small_airport","name":"Al Farssia Airstrip","continent":"AF","iso_country":"EH","iso_region":"EH-U-A","municipality":"Al Farssia","scheduled_service":"no"},"geometry":{"type":"Point","coordinates":[-9.47312,27.24568]}},{"id":"347412","type":"Feature","properties":{"ident":"EH-0007","type":"small_airport","name":"Al Mahbes UN Airstrip","continent":"AF","iso_country":"EH","iso_region":"EH-U-A","municipality":"Al Mahbes","scheduled_service":"no"},"geometry":{"type":"Point","coordinates":[-9.171517,27.418767]}},{"id":"347411","type":"Feature","properties":{"ident":"EH-0006","type":"heliport","name":"Oum Dreyga Heliport","elevation_ft":"931","continent":"AF","iso_country":"EH","iso_region":"EH-U-A","municipality":"Oum Dreyga","scheduled_service":"no"},"geometry":{"type":"Point","coordinates":[-13.327454,24.109193]}},{"id":"347410","type":"Feature","properties":{"ident":"EH-0005","type":"small_airport","name":"Oum Dreyga Airfield","elevation_ft":"948","continent":"AF","iso_country":"EH","iso_region":"EH-U-A","municipality":"Oum Dreyga","scheduled_service":"no"},"geometry":{"type":"Point","coordinates":[-13.3113,24.0917]}},{"id":"347409","type":"Feature","properties":{"ident":"EH-0004","type":"heliport","name":"Bir Anzarane Heliport","elevation_ft":"640","continent":"AF","iso_country":"EH","iso_region":"EH-U-A","municipality":"Bir Anzarane","scheduled_service":"no"},"geometry":{"type":"Point","coordinates":[-14.53183,23.88641]}},{"id":"347408","type":"Feature","properties":{"ident":"EH-0003","type":"heliport","name":"Tichla Heliport","elevation_ft":"650","continent":"AF","iso_country":"EH","iso_region":"EH-U-A","municipality":"Tichla","scheduled_service":"no"},"geometry":{"type":"Point","coordinates":[-14.89377,21.63065]}},{"id":"347407","type":"Feature","properties":{"ident":"EH-0002","type":"heliport","name":"Aousserd Heliport","elevation_ft":"1047","continent":"AF","iso_country":"EH","iso_region":"EH-U-A","municipality":"Aousserd","scheduled_service":"no"},"geometry":{"type":"Point","coordinates":[-14.31462,22.5636]}},{"id":"318923","type":"Feature","properties":{"ident":"EH-0001","type":"small_airport","name":"Tifariti Airstrip","elevation_ft":"1624","continent":"AF","iso_country":"EH","iso_region":"EH-U-A","municipality":"Tifariti","scheduled_service":"no","keywords":"GSSM"},"geometry":{"type":"Point","coordinates":[-10.564245,26.15126]}}]}