{"type":"FeatureCollection","features":[{"id":"355321","type":"Feature","properties":{"ident":"ES-0306","type":"heliport","name":"(Duplicate)Vielha Heliport","elevation_ft":"3372","continent":"AF","iso_country":"ES","iso_region":"ES-CT","municipality":"Carrèr deth Taro","scheduled_service":"no","keywords":"LEVH"},"geometry":{"type":"Point","coordinates":[-1,-1]}},{"id":"518334","type":"Feature","properties":{"ident":"LEDE","type":"small_airport","name":"[Duplicate] Aerodel","elevation_ft":"307","continent":"EU","iso_country":"ES","iso_region":"ES-AN","municipality":"Cordoba","scheduled_service":"no","gps_code":"LEDE","local_code":"LEDE","home_link":"https://www.aeronauticadelgado.com/web/aerodromo/","keywords":"Aerodel"},"geometry":{"type":"Point","coordinates":[-4.896426,37.836632]}},{"id":"4007","type":"Feature","properties":{"ident":"LECO","type":"medium_airport","name":"A Coruña Airport","elevation_ft":"326","continent":"EU","iso_country":"ES","iso_region":"ES-GA","municipality":"Culleredo","scheduled_service":"yes","gps_code":"LECO","iata_code":"LCG","home_link":"https://www.aena.es/en/a-coruna.html","wikipedia_link":"https://en.wikipedia.org/wiki/A_Coru%C3%B1a_Airport","keywords":"The Groyne, La Coruña"},"geometry":{"type":"Point","coordinates":[-8.37726,43.302101]}},{"id":"341521","type":"Feature","properties":{"ident":"ES-0281","type":"heliport","name":"A Coruña Fire Station Heliport","continent":"EU","iso_country":"ES","iso_region":"ES-GA","municipality":"A Coruña","scheduled_service":"no"},"geometry":{"type":"Point","coordinates":[-7.85429,43.45399]}},{"id":"4019","type":"Feature","properties":{"ident":"LEMD","type":"large_airport","name":"Adolfo Suárez Madrid–Barajas Airport","elevation_ft":"1998","continent":"EU","iso_country":"ES","iso_region":"ES-MD","municipality":"Madrid","scheduled_service":"yes","gps_code":"LEMD","iata_code":"MAD","home_link":"https://www.aena.es/en/adolfo-suarez-madrid-barajas.html","wikipedia_link":"https://en.wikipedia.org/wiki/Adolfo_Su%C3%A1rez_Madrid%E2%80%93Barajas_Airport","keywords":"Leganés, Madrid Barajas International Airport"},"geometry":{"type":"Point","coordinates":[-3.56264,40.471926]}},{"id":"315969","type":"Feature","properties":{"ident":"ES-0028","type":"small_airport","name":"AeroCieza","continent":"EU","iso_country":"ES","iso_region":"ES-MC","scheduled_service":"no"},"geometry":{"type":"Point","coordinates":[-1.456967,38.32305]}},{"id":"316682","type":"Feature","properties":{"ident":"ES-0037","type":"small_airport","name":"Aeroclub Alto Palancia","continent":"EU","iso_country":"ES","iso_region":"ES-VC","municipality":"Sot de Ferrer","scheduled_service":"no"},"geometry":{"type":"Point","coordinates":[-0.418318,39.79781]}},{"id":"321564","type":"Feature","properties":{"ident":"ES-0193","type":"small_airport","name":"Aeroclub Arnao UL","elevation_ft":"69","continent":"EU","iso_country":"ES","iso_region":"ES-AS","municipality":"Arnao","scheduled_service":"no"},"geometry":{"type":"Point","coordinates":[-7.0168,43.553167]}},{"id":"315437","type":"Feature","properties":{"ident":"ES-0017","type":"small_airport","name":"Aeroclub Cáceres","elevation_ft":"1350","continent":"EU","iso_country":"ES","iso_region":"ES-EX","municipality":"La Cervera","scheduled_service":"no"},"geometry":{"type":"Point","coordinates":[-6.343611,39.329167]}},{"id":"321165","type":"Feature","properties":{"ident":"ES-0131","type":"small_airport","name":"Aeroclub de Barbastro","continent":"EU","iso_country":"ES","iso_region":"ES-AR","municipality":"Barbastro","scheduled_service":"no"},"geometry":{"type":"Point","coordinates":[0.092153,41.994251]}},{"id":"321292","type":"Feature","properties":{"ident":"ES-0139","type":"small_airport","name":"Aeroclub Gregal","elevation_ft":"30","continent":"EU","iso_country":"ES","iso_region":"ES-VC","municipality":"Albalat de la Ribera","scheduled_service":"no","home_link":"http://volarenvalencia.es"},"geometry":{"type":"Point","coordinates":[-0.36825,39.220457]}},{"id":"321113","type":"Feature","properties":{"ident":"ES-0127","type":"small_airport","name":"Aeroclub L’Estartit","elevation_ft":"10","continent":"EU","iso_country":"ES","iso_region":"ES-CT","municipality":"Estartit","scheduled_service":"no"},"geometry":{"type":"Point","coordinates":[3.179331,42.031034]}},{"id":"316063","type":"Feature","properties":{"ident":"ES-0035","type":"small_airport","name":"Aeroclub Mar Menor","elevation_ft":"289","continent":"EU","iso_country":"ES","iso_region":"ES-MC","municipality":"San Javier","scheduled_service":"no","gps_code":"LELG","keywords":"Los Garranchos"},"geometry":{"type":"Point","coordinates":[-0.881111,37.845278]}},{"id":"316065","type":"Feature","properties":{"ident":"ES-0036","type":"small_airport","name":"Aeroclub Totana","continent":"EU","iso_country":"ES","iso_region":"ES-MC","municipality":"Totana","scheduled_service":"no","gps_code":"LETX"},"geometry":{"type":"Point","coordinates":[-1.4487,37.753083]}},{"id":"321093","type":"Feature","properties":{"ident":"ES-0123","type":"small_airport","name":"Aerodrom Tapioles","elevation_ft":"787","continent":"EU","iso_country":"ES","iso_region":"ES-CT","municipality":"Tortellà","scheduled_service":"no"},"geometry":{"type":"Point","coordinates":[2.615891,42.225478]}},{"id":"320774","type":"Feature","properties":{"ident":"ES-0102","type":"small_airport","name":"Aerodromo de Sesma","elevation_ft":"1476","continent":"EU","iso_country":"ES","iso_region":"ES-NC","municipality":"Sesma","scheduled_service":"no"},"geometry":{"type":"Point","coordinates":[-2.027204,42.425252]}},{"id":"343803","type":"Feature","properties":{"ident":"ES-0296","type":"small_airport","name":"Aerodromo de Sevares","continent":"EU","iso_country":"ES","iso_region":"ES-AS","municipality":"Piloña","scheduled_service":"no"},"geometry":{"type":"Point","coordinates":[-5.24199,43.36372]}},{"id":"320412","type":"Feature","properties":{"ident":"ES-0054","type":"small_airport","name":"Aerodromo de Villanueva de Gallego","continent":"EU","iso_country":"ES","iso_region":"ES-AR","municipality":"Villanueva de Gallego","scheduled_service":"no"},"geometry":{"type":"Point","coordinates":[-0.848033,41.7856]}},{"id":"320776","type":"Feature","properties":{"ident":"ES-0104","type":"small_airport","name":"Aerodromo El Busto","elevation_ft":"2648","continent":"EU","iso_country":"ES","iso_region":"ES-CL","municipality":"Santa Maria del Páramo","scheduled_service":"no","keywords":"Aeroclub Esparver"},"geometry":{"type":"Point","coordinates":[-5.803481,42.34463]}},{"id":"315895","type":"Feature","properties":{"ident":"ES-0027","type":"small_airport","name":"Aerodromo El Judio","continent":"EU","iso_country":"ES","iso_region":"ES-AN","scheduled_service":"no"},"geometry":{"type":"Point","coordinates":[-4.709658,37.840394]}},{"id":"320444","type":"Feature","properties":{"ident":"ES-0064","type":"small_airport","name":"Aerodromo Vistabella del Maestrat","elevation_ft":"2953","continent":"EU","iso_country":"ES","iso_region":"ES-VC","municipality":"Vistabella del Maestrat","scheduled_service":"no"},"geometry":{"type":"Point","coordinates":[-0.300633,40.33185]}},{"id":"320414","type":"Feature","properties":{"ident":"ES-0056","type":"small_airport","name":"Aerodrómo de la Calderina","elevation_ft":"3281","continent":"EU","iso_country":"ES","iso_region":"ES-CM","scheduled_service":"no"},"geometry":{"type":"Point","coordinates":[-3.831152,39.296287]}},{"id":"320170","type":"Feature","properties":{"ident":"ES-0049","type":"small_airport","name":"Aerodrómo de Sanchidrián","elevation_ft":"2789","continent":"EU","iso_country":"ES","iso_region":"ES-CL","municipality":"Sanchidrián","scheduled_service":"no"},"geometry":{"type":"Point","coordinates":[-4.609617,40.89995]}},{"id":"321430","type":"Feature","properties":{"ident":"ES-0163","type":"small_airport","name":"Aeroguillena","elevation_ft":"197","continent":"EU","iso_country":"ES","iso_region":"ES-AN","municipality":"Guillena","scheduled_service":"no","home_link":"http://www.aeroguillena.com"},"geometry":{"type":"Point","coordinates":[-6.030824,37.561238]}},{"id":"316061","type":"Feature","properties":{"ident":"ES-0033","type":"small_airport","name":"Aerohíspalis","elevation_ft":"140","continent":"EU","iso_country":"ES","iso_region":"ES-AN","municipality":"Mairena del Alcor","scheduled_service":"no","gps_code":"LEAH","home_link":"http://www.aerohispalis.com/donde-estamos/","keywords":"Los Alcores"},"geometry":{"type":"Point","coordinates":[-5.722783,37.3297]}},{"id":"316062","type":"Feature","properties":{"ident":"ES-0034","type":"small_airport","name":"AeroNiebla","elevation_ft":"100","continent":"EU","iso_country":"ES","iso_region":"ES-AN","municipality":"Niebla","scheduled_service":"no","home_link":"http://www.aeroniebla.com"},"geometry":{"type":"Point","coordinates":[-6.683889,37.349722]}},{"id":"315438","type":"Feature","properties":{"ident":"ES-0018","type":"small_airport","name":"AeroSidonia","continent":"EU","iso_country":"ES","iso_region":"ES-AN","scheduled_service":"no"},"geometry":{"type":"Point","coordinates":[-5.94093,36.44026]}},{"id":"320565","type":"Feature","properties":{"ident":"ES-0076","type":"small_airport","name":"AeroVeleta ULM","elevation_ft":"2444","continent":"EU","iso_country":"ES","iso_region":"ES-AN","municipality":"Caparacena, Granada","scheduled_service":"no","home_link":"http://http://aeroveleta.es/"},"geometry":{"type":"Point","coordinates":[-3.712869,37.294754]}},{"id":"315470","type":"Feature","properties":{"ident":"ES-0021","type":"small_airport","name":"Aeròdrom d'Avinyonet","continent":"EU","iso_country":"ES","iso_region":"ES-CT","municipality":"Avinyó Nou","scheduled_service":"no"},"geometry":{"type":"Point","coordinates":[1.766867,41.367985]}},{"id":"321703","type":"Feature","properties":{"ident":"ES-0216","type":"small_airport","name":"Aeròdrom de Cervera","continent":"EU","iso_country":"ES","iso_region":"ES-CT","municipality":"Cervera","scheduled_service":"no"},"geometry":{"type":"Point","coordinates":[1.250494,41.687597]}},{"id":"321442","type":"Feature","properties":{"ident":"ES-0170","type":"small_airport","name":"Aeròdrom de Foixà","elevation_ft":"443","continent":"EU","iso_country":"ES","iso_region":"ES-CT","municipality":"Foixà","scheduled_service":"no"},"geometry":{"type":"Point","coordinates":[2.990761,42.029933]}},{"id":"321131","type":"Feature","properties":{"ident":"ES-0128","type":"small_airport","name":"Aeròdrom de Llabiá","continent":"EU","iso_country":"ES","iso_region":"ES-CT","municipality":"Llabiá","scheduled_service":"no"},"geometry":{"type":"Point","coordinates":[3.089483,42.011798]}},{"id":"315469","type":"Feature","properties":{"ident":"ES-0020","type":"small_airport","name":"Aeròdrom de Pals","continent":"EU","iso_country":"ES","iso_region":"ES-CT","scheduled_service":"no"},"geometry":{"type":"Point","coordinates":[3.151918,42.00699]}},{"id":"321047","type":"Feature","properties":{"ident":"ES-0115","type":"small_airport","name":"Aeròdrom de Viladamat","continent":"EU","iso_country":"ES","iso_region":"ES-CT","municipality":"Viladamat","scheduled_service":"no"},"geometry":{"type":"Point","coordinates":[3.051141,42.142843]}},{"id":"320443","type":"Feature","properties":{"ident":"ES-0063","type":"small_airport","name":"Aeròdrom del Pla de Bages","elevation_ft":"886","continent":"EU","iso_country":"ES","iso_region":"ES-CT","municipality":"Sallent","scheduled_service":"no"},"geometry":{"type":"Point","coordinates":[1.890361,41.777586]}},{"id":"321462","type":"Feature","properties":{"ident":"ES-0173","type":"small_airport","name":"Aeròdrom Municipal El Pla de Santa María","elevation_ft":"1345","continent":"EU","iso_country":"ES","iso_region":"ES-CT","municipality":"El Pla de Santa María","scheduled_service":"no","keywords":"Les Escarbones"},"geometry":{"type":"Point","coordinates":[1.30375,41.371467]}},{"id":"321571","type":"Feature","properties":{"ident":"ES-0194","type":"small_airport","name":"Aeródrome de Arcones","continent":"EU","iso_country":"ES","iso_region":"ES-CL","municipality":"Arcones","scheduled_service":"no"},"geometry":{"type":"Point","coordinates":[-3.73378,41.11453]}},{"id":"331944","type":"Feature","properties":{"ident":"ES-0264","type":"small_airport","name":"Aeródromo  Forestal Villaviciosa de Córdoba","elevation_ft":"2067","continent":"EU","iso_country":"ES","iso_region":"ES-AN","scheduled_service":"no"},"geometry":{"type":"Point","coordinates":[-5.04182,38.05406]}},{"id":"321046","type":"Feature","properties":{"ident":"ES-0114","type":"small_airport","name":"Aeródromo \"Puente de Genave\"","elevation_ft":"1837","continent":"EU","iso_country":"ES","iso_region":"ES-AN","scheduled_service":"no","keywords":"Hotel Don Juan"},"geometry":{"type":"Point","coordinates":[-2.794175,38.366678]}},{"id":"320471","type":"Feature","properties":{"ident":"ES-0065","type":"small_airport","name":"Aeródromo Aerópolis","elevation_ft":"1509","continent":"EU","iso_country":"ES","iso_region":"ES-CM","municipality":"El Casar de Escalona","scheduled_service":"no"},"geometry":{"type":"Point","coordinates":[-4.558266,40.020804]}},{"id":"320513","type":"Feature","properties":{"ident":"ES-0070","type":"small_airport","name":"Aeródromo Alcalá del Río","elevation_ft":"144","continent":"EU","iso_country":"ES","iso_region":"ES-AN","municipality":"Alcalá del Río","scheduled_service":"no","home_link":"http://www.aeroilipamagna.com","keywords":"Ilipa Magna"},"geometry":{"type":"Point","coordinates":[-5.980612,37.553279]}},{"id":"321510","type":"Feature","properties":{"ident":"ES-0183","type":"small_airport","name":"Aeródromo Belvis de Monroy","elevation_ft":"1017","continent":"EU","iso_country":"ES","iso_region":"ES-EX","municipality":"Belvis de Monroy","scheduled_service":"no"},"geometry":{"type":"Point","coordinates":[-5.601526,39.851363]}},{"id":"320707","type":"Feature","properties":{"ident":"ES-0088","type":"small_airport","name":"Aeródromo Benagéber","elevation_ft":"2871","continent":"EU","iso_country":"ES","iso_region":"ES-VC","municipality":"Benagéber","scheduled_service":"no"},"geometry":{"type":"Point","coordinates":[-1.139396,39.735148]}},{"id":"321608","type":"Feature","properties":{"ident":"ES-0207","type":"small_airport","name":"Aeródromo Calzada de Valdunciel","elevation_ft":"2625","continent":"EU","iso_country":"ES","iso_region":"ES-CL","municipality":"Calzada de Valdunciel","scheduled_service":"no","gps_code":"LEUN"},"geometry":{"type":"Point","coordinates":[-5.728036,41.07545]}},{"id":"321477","type":"Feature","properties":{"ident":"ES-0177","type":"small_airport","name":"Aeródromo Coria","elevation_ft":"735","continent":"EU","iso_country":"ES","iso_region":"ES-EX","municipality":"Coria","scheduled_service":"no"},"geometry":{"type":"Point","coordinates":[-6.554554,39.984617]}},{"id":"321361","type":"Feature","properties":{"ident":"ES-0145","type":"small_airport","name":"Aeródromo Coscojuela de Sobrarbe","elevation_ft":"1788","continent":"EU","iso_country":"ES","iso_region":"ES-AR","municipality":"Ainsa","scheduled_service":"no"},"geometry":{"type":"Point","coordinates":[0.18613,42.3487]}},{"id":"319456","type":"Feature","properties":{"ident":"ES-0039","type":"small_airport","name":"Aeródromo de Alcazarén","elevation_ft":"2526","continent":"EU","iso_country":"ES","iso_region":"ES-CL","municipality":"Alcazarén","scheduled_service":"no","home_link":"http://www.alcazarenvuelo.com","wikipedia_link":"https://es.wikipedia.org/wiki/Aer%C3%B3dromo_de_Alcazar%C3%A9n"},"geometry":{"type":"Point","coordinates":[-4.695833,41.372778]}},{"id":"321580","type":"Feature","properties":{"ident":"ES-0199","type":"small_airport","name":"Aeródromo de Aldeacentenara","elevation_ft":"1772","continent":"EU","iso_country":"ES","iso_region":"ES-EX","municipality":"Aldeacentenara","scheduled_service":"no"},"geometry":{"type":"Point","coordinates":[-5.663722,39.560917]}},{"id":"320761","type":"Feature","properties":{"ident":"ES-0100","type":"small_airport","name":"Aeródromo de Algodor","elevation_ft":"1608","continent":"EU","iso_country":"ES","iso_region":"ES-CM","municipality":"Algodor (Toledo)","scheduled_service":"no","gps_code":"LETG","keywords":"Casarrubias"},"geometry":{"type":"Point","coordinates":[-3.874655,39.898329]}},{"id":"321514","type":"Feature","properties":{"ident":"ES-0186","type":"small_airport","name":"Aeródromo de Almorox","elevation_ft":"1575","continent":"EU","iso_country":"ES","iso_region":"ES-CM","municipality":"Almorox","scheduled_service":"no"},"geometry":{"type":"Point","coordinates":[-4.386763,40.211628]}},{"id":"309923","type":"Feature","properties":{"ident":"ES-0010","type":"small_airport","name":"Aeródromo de Antela","elevation_ft":"2024","continent":"EU","iso_country":"ES","iso_region":"ES-GA","municipality":"Xinzo de Limia","scheduled_service":"no"},"geometry":{"type":"Point","coordinates":[-7.7118,42.1045]}},{"id":"320413","type":"Feature","properties":{"ident":"ES-0055","type":"small_airport","name":"Aeródromo de Antequera","elevation_ft":"1903","continent":"EU","iso_country":"ES","iso_region":"ES-AN","municipality":"Antequera","scheduled_service":"no"},"geometry":{"type":"Point","coordinates":[-4.562567,37.10165]}},{"id":"320515","type":"Feature","properties":{"ident":"ES-0072","type":"small_airport","name":"Aeródromo de Beariz","elevation_ft":"2589","continent":"EU","iso_country":"ES","iso_region":"ES-GA","municipality":"Beariz","scheduled_service":"no"},"geometry":{"type":"Point","coordinates":[-8.339674,42.460951]}},{"id":"320246","type":"Feature","properties":{"ident":"ES-0051","type":"small_airport","name":"Aeródromo de Binéfar","elevation_ft":"1312","continent":"EU","iso_country":"ES","iso_region":"ES-AR","municipality":"Binéfar","scheduled_service":"no","gps_code":"LEBF","home_link":"http://aeroclubbinefar.com"},"geometry":{"type":"Point","coordinates":[0.254904,41.853613]}},{"id":"321478","type":"Feature","properties":{"ident":"ES-0178","type":"small_airport","name":"Aeródromo de Brunete","elevation_ft":"1975","continent":"EU","iso_country":"ES","iso_region":"ES-MD","municipality":"Brunete","scheduled_service":"no"},"geometry":{"type":"Point","coordinates":[-4.023712,40.396556]}},{"id":"321718","type":"Feature","properties":{"ident":"ES-0219","type":"small_airport","name":"Aeródromo de Camarenilla","elevation_ft":"1742","continent":"EU","iso_country":"ES","iso_region":"ES-CM","municipality":"Camarenilla","scheduled_service":"no","gps_code":"LERN","home_link":"http://www.volarenavioneta.es"},"geometry":{"type":"Point","coordinates":[-4.071202,40.024702]}},{"id":"320543","type":"Feature","properties":{"ident":"ES-0073","type":"small_airport","name":"Aeródromo de Caravaca de la Cruz","elevation_ft":"2625","continent":"EU","iso_country":"ES","iso_region":"ES-MC","scheduled_service":"no"},"geometry":{"type":"Point","coordinates":[-1.92201,38.0468]}},{"id":"321463","type":"Feature","properties":{"ident":"ES-0174","type":"small_airport","name":"Aeródromo de Cillamayor","elevation_ft":"3215","continent":"EU","iso_country":"ES","iso_region":"ES-CL","municipality":"Cillamayor","scheduled_service":"no","gps_code":"LEUC"},"geometry":{"type":"Point","coordinates":[-4.279289,42.851348]}},{"id":"321029","type":"Feature","properties":{"ident":"ES-0110","type":"small_airport","name":"Aeródromo de Córdoba-Villarrubia","continent":"EU","iso_country":"ES","iso_region":"ES-AN","municipality":"Villarrubia","scheduled_service":"no"},"geometry":{"type":"Point","coordinates":[-4.896437,37.836725]}},{"id":"321576","type":"Feature","properties":{"ident":"ES-0197","type":"small_airport","name":"Aeródromo de Espiel","elevation_ft":"2362","continent":"EU","iso_country":"ES","iso_region":"ES-AN","municipality":"Espiel","scheduled_service":"no"},"geometry":{"type":"Point","coordinates":[-5.0442,38.262867]}},{"id":"321508","type":"Feature","properties":{"ident":"ES-0181","type":"small_airport","name":"Aeródromo de Fuente Obejuna","elevation_ft":"2083","continent":"EU","iso_country":"ES","iso_region":"ES-AN","municipality":"Fuente Obejuna","scheduled_service":"no","keywords":"Ela Aviación"},"geometry":{"type":"Point","coordinates":[-5.40184,38.281802]}},{"id":"321583","type":"Feature","properties":{"ident":"ES-0202","type":"small_airport","name":"Aeródromo de Garrucha","elevation_ft":"52","continent":"EU","iso_country":"ES","iso_region":"ES-AN","scheduled_service":"no"},"geometry":{"type":"Point","coordinates":[-1.830627,37.197959]}},{"id":"321610","type":"Feature","properties":{"ident":"ES-0209","type":"small_airport","name":"Aeródromo de Griñón","elevation_ft":"2198","continent":"EU","iso_country":"ES","iso_region":"ES-MD","municipality":"Griñón","scheduled_service":"no","keywords":"Aeroclub Dhaguera"},"geometry":{"type":"Point","coordinates":[-3.866911,40.223781]}},{"id":"321476","type":"Feature","properties":{"ident":"ES-0176","type":"small_airport","name":"Aeródromo de Guadalix de la SIerra","elevation_ft":"2756","continent":"EU","iso_country":"ES","iso_region":"ES-MD","municipality":"El Vellón","scheduled_service":"no"},"geometry":{"type":"Point","coordinates":[-3.639731,40.78483]}},{"id":"43262","type":"Feature","properties":{"ident":"LEGU","type":"small_airport","name":"Aeródromo de Guadalupe","elevation_ft":"1408","continent":"EU","iso_country":"ES","iso_region":"ES-EX","municipality":"Guadalupe","scheduled_service":"no","gps_code":"LEGU"},"geometry":{"type":"Point","coordinates":[-5.19735,39.345699]}},{"id":"309917","type":"Feature","properties":{"ident":"ES-0008","type":"small_airport","name":"Aeródromo de Herrera de Pisuerga","elevation_ft":"2958","continent":"EU","iso_country":"ES","iso_region":"ES-CL","municipality":"Herrera de Pisuerga","scheduled_service":"no","home_link":"http://www.aeroperfils.com/escuela.html"},"geometry":{"type":"Point","coordinates":[-4.2902,42.5923]}},{"id":"320474","type":"Feature","properties":{"ident":"ES-0067","type":"small_airport","name":"Aeródromo de Hiendelaencina-Alto Rey","elevation_ft":"4101","continent":"EU","iso_country":"ES","iso_region":"ES-CM","municipality":"Hiendelaencina","scheduled_service":"no","gps_code":"LEEN"},"geometry":{"type":"Point","coordinates":[-2.985967,41.108267]}},{"id":"321509","type":"Feature","properties":{"ident":"ES-0182","type":"small_airport","name":"Aeródromo de Jaen - Las Infantas","elevation_ft":"1034","continent":"EU","iso_country":"ES","iso_region":"ES-AN","municipality":"Jaen","scheduled_service":"no"},"geometry":{"type":"Point","coordinates":[-3.800161,37.908577]}},{"id":"320140","type":"Feature","properties":{"ident":"ES-0044","type":"small_airport","name":"Aeródromo de la Curiscada","elevation_ft":"2241","continent":"EU","iso_country":"ES","iso_region":"ES-AS","municipality":"Tineo","scheduled_service":"no","keywords":"Tinéu"},"geometry":{"type":"Point","coordinates":[-6.3785,43.333017]}},{"id":"320762","type":"Feature","properties":{"ident":"ES-0101","type":"small_airport","name":"Aeródromo de la Guardia","elevation_ft":"2097","continent":"EU","iso_country":"ES","iso_region":"ES-CM","municipality":"La Guardia","scheduled_service":"no"},"geometry":{"type":"Point","coordinates":[-3.604716,39.770897]}},{"id":"521992","type":"Feature","properties":{"ident":"ES-0340","type":"small_airport","name":"Aeródromo de La Ina","continent":"EU","iso_country":"ES","iso_region":"ES-AN","scheduled_service":"no"},"geometry":{"type":"Point","coordinates":[-6.01826,36.62949]}},{"id":"321577","type":"Feature","properties":{"ident":"ES-0198","type":"small_airport","name":"Aeródromo de La Vid de Bureba","elevation_ft":"2297","continent":"EU","iso_country":"ES","iso_region":"ES-CL","municipality":"La Vid de Bureba","scheduled_service":"no","gps_code":"LEDB","keywords":"AeroLaVid"},"geometry":{"type":"Point","coordinates":[-3.311456,42.632037]}},{"id":"43280","type":"Feature","properties":{"ident":"LELI","type":"small_airport","name":"Aeródromo de Linares","elevation_ft":"1033","continent":"EU","iso_country":"ES","iso_region":"ES-AN","municipality":"Linares","scheduled_service":"no","wikipedia_link":"https://es.wikipedia.org/wiki/Aer%C3%B3dromo_de_Linares"},"geometry":{"type":"Point","coordinates":[-3.642554,38.133211]}},{"id":"321438","type":"Feature","properties":{"ident":"ES-0166","type":"small_airport","name":"Aeródromo de Loja","continent":"EU","iso_country":"ES","iso_region":"ES-AN","municipality":"Loja","scheduled_service":"no"},"geometry":{"type":"Point","coordinates":[-4.269849,37.137746]}},{"id":"315993","type":"Feature","properties":{"ident":"LEOS","type":"small_airport","name":"Aeródromo de los Oteros","elevation_ft":"2620","continent":"EU","iso_country":"ES","iso_region":"ES-CL","municipality":"Pajares de Los Oteros","scheduled_service":"no","gps_code":"LEOS","home_link":"http://www.aerodromolosoteros.com"},"geometry":{"type":"Point","coordinates":[-5.451944,42.333056]}},{"id":"320777","type":"Feature","properties":{"ident":"ES-0105","type":"small_airport","name":"Aeródromo de Lumbier","elevation_ft":"1575","continent":"EU","iso_country":"ES","iso_region":"ES-NC","municipality":"Lumbier","scheduled_service":"no","gps_code":"LEUM","home_link":"http://www.pyrineum.com","keywords":"Vuelo Lumbier,Gyro Club Pamplona"},"geometry":{"type":"Point","coordinates":[-1.302383,42.66565]}},{"id":"320546","type":"Feature","properties":{"ident":"ES-0075","type":"small_airport","name":"Aeródromo de Navianos de Valverde","elevation_ft":"2395","continent":"EU","iso_country":"ES","iso_region":"ES-CL","scheduled_service":"no"},"geometry":{"type":"Point","coordinates":[-5.835035,41.959145]}},{"id":"321413","type":"Feature","properties":{"ident":"ES-0157","type":"small_airport","name":"Aeródromo de Ordis","elevation_ft":"2231","continent":"EU","iso_country":"ES","iso_region":"ES-CT","municipality":"Ordis","scheduled_service":"no"},"geometry":{"type":"Point","coordinates":[2.886944,42.2325]}},{"id":"321393","type":"Feature","properties":{"ident":"ES-0154","type":"small_airport","name":"Aeródromo de Piedrahita","elevation_ft":"3297","continent":"EU","iso_country":"ES","iso_region":"ES-CL","municipality":"Piedrahita","scheduled_service":"no"},"geometry":{"type":"Point","coordinates":[-5.360676,40.479855]}},{"id":"320149","type":"Feature","properties":{"ident":"ES-0047","type":"small_airport","name":"Aeródromo de Reboira","continent":"EU","iso_country":"ES","iso_region":"ES-GA","municipality":"Reboira","scheduled_service":"no"},"geometry":{"type":"Point","coordinates":[-7.049441,43.178215]}},{"id":"320442","type":"Feature","properties":{"ident":"ES-0062","type":"small_airport","name":"Aeródromo de Royanejos","elevation_ft":"722","continent":"EU","iso_country":"ES","iso_region":"ES-EX","scheduled_service":"no","gps_code":"LEMY"},"geometry":{"type":"Point","coordinates":[-6.345167,38.979917]}},{"id":"321362","type":"Feature","properties":{"ident":"ES-0146","type":"small_airport","name":"Aeródromo de San Torcuato","elevation_ft":"2133","continent":"EU","iso_country":"ES","iso_region":"ES-RI","municipality":"San Torcuato","scheduled_service":"no","gps_code":"LESN","home_link":"http://escueladevuelo.com"},"geometry":{"type":"Point","coordinates":[-2.872739,42.474227]}},{"id":"321218","type":"Feature","properties":{"ident":"ES-0136","type":"small_airport","name":"Aeródromo de Sigüenza","elevation_ft":"3445","continent":"EU","iso_country":"ES","iso_region":"ES-CM","municipality":"Sigüenza","scheduled_service":"no","gps_code":"LESZ","home_link":"http://www.aeroclubseguntino.com/"},"geometry":{"type":"Point","coordinates":[-2.629209,41.044793]}},{"id":"320567","type":"Feature","properties":{"ident":"ES-0078","type":"small_airport","name":"Aeródromo de Sober","elevation_ft":"1903","continent":"EU","iso_country":"ES","iso_region":"ES-GA","municipality":"Sober","scheduled_service":"no"},"geometry":{"type":"Point","coordinates":[-7.488721,42.432403]}},{"id":"320734","type":"Feature","properties":{"ident":"ES-0094","type":"small_airport","name":"Aeródromo de Sonseca","elevation_ft":"2408","continent":"EU","iso_country":"ES","iso_region":"ES-CM","municipality":"Sonseca","scheduled_service":"no","keywords":"Villaverde"},"geometry":{"type":"Point","coordinates":[-3.933074,39.693244]}},{"id":"321339","type":"Feature","properties":{"ident":"ES-0144","type":"small_airport","name":"Aeródromo de Tardienta - Monegros","elevation_ft":"1296","continent":"EU","iso_country":"ES","iso_region":"ES-AR","scheduled_service":"no"},"geometry":{"type":"Point","coordinates":[-0.543485,41.959913]}},{"id":"320148","type":"Feature","properties":{"ident":"ES-0046","type":"small_airport","name":"Aeródromo de Trasmirás","continent":"EU","iso_country":"ES","iso_region":"ES-GA","municipality":"Trasmirás","scheduled_service":"no"},"geometry":{"type":"Point","coordinates":[-7.598629,42.051768]}},{"id":"321390","type":"Feature","properties":{"ident":"ES-0151","type":"small_airport","name":"Aeródromo de Treviño","elevation_ft":"1969","continent":"EU","iso_country":"ES","iso_region":"ES-CL","municipality":"Treviño","scheduled_service":"no"},"geometry":{"type":"Point","coordinates":[-2.678392,42.721272]}},{"id":"320735","type":"Feature","properties":{"ident":"ES-0095","type":"small_airport","name":"Aeródromo de Tudela","elevation_ft":"778","continent":"EU","iso_country":"ES","iso_region":"ES-NC","scheduled_service":"no","keywords":"Aguasalada,Agua Salada"},"geometry":{"type":"Point","coordinates":[-1.686976,42.109262]}},{"id":"320628","type":"Feature","properties":{"ident":"ES-0081","type":"small_airport","name":"Aeródromo de Utrera","elevation_ft":"131","continent":"EU","iso_country":"ES","iso_region":"ES-AN","municipality":"Utrera","scheduled_service":"no","gps_code":"LEUT"},"geometry":{"type":"Point","coordinates":[-5.798882,37.153417]}},{"id":"321328","type":"Feature","properties":{"ident":"ES-0141","type":"small_airport","name":"Aeródromo de Valdeazores","elevation_ft":"763","continent":"EU","iso_country":"ES","iso_region":"ES-CM","municipality":"Valdeazores","scheduled_service":"no"},"geometry":{"type":"Point","coordinates":[-4.661292,39.490575]}},{"id":"321179","type":"Feature","properties":{"ident":"ES-0134","type":"small_airport","name":"Aeródromo de Valdelaguna","elevation_ft":"2549","continent":"EU","iso_country":"ES","iso_region":"ES-MD","municipality":"Valdelaguna","scheduled_service":"no"},"geometry":{"type":"Point","coordinates":[-3.38066,40.15787]}},{"id":"320627","type":"Feature","properties":{"ident":"ES-0080","type":"small_airport","name":"Aeródromo de Valverde del Camino","elevation_ft":"810","continent":"EU","iso_country":"ES","iso_region":"ES-AN","municipality":"Valverde del Camino","scheduled_service":"no"},"geometry":{"type":"Point","coordinates":[-6.70245,37.5056]}},{"id":"321382","type":"Feature","properties":{"ident":"ES-0149","type":"small_airport","name":"Aeródromo de Velada","elevation_ft":"1427","continent":"EU","iso_country":"ES","iso_region":"ES-CM","municipality":"Velada","scheduled_service":"no","keywords":"El Baldío, Mejorada"},"geometry":{"type":"Point","coordinates":[-4.946316,40.01051]}},{"id":"321111","type":"Feature","properties":{"ident":"ES-0125","type":"small_airport","name":"Aeródromo de Villa María","elevation_ft":"2740","continent":"EU","iso_country":"ES","iso_region":"ES-MC","municipality":"Coy (Lorca)","scheduled_service":"no"},"geometry":{"type":"Point","coordinates":[-1.775148,37.927301]}},{"id":"320185","type":"Feature","properties":{"ident":"ES-0050","type":"small_airport","name":"Aeródromo de Villaconejos","continent":"EU","iso_country":"ES","iso_region":"ES-MD","municipality":"Villaconejos","scheduled_service":"no"},"geometry":{"type":"Point","coordinates":[-3.508349,40.096976]}},{"id":"309918","type":"Feature","properties":{"ident":"ES-0009","type":"small_airport","name":"Aeródromo de Villoldo","elevation_ft":"2700","continent":"EU","iso_country":"ES","iso_region":"ES-CL","municipality":"Villoldo","scheduled_service":"no"},"geometry":{"type":"Point","coordinates":[-4.6479,42.2655]}},{"id":"321461","type":"Feature","properties":{"ident":"ES-0172","type":"small_airport","name":"Aeródromo de Écija","elevation_ft":"591","continent":"EU","iso_country":"ES","iso_region":"ES-AN","municipality":"Écija","scheduled_service":"no"},"geometry":{"type":"Point","coordinates":[-5.171264,37.580232]}},{"id":"320545","type":"Feature","properties":{"ident":"ES-0074","type":"small_airport","name":"Aeródromo el Maíllo","elevation_ft":"3396","continent":"EU","iso_country":"ES","iso_region":"ES-CL","scheduled_service":"no"},"geometry":{"type":"Point","coordinates":[-6.218817,40.571167]}},{"id":"321441","type":"Feature","properties":{"ident":"ES-0169","type":"small_airport","name":"Aeródromo Fontioso","elevation_ft":"3068","continent":"EU","iso_country":"ES","iso_region":"ES-CL","municipality":"Fontioso","scheduled_service":"no"},"geometry":{"type":"Point","coordinates":[-3.784808,41.933305]}},{"id":"324773","type":"Feature","properties":{"ident":"ES-0233","type":"small_airport","name":"Aeródromo Forestal \"La Fonfría\"","continent":"EU","iso_country":"ES","iso_region":"ES-RI","municipality":"Villarejo","scheduled_service":"no"},"geometry":{"type":"Point","coordinates":[-2.910948,42.346612]}},{"id":"321759","type":"Feature","properties":{"ident":"ES-0225","type":"small_airport","name":"Aeródromo Forestal \"Puebla de Don Rodrigo\"","elevation_ft":"2067","continent":"EU","iso_country":"ES","iso_region":"ES-CM","municipality":"Puebla de Don Rodrigo","scheduled_service":"no"},"geometry":{"type":"Point","coordinates":[-4.488502,39.066067]}},{"id":"321609","type":"Feature","properties":{"ident":"ES-0208","type":"small_airport","name":"Aeródromo forestal \"Requena 2\"","elevation_ft":"2740","continent":"EU","iso_country":"ES","iso_region":"ES-VC","municipality":"Requena","scheduled_service":"no"},"geometry":{"type":"Point","coordinates":[-1.049345,39.442259]}},{"id":"320645","type":"Feature","properties":{"ident":"ES-0085","type":"small_airport","name":"Aeródromo forestal de Ademuz","elevation_ft":"3970","continent":"EU","iso_country":"ES","iso_region":"ES-VC","municipality":"Ademuz","scheduled_service":"no"},"geometry":{"type":"Point","coordinates":[-1.210474,40.091464]}},{"id":"320644","type":"Feature","properties":{"ident":"ES-0084","type":"small_airport","name":"Aeródromo forestal de Enguera","elevation_ft":"1903","continent":"EU","iso_country":"ES","iso_region":"ES-VC","municipality":"Enguera","scheduled_service":"no"},"geometry":{"type":"Point","coordinates":[-0.76915,38.943167]}},{"id":"321793","type":"Feature","properties":{"ident":"ES-0226","type":"small_airport","name":"Aeródromo forestal de Herrera del Duque","elevation_ft":"1394","continent":"EU","iso_country":"ES","iso_region":"ES-EX","municipality":"Herrera del Duque","scheduled_service":"no"},"geometry":{"type":"Point","coordinates":[-4.88638,39.226444]}},{"id":"320643","type":"Feature","properties":{"ident":"ES-0083","type":"small_airport","name":"Aeródromo forestal de La Yesa","elevation_ft":"3675","continent":"EU","iso_country":"ES","iso_region":"ES-VC","municipality":"La Yesa","scheduled_service":"no"},"geometry":{"type":"Point","coordinates":[-0.948624,39.909035]}},{"id":"2640","type":"Feature","properties":{"ident":"LE83","type":"small_airport","name":"Aeródromo forestal de Mojados","elevation_ft":"2329","continent":"EU","iso_country":"ES","iso_region":"ES-CL","municipality":"Mojados","scheduled_service":"no","gps_code":"LEOA","wikipedia_link":"https://es.wikipedia.org/wiki/Aer%C3%B3dromo_de_Mojados"},"geometry":{"type":"Point","coordinates":[-4.713068,41.465728]}},{"id":"321432","type":"Feature","properties":{"ident":"ES-0165","type":"small_airport","name":"Aeródromo Gurrea de Gállego","elevation_ft":"1116","continent":"EU","iso_country":"ES","iso_region":"ES-AR","municipality":"Gurrea de Gállego","scheduled_service":"no"},"geometry":{"type":"Point","coordinates":[-0.746295,42.035333]}},{"id":"321132","type":"Feature","properties":{"ident":"ES-0129","type":"small_airport","name":"Aeródromo Juan Espadafor","continent":"EU","iso_country":"ES","iso_region":"ES-AN","municipality":"Escúzar","scheduled_service":"no","gps_code":"LEJE","home_link":"https://web.archive.org/web/20190502151940/http://aerodromojuanespadafor.com:80/wp/"},"geometry":{"type":"Point","coordinates":[-3.788322,37.089503]}},{"id":"320568","type":"Feature","properties":{"ident":"ES-0079","type":"small_airport","name":"Aeródromo La Balanzona","elevation_ft":"1969","continent":"EU","iso_country":"ES","iso_region":"ES-AN","scheduled_service":"no"},"geometry":{"type":"Point","coordinates":[-4.80705,37.961733]}},{"id":"320636","type":"Feature","properties":{"ident":"ES-0082","type":"small_airport","name":"Aeródromo La Loma","elevation_ft":"2789","continent":"EU","iso_country":"ES","iso_region":"ES-VC","municipality":"Siete Aguas","scheduled_service":"no"},"geometry":{"type":"Point","coordinates":[-0.902217,39.488667]}},{"id":"321584","type":"Feature","properties":{"ident":"ES-0203","type":"small_airport","name":"Aeródromo Lanzahita UL","elevation_ft":"1329","continent":"EU","iso_country":"ES","iso_region":"ES-CL","municipality":"Lanzahita","scheduled_service":"no"},"geometry":{"type":"Point","coordinates":[-4.946256,40.186112]}},{"id":"321427","type":"Feature","properties":{"ident":"ES-0162","type":"small_airport","name":"Aeródromo Loring","elevation_ft":"1903","continent":"EU","iso_country":"ES","iso_region":"ES-MD","municipality":"El Molar","scheduled_service":"no","home_link":"http://aerodromo-loring.blogspot.be/"},"geometry":{"type":"Point","coordinates":[-3.59489,40.6602]}},{"id":"321475","type":"Feature","properties":{"ident":"ES-0175","type":"small_airport","name":"Aeródromo Mazaricos","elevation_ft":"960","continent":"EU","iso_country":"ES","iso_region":"ES-GA","municipality":"Fervenza","scheduled_service":"no","gps_code":"LEMZ","home_link":"https://naturmaz.com/aerodromo/"},"geometry":{"type":"Point","coordinates":[-9.005002,42.982329]}},{"id":"321511","type":"Feature","properties":{"ident":"ES-0184","type":"small_airport","name":"Aeródromo Navalmoral de la Mata","elevation_ft":"951","continent":"EU","iso_country":"ES","iso_region":"ES-EX","municipality":"Navalmoral de la Mata","scheduled_service":"no"},"geometry":{"type":"Point","coordinates":[-5.53976,39.91613]}},{"id":"320472","type":"Feature","properties":{"ident":"ES-0066","type":"small_airport","name":"Aeródromo Orce","elevation_ft":"3245","continent":"EU","iso_country":"ES","iso_region":"ES-AN","municipality":"Orce","scheduled_service":"no"},"geometry":{"type":"Point","coordinates":[-2.36425,37.73545]}},{"id":"321513","type":"Feature","properties":{"ident":"ES-0185","type":"small_airport","name":"Aeródromo Pelayos de la Presa","elevation_ft":"2215","continent":"EU","iso_country":"ES","iso_region":"ES-MD","municipality":"Pelayos de la Presa","scheduled_service":"no"},"geometry":{"type":"Point","coordinates":[-4.382676,40.372011]}},{"id":"320566","type":"Feature","properties":{"ident":"ES-0077","type":"small_airport","name":"Aeródromo Pozuelo de Calatrava","elevation_ft":"1847","continent":"EU","iso_country":"ES","iso_region":"ES-CM","municipality":"Pozuelo de Calatrava","scheduled_service":"no"},"geometry":{"type":"Point","coordinates":[-3.852635,38.905198]}},{"id":"321607","type":"Feature","properties":{"ident":"ES-0206","type":"small_airport","name":"Aeródromo privado \"Villamartin2\"","elevation_ft":"476","continent":"EU","iso_country":"ES","iso_region":"ES-AN","municipality":"Villamartin","scheduled_service":"no"},"geometry":{"type":"Point","coordinates":[-5.603212,36.827132]}},{"id":"43294","type":"Feature","properties":{"ident":"LERE","type":"small_airport","name":"Aeródromo Requena El Rebollar","elevation_ft":"2340","continent":"EU","iso_country":"ES","iso_region":"ES-VC","municipality":"Requena","scheduled_service":"no","gps_code":"LERE","home_link":"http://www.flyrequena.com/index.htm"},"geometry":{"type":"Point","coordinates":[-1.03444,39.474701]}},{"id":"321397","type":"Feature","properties":{"ident":"ES-0155","type":"small_airport","name":"Aeródromo Tarancón","elevation_ft":"2379","continent":"EU","iso_country":"ES","iso_region":"ES-CM","municipality":"Tarancón","scheduled_service":"no"},"geometry":{"type":"Point","coordinates":[-2.977939,40.01248]}},{"id":"321557","type":"Feature","properties":{"ident":"ES-0192","type":"small_airport","name":"Aeródromo Tiurana","elevation_ft":"2133","continent":"EU","iso_country":"ES","iso_region":"ES-CT","scheduled_service":"no"},"geometry":{"type":"Point","coordinates":[1.257531,41.97416]}},{"id":"321383","type":"Feature","properties":{"ident":"ES-0150","type":"small_airport","name":"Aeródromo Valdetorres","continent":"EU","iso_country":"ES","iso_region":"ES-EX","municipality":"Valdetorres","scheduled_service":"no"},"geometry":{"type":"Point","coordinates":[-6.127169,38.942651]}},{"id":"321030","type":"Feature","properties":{"ident":"ES-0111","type":"small_airport","name":"Aeródromo Villanueva del Pardillo","continent":"EU","iso_country":"ES","iso_region":"ES-MD","municipality":"Villanueva del Pardillo","scheduled_service":"no"},"geometry":{"type":"Point","coordinates":[-3.9921,40.500107]}},{"id":"321575","type":"Feature","properties":{"ident":"LEVE","type":"small_airport","name":"Aeródromo Virgen de La Estrella","elevation_ft":"1837","continent":"EU","iso_country":"ES","iso_region":"ES-EX","municipality":"Zafra","scheduled_service":"no","gps_code":"LEVE"},"geometry":{"type":"Point","coordinates":[-6.356944,38.420556]}},{"id":"321064","type":"Feature","properties":{"ident":"ES-0116","type":"small_airport","name":"Ager Altiport","elevation_ft":"2625","continent":"EU","iso_country":"ES","iso_region":"ES-CT","scheduled_service":"no"},"geometry":{"type":"Point","coordinates":[0.7491,42.02277]}},{"id":"320512","type":"Feature","properties":{"ident":"ES-0069","type":"small_airport","name":"Air Marugán","elevation_ft":"3068","continent":"EU","iso_country":"ES","iso_region":"ES-CL","municipality":"Marugán","scheduled_service":"no","gps_code":"LEIR"},"geometry":{"type":"Point","coordinates":[-4.370917,40.9111]}},{"id":"321112","type":"Feature","properties":{"ident":"ES-0126","type":"small_airport","name":"Aires de Doñana","elevation_ft":"213","continent":"EU","iso_country":"ES","iso_region":"ES-AN","municipality":"Almonte","scheduled_service":"no","home_link":"http://www.aeroclubdehuelva.es/"},"geometry":{"type":"Point","coordinates":[-6.562895,37.25689]}},{"id":"321166","type":"Feature","properties":{"ident":"ES-0132","type":"small_airport","name":"Alats Club Bellvei","elevation_ft":"302","continent":"EU","iso_country":"ES","iso_region":"ES-CT","municipality":"Bellvei","scheduled_service":"no"},"geometry":{"type":"Point","coordinates":[1.563289,41.244336]}},{"id":"3996","type":"Feature","properties":{"ident":"LEAB","type":"medium_airport","name":"Albacete Airport / Los Llanos Air Base","elevation_ft":"2302","continent":"EU","iso_country":"ES","iso_region":"ES-CM","municipality":"Albacete","scheduled_service":"no","gps_code":"LEAB","iata_code":"ABC","home_link":"https://www.aena.es/en/albacete.html","wikipedia_link":"https://en.wikipedia.org/wiki/Albacete_Airport"},"geometry":{"type":"Point","coordinates":[-1.86352,38.948502]}},{"id":"341990","type":"Feature","properties":{"ident":"ES-0285","type":"heliport","name":"Albacete University Hospital (FATO) Heliport","continent":"EU","iso_country":"ES","iso_region":"ES-CM","municipality":"Albacete","scheduled_service":"no","local_code":"UAB","keywords":"CM-UAB"},"geometry":{"type":"Point","coordinates":[-1.8444,38.9823]}},{"id":"321293","type":"Feature","properties":{"ident":"ES-0140","type":"small_airport","name":"Albalat de la Ribera Airstrip","elevation_ft":"26","continent":"EU","iso_country":"ES","iso_region":"ES-VC","municipality":"Albalat de la Ribera","scheduled_service":"no"},"geometry":{"type":"Point","coordinates":[-0.366584,39.226157]}},{"id":"334993","type":"Feature","properties":{"ident":"ES-0274","type":"heliport","name":"Alborán Helistrip","continent":"EU","iso_country":"ES","iso_region":"ES-AN","municipality":"Almería","scheduled_service":"no"},"geometry":{"type":"Point","coordinates":[-3.03519,35.93932]}},{"id":"320729","type":"Feature","properties":{"ident":"ES-0093","type":"small_airport","name":"Alcalá de la Jovada Airstrip","continent":"EU","iso_country":"ES","iso_region":"ES-VC","municipality":"Alcalá de la Jovada","scheduled_service":"no"},"geometry":{"type":"Point","coordinates":[-0.231057,38.786611]}},{"id":"4027","type":"Feature","properties":{"ident":"LERI","type":"medium_airport","name":"Alcantarilla Air Base","elevation_ft":"250","continent":"EU","iso_country":"ES","iso_region":"ES-MC","municipality":"Alcantarilla","scheduled_service":"no","gps_code":"LERI"},"geometry":{"type":"Point","coordinates":[-1.23032,37.951099]}},{"id":"321164","type":"Feature","properties":{"ident":"ES-0130","type":"small_airport","name":"Alcocer de Planes Airfield","continent":"EU","iso_country":"ES","iso_region":"ES-VC","municipality":"Alcocer de Planes","scheduled_service":"no","keywords":"Escuela de Pilotos La Montaña"},"geometry":{"type":"Point","coordinates":[-0.398591,38.791395]}},{"id":"321065","type":"Feature","properties":{"ident":"ES-0117","type":"small_airport","name":"Alcolea Airstrip","elevation_ft":"463","continent":"EU","iso_country":"ES","iso_region":"ES-AN","municipality":"Alcolea","scheduled_service":"no","gps_code":"LEAE"},"geometry":{"type":"Point","coordinates":[-4.615416,37.945619]}},{"id":"321066","type":"Feature","properties":{"ident":"ES-0118","type":"small_airport","name":"Alcolea de Cinca","elevation_ft":"722","continent":"EU","iso_country":"ES","iso_region":"ES-AR","municipality":"Alcolea de la Cinca","scheduled_service":"no","home_link":"http://www.aerocinca.com/index.html"},"geometry":{"type":"Point","coordinates":[0.107583,41.734222]}},{"id":"43265","type":"Feature","properties":{"ident":"LEHA","type":"heliport","name":"Alcorcón Hospital Heliport","elevation_ft":"2269","continent":"EU","iso_country":"ES","iso_region":"ES-MD","municipality":"Alcorcón","scheduled_service":"no","gps_code":"LEHA"},"geometry":{"type":"Point","coordinates":[-3.83819,40.349702]}},{"id":"349292","type":"Feature","properties":{"ident":"ES-0299","type":"heliport","name":"Algeciras Caravan Park Helipad","elevation_ft":"3","continent":"EU","iso_country":"ES","iso_region":"ES-AN","municipality":"Algeciras","scheduled_service":"no"},"geometry":{"type":"Point","coordinates":[-5.44475,36.13568]}},{"id":"300646","type":"Feature","properties":{"ident":"AEI","type":"heliport","name":"Algeciras Heliport","elevation_ft":"98","continent":"EU","iso_country":"ES","iso_region":"ES-AN","municipality":"Algeciras","scheduled_service":"yes","gps_code":"LEAG","home_link":"https://www.aena.es/en/algeciras.html","wikipedia_link":"https://en.wikipedia.org/wiki/Algeciras_Heliport"},"geometry":{"type":"Point","coordinates":[-5.441079,36.12882]}},{"id":"321702","type":"Feature","properties":{"ident":"ES-0215","type":"small_airport","name":"Alhama de Granada Airfield","elevation_ft":"3215","continent":"EU","iso_country":"ES","iso_region":"ES-AN","municipality":"Alhama de Granada","scheduled_service":"no"},"geometry":{"type":"Point","coordinates":[-4.103608,36.996999]}},{"id":"43233","type":"Feature","properties":{"ident":"LELH","type":"small_airport","name":"Alhama De Murcia Airfield","elevation_ft":"669","continent":"EU","iso_country":"ES","iso_region":"ES-MC","municipality":"Cánovas","scheduled_service":"no","gps_code":"LELH"},"geometry":{"type":"Point","coordinates":[-1.30216,37.748901]}},{"id":"3997","type":"Feature","properties":{"ident":"LEAL","type":"large_airport","name":"Alicante-Elche Miguel Hernández Airport","elevation_ft":"142","continent":"EU","iso_country":"ES","iso_region":"ES-VC","municipality":"Alicante","scheduled_service":"yes","gps_code":"LEAL","iata_code":"ALC","home_link":"https://www.aena.es/en/alicante-elche.html","wikipedia_link":"https://en.wikipedia.org/wiki/Alicante_Airport"},"geometry":{"type":"Point","coordinates":[-0.558156,38.2822]}},{"id":"321741","type":"Feature","properties":{"ident":"ES-0223","type":"heliport","name":"Almagro Helicopter Airbase","elevation_ft":"2067","continent":"EU","iso_country":"ES","iso_region":"ES-CM","municipality":"Almagro","scheduled_service":"no","gps_code":"LEAO","wikipedia_link":"https://en.wikipedia.org/wiki/Spanish_Army_Airmobile_Force"},"geometry":{"type":"Point","coordinates":[-3.741126,38.952096]}},{"id":"43234","type":"Feature","properties":{"ident":"LELM","type":"small_airport","name":"Almansa Airfield","elevation_ft":"2248","continent":"EU","iso_country":"ES","iso_region":"ES-CM","municipality":"Almansa","scheduled_service":"no","gps_code":"LELM"},"geometry":{"type":"Point","coordinates":[-1.11318,38.895]}},{"id":"3998","type":"Feature","properties":{"ident":"LEAM","type":"medium_airport","name":"Almería Airport","elevation_ft":"70","continent":"EU","iso_country":"ES","iso_region":"ES-AN","municipality":"Almería","scheduled_service":"yes","gps_code":"LEAM","iata_code":"LEI","home_link":"https://www.aena.es/en/almeria.html","wikipedia_link":"https://en.wikipedia.org/wiki/Almer%C3%ADa_International_Airport"},"geometry":{"type":"Point","coordinates":[-2.3701,36.843899]}},{"id":"320708","type":"Feature","properties":{"ident":"ES-0089","type":"small_airport","name":"Alt Camp de Vallmoll","elevation_ft":"604","continent":"EU","iso_country":"ES","iso_region":"ES-CT","scheduled_service":"no","keywords":"Valmoll"},"geometry":{"type":"Point","coordinates":[1.241474,41.249924]}},{"id":"43235","type":"Feature","properties":{"ident":"LEGC","type":"small_airport","name":"Altarejos-Guadalcanal Private Airfield","elevation_ft":"1928","continent":"EU","iso_country":"ES","iso_region":"ES-AN","municipality":"Sevilla","scheduled_service":"no","gps_code":"LEGC"},"geometry":{"type":"Point","coordinates":[-5.73953,38.1717]}},{"id":"321706","type":"Feature","properties":{"ident":"ES-0218","type":"small_airport","name":"Alto Vinalopó Biar Benejama","elevation_ft":"1936","continent":"EU","iso_country":"ES","iso_region":"ES-VC","municipality":"Beneixama","scheduled_service":"no"},"geometry":{"type":"Point","coordinates":[-0.760295,38.684431]}},{"id":"29409","type":"Feature","properties":{"ident":"LEAP","type":"small_airport","name":"Ampuriabrava Airfield","elevation_ft":"2","continent":"EU","iso_country":"ES","iso_region":"ES-CT","municipality":"Empuriabrava","scheduled_service":"no","gps_code":"LEAP","keywords":"Empuriabrava,Ampuriabrava"},"geometry":{"type":"Point","coordinates":[3.109722,42.259998]}},{"id":"4009","type":"Feature","properties":{"ident":"LEGA","type":"medium_airport","name":"Armilla Air Base","elevation_ft":"2297","continent":"EU","iso_country":"ES","iso_region":"ES-AN","municipality":"Armilla","scheduled_service":"no","gps_code":"LEGA"},"geometry":{"type":"Point","coordinates":[-3.63569,37.133202]}},{"id":"3999","type":"Feature","properties":{"ident":"LEAS","type":"medium_airport","name":"Asturias Airport","elevation_ft":"416","continent":"EU","iso_country":"ES","iso_region":"ES-AS","municipality":"Ranón","scheduled_service":"yes","gps_code":"LEAS","iata_code":"OVD","home_link":"https://www.aena.es/en/asturias.html","wikipedia_link":"https://en.wikipedia.org/wiki/Asturias_Airport"},"geometry":{"type":"Point","coordinates":[-6.03462,43.563599]}},{"id":"331329","type":"Feature","properties":{"ident":"ES-0248","type":"small_airport","name":"Atlas Center Vuelos de Drones","continent":"EU","iso_country":"ES","iso_region":"ES-AN","scheduled_service":"no"},"geometry":{"type":"Point","coordinates":[-3.173868,38.139226]}},{"id":"43236","type":"Feature","properties":{"ident":"LEPB","type":"heliport","name":"Autoridad Portuaria de Barcelona Heliport","elevation_ft":"29","continent":"EU","iso_country":"ES","iso_region":"ES-CT","municipality":"Barcelona","scheduled_service":"no","gps_code":"LEPB","keywords":"Helipuerto de la autoridad portuaria de Barcelona, Port Authority of Barcelona Heliport"},"geometry":{"type":"Point","coordinates":[2.18301,41.3643]}},{"id":"4005","type":"Feature","properties":{"ident":"LEBZ","type":"medium_airport","name":"Badajoz Airport","elevation_ft":"609","continent":"EU","iso_country":"ES","iso_region":"ES-EX","municipality":"Badajoz","scheduled_service":"yes","gps_code":"LEBZ","iata_code":"BJZ","home_link":"https://www.aena.es/en/badajoz.html","wikipedia_link":"https://en.wikipedia.org/wiki/Badajoz_Airport","keywords":"Talavera La Real Airport"},"geometry":{"type":"Point","coordinates":[-6.82133,38.8913]}},{"id":"299646","type":"Feature","properties":{"ident":"ES-0003","type":"heliport","name":"Banco de España Helipad","continent":"EU","iso_country":"ES","iso_region":"ES-MD","municipality":"Madrid","scheduled_service":"no","keywords":"Helipuerto Civil Madrid - Banco de España"},"geometry":{"type":"Point","coordinates":[-3.69492,40.417913]}},{"id":"315661","type":"Feature","properties":{"ident":"ES-0023","type":"heliport","name":"Basa Aérea de Valencia-Bétera","elevation_ft":"414","continent":"EU","iso_country":"ES","iso_region":"ES-VC","municipality":"Bétera","scheduled_service":"no","gps_code":"LEBT"},"geometry":{"type":"Point","coordinates":[-0.472576,39.62447]}},{"id":"326765","type":"Feature","properties":{"ident":"LECV","type":"heliport","name":"Base Aérea de Colmenar Viejo","elevation_ft":"3264","continent":"EU","iso_country":"ES","iso_region":"ES-MD","municipality":"Colmenar Viejo","scheduled_service":"no","gps_code":"LECV","keywords":"FAMET"},"geometry":{"type":"Point","coordinates":[-3.763255,40.697296]}},{"id":"326764","type":"Feature","properties":{"ident":"LEEC","type":"heliport","name":"Base Aérea de El Copero","elevation_ft":"20","continent":"EU","iso_country":"ES","iso_region":"ES-AN","municipality":"Dos Hermanas","scheduled_service":"no","gps_code":"LEEC","wikipedia_link":"https://es.wikipedia.org/wiki/El_Copero"},"geometry":{"type":"Point","coordinates":[-5.999058,37.313164]}},{"id":"320141","type":"Feature","properties":{"ident":"ES-0045","type":"small_airport","name":"Base Aérea Las Navas","continent":"EU","iso_country":"ES","iso_region":"ES-CL","municipality":"Medina de Pomar","scheduled_service":"no"},"geometry":{"type":"Point","coordinates":[-3.473773,42.953642]}},{"id":"320411","type":"Feature","properties":{"ident":"ES-0053","type":"small_airport","name":"Base BRICA de Cártama","continent":"EU","iso_country":"ES","iso_region":"ES-AN","municipality":"Cártama","scheduled_service":"no","keywords":"BRICA,RioGrande"},"geometry":{"type":"Point","coordinates":[-4.700446,36.722785]}},{"id":"331924","type":"Feature","properties":{"ident":"ES-0262","type":"small_airport","name":"Base de aviones \"La Cerra\"","continent":"EU","iso_country":"ES","iso_region":"ES-CL","municipality":"Villanueva de Duero","scheduled_service":"no"},"geometry":{"type":"Point","coordinates":[-4.855477,42.521305]}},{"id":"320711","type":"Feature","properties":{"ident":"ES-0091","type":"small_airport","name":"Base de Bomberos del Amogable","elevation_ft":"3806","continent":"EU","iso_country":"ES","iso_region":"ES-CL","municipality":"Covaleda","scheduled_service":"no"},"geometry":{"type":"Point","coordinates":[-2.949889,41.861768]}},{"id":"327564","type":"Feature","properties":{"ident":"ES-0239","type":"heliport","name":"Base de Helicópteros de Guadramiro","continent":"EU","iso_country":"ES","iso_region":"ES-CL","municipality":"Guadramiro","scheduled_service":"no"},"geometry":{"type":"Point","coordinates":[-6.477604,41.011168]}},{"id":"336561","type":"Feature","properties":{"ident":"ES-0275","type":"small_airport","name":"Base de Helicópteros de Toén","continent":"EU","iso_country":"ES","iso_region":"ES-GA","municipality":"Trelle","scheduled_service":"no"},"geometry":{"type":"Point","coordinates":[-7.944971,42.265853]}},{"id":"355230","type":"Feature","properties":{"ident":"ES-0302","type":"heliport","name":"Base Naval de Rota Heliport","elevation_ft":"23","continent":"EU","iso_country":"ES","iso_region":"ES-AN","municipality":"Cadiz","scheduled_service":"no"},"geometry":{"type":"Point","coordinates":[-6.329609,36.639673]}},{"id":"343208","type":"Feature","properties":{"ident":"ES-0295","type":"small_airport","name":"Beas Airstrip","continent":"EU","iso_country":"ES","iso_region":"ES-AN","scheduled_service":"no"},"geometry":{"type":"Point","coordinates":[-6.76054,37.41816]}},{"id":"4002","type":"Feature","properties":{"ident":"LEBE","type":"small_airport","name":"Beas De Segura Airfield","elevation_ft":"1780","continent":"EU","iso_country":"ES","iso_region":"ES-AN","municipality":"Jaén","scheduled_service":"no","gps_code":"LEBE"},"geometry":{"type":"Point","coordinates":[-2.948889,38.271111]}},{"id":"43237","type":"Feature","properties":{"ident":"LENA","type":"small_airport","name":"Benabarre Airfield","elevation_ft":"2450","continent":"EU","iso_country":"ES","iso_region":"ES-AR","municipality":"Huesca","scheduled_service":"no","gps_code":"LENA","home_link":"http://aerodromobenabarre.info","wikipedia_link":"https://es.wikipedia.org/wiki/Aeródromo_de_Benabarre","keywords":"Benabarre,"},"geometry":{"type":"Point","coordinates":[0.482222,42.0228]}},{"id":"321704","type":"Feature","properties":{"ident":"ES-0217","type":"small_airport","name":"Benejama UL","elevation_ft":"1985","continent":"EU","iso_country":"ES","iso_region":"ES-VC","municipality":"Beneixama","scheduled_service":"no"},"geometry":{"type":"Point","coordinates":[-0.744936,38.696193]}},{"id":"321479","type":"Feature","properties":{"ident":"ES-0179","type":"small_airport","name":"Benicolet Airfield","elevation_ft":"807","continent":"EU","iso_country":"ES","iso_region":"ES-VC","municipality":"Benicolet","scheduled_service":"no","keywords":"Aeroclub Balica"},"geometry":{"type":"Point","coordinates":[-0.355677,38.918703]}},{"id":"43238","type":"Feature","properties":{"ident":"LERG","type":"heliport","name":"Berga Heliport","elevation_ft":"2300","continent":"EU","iso_country":"ES","iso_region":"ES-CT","municipality":"Berga","scheduled_service":"no","gps_code":"LERG"},"geometry":{"type":"Point","coordinates":[1.85333,42.105598]}},{"id":"321082","type":"Feature","properties":{"ident":"ES-0121","type":"small_airport","name":"Beteta Airfield","elevation_ft":"4265","continent":"EU","iso_country":"ES","iso_region":"ES-CM","municipality":"Beteta","scheduled_service":"no"},"geometry":{"type":"Point","coordinates":[-2.076845,40.540575]}},{"id":"331330","type":"Feature","properties":{"ident":"ES-0249","type":"small_airport","name":"Beuda Besalu Private Airstrip","continent":"EU","iso_country":"ES","iso_region":"ES-CT","scheduled_service":"no"},"geometry":{"type":"Point","coordinates":[2.709281,42.211467]}},{"id":"4001","type":"Feature","properties":{"ident":"LEBB","type":"medium_airport","name":"Bilbao Airport","elevation_ft":"138","continent":"EU","iso_country":"ES","iso_region":"ES-PV","municipality":"Bilbao","scheduled_service":"yes","gps_code":"LEBB","iata_code":"BIO","home_link":"https://www.aena.es/en/bilbao.html","wikipedia_link":"https://en.wikipedia.org/wiki/Bilbao_Airport"},"geometry":{"type":"Point","coordinates":[-2.91061,43.301102]}},{"id":"320424","type":"Feature","properties":{"ident":"ES-0059","type":"small_airport","name":"Binissalem Airfield","elevation_ft":"361","continent":"EU","iso_country":"ES","iso_region":"ES-IB","municipality":"Binissalem","scheduled_service":"no","gps_code":"LEIS"},"geometry":{"type":"Point","coordinates":[2.877281,39.68105]}},{"id":"333942","type":"Feature","properties":{"ident":"ES-0272","type":"heliport","name":"Blancos del Coscojar Heliport","continent":"EU","iso_country":"ES","iso_region":"ES-AR","municipality":"Blancos del Coscojar","scheduled_service":"no"},"geometry":{"type":"Point","coordinates":[-1.056629,40.3216]}},{"id":"43239","type":"Feature","properties":{"ident":"LEBP","type":"heliport","name":"BP Oil España Heliport","elevation_ft":"943","continent":"EU","iso_country":"ES","iso_region":"ES-VC","municipality":"Castellón de La Plana","scheduled_service":"no","gps_code":"LEBP"},"geometry":{"type":"Point","coordinates":[-0.011632,39.957901]}},{"id":"429749","type":"Feature","properties":{"ident":"ES-0314","type":"heliport","name":"Bunyola Private Heliport","continent":"EU","iso_country":"ES","iso_region":"ES-IB","municipality":"Marratxí","scheduled_service":"no"},"geometry":{"type":"Point","coordinates":[2.72726,39.65771]}},{"id":"4003","type":"Feature","properties":{"ident":"LEBG","type":"medium_airport","name":"Burgos Airport","elevation_ft":"2962","continent":"EU","iso_country":"ES","iso_region":"ES-CL","municipality":"Burgos","scheduled_service":"yes","gps_code":"LEBG","iata_code":"RGS","home_link":"https://www.aena.es/en/burgos.html","wikipedia_link":"https://en.wikipedia.org/wiki/Burgos_Airport"},"geometry":{"type":"Point","coordinates":[-3.62076,42.357601]}},{"id":"331531","type":"Feature","properties":{"ident":"ES-0257","type":"small_airport","name":"Cabezas Rubias Airstrip","continent":"EU","iso_country":"ES","iso_region":"ES-AN","scheduled_service":"no"},"geometry":{"type":"Point","coordinates":[-7.096699,37.748234]}},{"id":"430636","type":"Feature","properties":{"ident":"ES-0328","type":"heliport","name":"Cabrera Helipad","continent":"EU","iso_country":"ES","iso_region":"ES-IB","scheduled_service":"no"},"geometry":{"type":"Point","coordinates":[2.937596,39.142996]}},{"id":"355327","type":"Feature","properties":{"ident":"ES-0309","type":"heliport","name":"Cadalso de los Vidrios Heliport","elevation_ft":"2690","continent":"EU","iso_country":"ES","iso_region":"ES-MD","municipality":"28640 Cadalso de los Vidrios","scheduled_service":"no"},"geometry":{"type":"Point","coordinates":[-4.44328,40.30569]}},{"id":"43240","type":"Feature","properties":{"ident":"LENB","type":"heliport","name":"Cala'n Blanes Heliport","elevation_ft":"27","continent":"EU","iso_country":"ES","iso_region":"ES-IB","municipality":"Ciutadella de Menorca","scheduled_service":"no","gps_code":"LENB"},"geometry":{"type":"Point","coordinates":[3.814097,39.996836]}},{"id":"43241","type":"Feature","properties":{"ident":"LECF","type":"small_airport","name":"Calaf-Sallavinera Airfield","elevation_ft":"2355","continent":"EU","iso_country":"ES","iso_region":"ES-CT","municipality":"Sant Pere Sallavinera","scheduled_service":"no","gps_code":"LECF","wikipedia_link":"https://es.wikipedia.org/wiki/Aer%C3%B3dromo_de_Calaf-Salavinera"},"geometry":{"type":"Point","coordinates":[1.55694,41.744202]}},{"id":"321032","type":"Feature","properties":{"ident":"ES-0112","type":"small_airport","name":"Camaleño-Artañin ULM","elevation_ft":"2523","continent":"EU","iso_country":"ES","iso_region":"ES-CB","municipality":"Argüébanes","scheduled_service":"no"},"geometry":{"type":"Point","coordinates":[-4.674958,43.17817]}},{"id":"331183","type":"Feature","properties":{"ident":"ES-0246","type":"heliport","name":"Camarinal Helicopter Base","continent":"EU","iso_country":"ES","iso_region":"ES-AN","municipality":"Cadiz","scheduled_service":"no"},"geometry":{"type":"Point","coordinates":[-5.796723,36.082422]}},{"id":"315868","type":"Feature","properties":{"ident":"ES-0026","type":"small_airport","name":"Camp de Vol de Palafolls","continent":"EU","iso_country":"ES","iso_region":"ES-CT","scheduled_service":"no"},"geometry":{"type":"Point","coordinates":[2.748056,41.687222]}},{"id":"321431","type":"Feature","properties":{"ident":"ES-0164","type":"small_airport","name":"Camp de vol La Puieda","elevation_ft":"1726","continent":"EU","iso_country":"ES","iso_region":"ES-CT","municipality":"Gurb","scheduled_service":"no"},"geometry":{"type":"Point","coordinates":[2.256166,41.988293]}},{"id":"320752","type":"Feature","properties":{"ident":"ES-0097","type":"small_airport","name":"Campillos Airfield","elevation_ft":"3937","continent":"EU","iso_country":"ES","iso_region":"ES-CM","municipality":"Campillos-Paravientos","scheduled_service":"no"},"geometry":{"type":"Point","coordinates":[-1.53596,39.941179]}},{"id":"315467","type":"Feature","properties":{"ident":"ES-0019","type":"small_airport","name":"Campo de Aviación de Ablitas","continent":"EU","iso_country":"ES","iso_region":"ES-NC","scheduled_service":"no","gps_code":"LETU"},"geometry":{"type":"Point","coordinates":[-1.620316,42.003278]}},{"id":"321391","type":"Feature","properties":{"ident":"ES-0152","type":"small_airport","name":"Campo de Aviación de Peralveche","elevation_ft":"3937","continent":"EU","iso_country":"ES","iso_region":"ES-CM","municipality":"Peralveche","scheduled_service":"no"},"geometry":{"type":"Point","coordinates":[-2.429352,40.602525]}},{"id":"321425","type":"Feature","properties":{"ident":"ES-0161","type":"small_airport","name":"Campo de Vuelo Avial","elevation_ft":"2074","continent":"EU","iso_country":"ES","iso_region":"ES-CT","municipality":"Berga","scheduled_service":"no"},"geometry":{"type":"Point","coordinates":[1.840227,42.077377]}},{"id":"321719","type":"Feature","properties":{"ident":"ES-0220","type":"small_airport","name":"Campo de Vuelo Bañeres de Mariola","elevation_ft":"3117","continent":"EU","iso_country":"ES","iso_region":"ES-VC","municipality":"Banyeres de Mariola","scheduled_service":"no"},"geometry":{"type":"Point","coordinates":[-0.631257,38.671077]}},{"id":"320824","type":"Feature","properties":{"ident":"ES-0108","type":"small_airport","name":"Campo de Vuelo Casimiro Patiño","elevation_ft":"820","continent":"EU","iso_country":"ES","iso_region":"ES-EX","municipality":"Valverde de Leganés","scheduled_service":"no"},"geometry":{"type":"Point","coordinates":[-6.99975,38.705783]}},{"id":"321661","type":"Feature","properties":{"ident":"ES-0213","type":"small_airport","name":"Campo de Vuelo de Astorga","continent":"EU","iso_country":"ES","iso_region":"ES-CL","municipality":"Astorga","scheduled_service":"no","gps_code":"LEAT","home_link":"http://campodevueloastorga.es/"},"geometry":{"type":"Point","coordinates":[-6.026578,42.50323]}},{"id":"321689","type":"Feature","properties":{"ident":"ES-0214","type":"small_airport","name":"Campo de Vuelo de Caspe","elevation_ft":"656","continent":"EU","iso_country":"ES","iso_region":"ES-AR","municipality":"Caspe","scheduled_service":"no"},"geometry":{"type":"Point","coordinates":[-0.085876,41.228765]}},{"id":"321633","type":"Feature","properties":{"ident":"ES-0211","type":"small_airport","name":"Campo de Vuelo de Oteo","elevation_ft":"2307","continent":"EU","iso_country":"ES","iso_region":"ES-CL","municipality":"Oteo","scheduled_service":"no"},"geometry":{"type":"Point","coordinates":[-3.312033,43.016867]}},{"id":"321742","type":"Feature","properties":{"ident":"ES-0224","type":"small_airport","name":"Campo de Vuelo de Pozorrubio","continent":"EU","iso_country":"ES","iso_region":"ES-CM","municipality":"Pozorrubio","scheduled_service":"no"},"geometry":{"type":"Point","coordinates":[-2.95236,39.825953]}},{"id":"321067","type":"Feature","properties":{"ident":"ES-0119","type":"small_airport","name":"Campo de vuelo de Villanueva del Trabuco","elevation_ft":"2123","continent":"EU","iso_country":"ES","iso_region":"ES-AN","municipality":"Villanueva del Trabuco","scheduled_service":"no"},"geometry":{"type":"Point","coordinates":[-4.330335,37.063428]}},{"id":"321418","type":"Feature","properties":{"ident":"ES-0159","type":"small_airport","name":"Campo de Vuelo Moixent-Mogente","elevation_ft":"1837","continent":"EU","iso_country":"ES","iso_region":"ES-VC","municipality":"Mogente / Moixent","scheduled_service":"no"},"geometry":{"type":"Point","coordinates":[-0.833138,38.817024]}},{"id":"321419","type":"Feature","properties":{"ident":"ES-0160","type":"small_airport","name":"Campo de Vuelo Yecla","continent":"EU","iso_country":"ES","iso_region":"ES-MC","municipality":"Yecla","scheduled_service":"no"},"geometry":{"type":"Point","coordinates":[-1.105,38.58759]}},{"id":"43242","type":"Feature","properties":{"ident":"LEGV","type":"heliport","name":"Campo Gaviota Heliport","elevation_ft":"630","continent":"EU","iso_country":"ES","iso_region":"ES-PV","scheduled_service":"no","gps_code":"LEGV"},"geometry":{"type":"Point","coordinates":[-2.75361,43.4417]}},{"id":"430645","type":"Feature","properties":{"ident":"ES-0329","type":"small_airport","name":"Capdepera Aerodrom","continent":"EU","iso_country":"ES","iso_region":"ES-IB","scheduled_service":"no"},"geometry":{"type":"Point","coordinates":[3.406375,39.692111]}},{"id":"509349","type":"Feature","properties":{"ident":"ES-0333","type":"small_airport","name":"Carreras de Galgos Airstrip","continent":"EU","iso_country":"ES","iso_region":"ES-CM","municipality":"Galgos de Villarrubia de los Ojos","scheduled_service":"no"},"geometry":{"type":"Point","coordinates":[-3.5988,39.2007]}},{"id":"342862","type":"Feature","properties":{"ident":"ES-0293","type":"heliport","name":"Cartagena Helicopter Base","continent":"EU","iso_country":"ES","iso_region":"ES-MC","scheduled_service":"no"},"geometry":{"type":"Point","coordinates":[-0.842058,37.697502]}},{"id":"43244","type":"Feature","properties":{"ident":"LECC","type":"heliport","name":"Cas Curredó Heliport","elevation_ft":"278","continent":"EU","iso_country":"ES","iso_region":"ES-IB","municipality":"Santa Eulària des Riu","scheduled_service":"no","gps_code":"LECC"},"geometry":{"type":"Point","coordinates":[1.46633,38.9291]}},{"id":"43245","type":"Feature","properties":{"ident":"LEMT","type":"small_airport","name":"Casarrubios Del Monte Airfield","elevation_ft":"2050","continent":"EU","iso_country":"ES","iso_region":"ES-CM","municipality":"Toledo","scheduled_service":"no","gps_code":"LEMT"},"geometry":{"type":"Point","coordinates":[-4.02639,40.235001]}},{"id":"320137","type":"Feature","properties":{"ident":"ES-0041","type":"small_airport","name":"Casas de Juan Gil Airfield","elevation_ft":"2723","continent":"EU","iso_country":"ES","iso_region":"ES-CM","municipality":"Carcelén","scheduled_service":"no"},"geometry":{"type":"Point","coordinates":[-1.2622,39.133]}},{"id":"341987","type":"Feature","properties":{"ident":"ES-0282","type":"heliport","name":"Casas de Juan Núñez Heliport","elevation_ft":"2291","continent":"EU","iso_country":"ES","iso_region":"ES-CM","municipality":"Casas de Juan Núñez","scheduled_service":"no","local_code":"CJN","keywords":"CM-CJN"},"geometry":{"type":"Point","coordinates":[-1.5578,39.1103]}},{"id":"43246","type":"Feature","properties":{"ident":"LEPI","type":"small_airport","name":"Casas de los Pinos Airfield","elevation_ft":"2370","continent":"EU","iso_country":"ES","iso_region":"ES-CM","municipality":"Casas de los Pinos","scheduled_service":"no","gps_code":"LEPI","wikipedia_link":"https://es.wikipedia.org/wiki/Aer%C3%B3dromo_de_Casas_de_los_Pinos"},"geometry":{"type":"Point","coordinates":[-2.37872,39.298199]}},{"id":"341991","type":"Feature","properties":{"ident":"ES-0286","type":"heliport","name":"Casas de Lázaro Heliport","elevation_ft":"3087","continent":"EU","iso_country":"ES","iso_region":"ES-CM","municipality":"Casas de Lázaro","scheduled_service":"no","local_code":"CDL","keywords":"CM-CDL"},"geometry":{"type":"Point","coordinates":[-2.2432,38.7748]}},{"id":"321603","type":"Feature","properties":{"ident":"ES-0205","type":"small_airport","name":"Castejón de Sos Airfield","elevation_ft":"2959","continent":"EU","iso_country":"ES","iso_region":"ES-AR","municipality":"Castejón de Sos","scheduled_service":"no","home_link":"http://www.aviador.net"},"geometry":{"type":"Point","coordinates":[0.481114,42.522468]}},{"id":"29760","type":"Feature","properties":{"ident":"LECN","type":"small_airport","name":"Castellon de la Plana Aerodrome","elevation_ft":"20","continent":"EU","iso_country":"ES","iso_region":"ES-VC","municipality":"Castellón de la Plana","scheduled_service":"no","gps_code":"LECN","home_link":"http://aeroclubcastellon.com","wikipedia_link":"https://en.wikipedia.org/wiki/Castell%C3%B3n_Airport","keywords":"CDT"},"geometry":{"type":"Point","coordinates":[0.026355,39.99836]}},{"id":"300859","type":"Feature","properties":{"ident":"LECH","type":"medium_airport","name":"Castellón-Costa Azahar Airport","elevation_ft":"1182","continent":"EU","iso_country":"ES","iso_region":"ES-VC","municipality":"Castellón de la Plana","scheduled_service":"yes","gps_code":"LECH","iata_code":"CDT","home_link":"https://www.aeroportcastello.com/","wikipedia_link":"https://en.wikipedia.org/wiki/Castell%C3%B3n%E2%80%93Costa_Azahar_Airport"},"geometry":{"type":"Point","coordinates":[0.073333,40.213889]}},{"id":"309929","type":"Feature","properties":{"ident":"ES-0012","type":"small_airport","name":"Castriz/Cambe Airfield","elevation_ft":"1200","continent":"EU","iso_country":"ES","iso_region":"ES-GA","municipality":"Santa Comba","scheduled_service":"no","keywords":"Aeroclub Cambre"},"geometry":{"type":"Point","coordinates":[-8.7617,43.102502]}},{"id":"429756","type":"Feature","properties":{"ident":"ES-0319","type":"heliport","name":"Cella Emergency Heliport","continent":"EU","iso_country":"ES","iso_region":"ES-AR","municipality":"Cella","scheduled_service":"no"},"geometry":{"type":"Point","coordinates":[-1.28498,40.45859]}},{"id":"35151","type":"Feature","properties":{"ident":"GECE","type":"heliport","name":"Ceuta Heliport","elevation_ft":"8","continent":"AF","iso_country":"ES","iso_region":"ES-CE","municipality":"Ceuta","scheduled_service":"yes","gps_code":"GECE","iata_code":"JCU","home_link":"https://www.aena.es/en/ceuta.html","wikipedia_link":"https://en.wikipedia.org/wiki/Ceuta_Heliport","keywords":"GECT"},"geometry":{"type":"Point","coordinates":[-5.306321,35.892657]}},{"id":"309925","type":"Feature","properties":{"ident":"ES-0011","type":"small_airport","name":"Chaira Airfield","elevation_ft":"1946","continent":"EU","iso_country":"ES","iso_region":"ES-GA","municipality":"Baños de Molgas","scheduled_service":"no"},"geometry":{"type":"Point","coordinates":[-7.6448,42.23282]}},{"id":"320712","type":"Feature","properties":{"ident":"ES-0092","type":"small_airport","name":"Chozas de Abajo","elevation_ft":"2953","continent":"EU","iso_country":"ES","iso_region":"ES-CL","scheduled_service":"no"},"geometry":{"type":"Point","coordinates":[-5.682669,42.497215]}},{"id":"46583","type":"Feature","properties":{"ident":"LERL","type":"medium_airport","name":"Ciudad Real International Airport","continent":"EU","iso_country":"ES","iso_region":"ES-CM","municipality":"Ciudad Real","scheduled_service":"no","gps_code":"LERL","iata_code":"CQM","home_link":"http://www.aeropuertocentralcr.com/","wikipedia_link":"https://en.wikipedia.org/wiki/Ciudad_Real_International_Airport","keywords":"Ciudad Real Central Airport"},"geometry":{"type":"Point","coordinates":[-3.969944,38.856479]}},{"id":"315436","type":"Feature","properties":{"ident":"ES-0016","type":"small_airport","name":"Club Aernautic Catalunya","continent":"EU","iso_country":"ES","iso_region":"ES-CT","scheduled_service":"no"},"geometry":{"type":"Point","coordinates":[2.611389,41.750278]}},{"id":"329235","type":"Feature","properties":{"ident":"ES-0244","type":"small_airport","name":"Club Fenix ULM","continent":"EU","iso_country":"ES","iso_region":"ES-VC","scheduled_service":"no"},"geometry":{"type":"Point","coordinates":[-0.811627,39.657599]}},{"id":"320689","type":"Feature","properties":{"ident":"ES-0086","type":"small_airport","name":"Cocoll Firefighting Airstrip","elevation_ft":"3019","continent":"EU","iso_country":"ES","iso_region":"ES-VC","municipality":"Castell de Castells","scheduled_service":"no"},"geometry":{"type":"Point","coordinates":[-0.144053,38.73217]}},{"id":"321582","type":"Feature","properties":{"ident":"ES-0201","type":"small_airport","name":"Cogullada","elevation_ft":"673","continent":"EU","iso_country":"ES","iso_region":"ES-AR","municipality":"Zaragoza","scheduled_service":"no"},"geometry":{"type":"Point","coordinates":[-0.85157,41.691623]}},{"id":"430537","type":"Feature","properties":{"ident":"ES-0326","type":"heliport","name":"Coll de Rates Helipad","elevation_ft":"2061","continent":"EU","iso_country":"ES","iso_region":"ES-VC","municipality":"Parcent","scheduled_service":"no"},"geometry":{"type":"Point","coordinates":[-0.061191,38.723737]}},{"id":"43249","type":"Feature","properties":{"ident":"LEBC","type":"heliport","name":"Costa Brava-Centro Heliport","elevation_ft":"42","continent":"EU","iso_country":"ES","iso_region":"ES-CT","scheduled_service":"no","gps_code":"LEBC"},"geometry":{"type":"Point","coordinates":[3.03718,41.807701]}},{"id":"43250","type":"Feature","properties":{"ident":"LEPV","type":"heliport","name":"Costa Norte-Puerto de Viveiro-Celeiro Heliport","elevation_ft":"13","continent":"EU","iso_country":"ES","iso_region":"ES-GA","municipality":"Vivero","scheduled_service":"no","gps_code":"LEPV"},"geometry":{"type":"Point","coordinates":[-7.59523,43.674801]}},{"id":"3082","type":"Feature","properties":{"ident":"GCRR","type":"large_airport","name":"César Manrique-Lanzarote Airport","elevation_ft":"46","continent":"AF","iso_country":"ES","iso_region":"ES-CN","municipality":"San Bartolomé","scheduled_service":"yes","gps_code":"GCRR","iata_code":"ACE","home_link":"https://www.lanzaroteairport.info/barrier-free-disability-assistance-service/","wikipedia_link":"https://en.wikipedia.org/wiki/Lanzarote_Airport","keywords":"Arrecife Airport"},"geometry":{"type":"Point","coordinates":[-13.6052,28.945499]}},{"id":"324795","type":"Feature","properties":{"ident":"ES-0234","type":"small_airport","name":"Cóbreces Airfield","elevation_ft":"164","continent":"EU","iso_country":"ES","iso_region":"ES-CB","municipality":"Cóbreces","scheduled_service":"no"},"geometry":{"type":"Point","coordinates":[-4.207752,43.388518]}},{"id":"4000","type":"Feature","properties":{"ident":"LEBA","type":"medium_airport","name":"Córdoba Airport","elevation_ft":"297","continent":"EU","iso_country":"ES","iso_region":"ES-AN","municipality":"Córdoba","scheduled_service":"no","gps_code":"LEBA","iata_code":"ODB","home_link":"https://www.aena.es/en/cordoba.html","wikipedia_link":"https://en.wikipedia.org/wiki/C%C3%B3rdoba_Airport"},"geometry":{"type":"Point","coordinates":[-4.84888,37.841999]}},{"id":"429760","type":"Feature","properties":{"ident":"ES-0323","type":"heliport","name":"Daroca Heliport","continent":"EU","iso_country":"ES","iso_region":"ES-AR","municipality":"Daroca","scheduled_service":"no"},"geometry":{"type":"Point","coordinates":[-1.41989,41.13216]}},{"id":"43251","type":"Feature","properties":{"ident":"LEDG","type":"heliport","name":"Dirección General de Tráfico Heliport","elevation_ft":"2336","continent":"EU","iso_country":"ES","iso_region":"ES-MD","municipality":"Madrid","scheduled_service":"no","gps_code":"LEDG"},"geometry":{"type":"Point","coordinates":[-3.646131,40.449299]}},{"id":"320690","type":"Feature","properties":{"ident":"ES-0087","type":"small_airport","name":"Don Benito","continent":"EU","iso_country":"ES","iso_region":"ES-EX","scheduled_service":"no"},"geometry":{"type":"Point","coordinates":[-5.866,38.978467]}},{"id":"43252","type":"Feature","properties":{"ident":"LEEV","type":"small_airport","name":"E. Castellanos-Villacastín Airfield","elevation_ft":"3637","continent":"EU","iso_country":"ES","iso_region":"ES-CL","municipality":"Villacastin","scheduled_service":"no","gps_code":"LEEV"},"geometry":{"type":"Point","coordinates":[-4.46278,40.783901]}},{"id":"321460","type":"Feature","properties":{"ident":"ES-0171","type":"small_airport","name":"Ecija 2 private airfield","elevation_ft":"574","continent":"EU","iso_country":"ES","iso_region":"ES-AN","municipality":"Ecija","scheduled_service":"no"},"geometry":{"type":"Point","coordinates":[-5.12135,37.514257]}},{"id":"511835","type":"Feature","properties":{"ident":"ES-0335","type":"small_airport","name":"El Arenosilllo Airstrip","continent":"EU","iso_country":"ES","iso_region":"ES-AN","municipality":"Moguer","scheduled_service":"no","keywords":"CEDEA"},"geometry":{"type":"Point","coordinates":[-6.73394,37.09727]}},{"id":"29842","type":"Feature","properties":{"ident":"GCLB","type":"small_airport","name":"El Berriel Aeroc Airport","elevation_ft":"20","continent":"AF","iso_country":"ES","iso_region":"ES-CN","municipality":"Gran Canaria Island","scheduled_service":"no","gps_code":"GCLB"},"geometry":{"type":"Point","coordinates":[-15.5072,27.782499]}},{"id":"355324","type":"Feature","properties":{"ident":"LEBD","type":"heliport","name":"El Bodon Heliport","elevation_ft":"2647","continent":"EU","iso_country":"ES","iso_region":"ES-CL","municipality":"37520 El Bodón","scheduled_service":"no","gps_code":"LEBD"},"geometry":{"type":"Point","coordinates":[-6.57709,40.48453]}},{"id":"321555","type":"Feature","properties":{"ident":"ES-0191","type":"small_airport","name":"El Bonillo Airfield","elevation_ft":"3183","continent":"EU","iso_country":"ES","iso_region":"ES-CM","municipality":"El Bonillo","scheduled_service":"no"},"geometry":{"type":"Point","coordinates":[-2.6733,38.8727]}},{"id":"43253","type":"Feature","properties":{"ident":"LEVB","type":"small_airport","name":"El Carrascal Airfield","elevation_ft":"2788","continent":"EU","iso_country":"ES","iso_region":"ES-CL","municipality":"Valladolid","scheduled_service":"no","gps_code":"LEVB"},"geometry":{"type":"Point","coordinates":[-4.89306,41.824699]}},{"id":"43254","type":"Feature","properties":{"ident":"LECT","type":"small_airport","name":"El Castaño Airfield","elevation_ft":"2116","continent":"EU","iso_country":"ES","iso_region":"ES-CM","municipality":"Luciana","scheduled_service":"no","gps_code":"LECT","wikipedia_link":"https://es.wikipedia.org/wiki/Aer%C3%B3dromo_de_El_Casta%C3%B1o"},"geometry":{"type":"Point","coordinates":[-4.387141,39.013604]}},{"id":"321518","type":"Feature","properties":{"ident":"ES-0188","type":"small_airport","name":"El Ejido UL","elevation_ft":"157","continent":"EU","iso_country":"ES","iso_region":"ES-AN","municipality":"El Ejido","scheduled_service":"no"},"geometry":{"type":"Point","coordinates":[-2.767483,36.744117]}},{"id":"3079","type":"Feature","properties":{"ident":"GCHI","type":"medium_airport","name":"El Hierro Airport","elevation_ft":"103","continent":"AF","iso_country":"ES","iso_region":"ES-CN","municipality":"El Hierro Island","scheduled_service":"yes","gps_code":"GCHI","iata_code":"VDE","home_link":"https://www.aena.es/en/el-hierro.html","wikipedia_link":"https://en.wikipedia.org/wiki/El_Hierro_Airport","keywords":"Hierro,El Hierro"},"geometry":{"type":"Point","coordinates":[-17.8871,27.8148]}},{"id":"43255","type":"Feature","properties":{"ident":"LEEM","type":"small_airport","name":"El Manantío Airfield","elevation_ft":"708","continent":"EU","iso_country":"ES","iso_region":"ES-EX","municipality":"Badajoz","scheduled_service":"no","gps_code":"LEEM"},"geometry":{"type":"Point","coordinates":[-6.991124,38.777508]}},{"id":"506314","type":"Feature","properties":{"ident":"ES-0332","type":"small_airport","name":"El Membrillar","continent":"EU","iso_country":"ES","iso_region":"ES-CM","scheduled_service":"no"},"geometry":{"type":"Point","coordinates":[-4.73449,39.39256]}},{"id":"321529","type":"Feature","properties":{"ident":"ES-0190","type":"small_airport","name":"El Molinillo Airfield","elevation_ft":"1034","continent":"EU","iso_country":"ES","iso_region":"ES-EX","municipality":"Almendralejo","scheduled_service":"no","gps_code":"LELI","home_link":"https://aeroclubalavi.es/"},"geometry":{"type":"Point","coordinates":[-6.391888,38.739954]}},{"id":"326987","type":"Feature","properties":{"ident":"ES-0238","type":"small_airport","name":"El Moral Airstrip","elevation_ft":"1496","continent":"EU","iso_country":"ES","iso_region":"ES-EX","scheduled_service":"no","home_link":"http://aerodromoelmoral.net/"},"geometry":{"type":"Point","coordinates":[-6.263409,38.485842]}},{"id":"43256","type":"Feature","properties":{"ident":"LEEL","type":"heliport","name":"El Musel Heliport","elevation_ft":"1","continent":"EU","iso_country":"ES","iso_region":"ES-AS","municipality":"Gijón","scheduled_service":"no","gps_code":"LEEL"},"geometry":{"type":"Point","coordinates":[-5.695446,43.549732]}},{"id":"43257","type":"Feature","properties":{"ident":"LEPY","type":"heliport","name":"El Portinyol Heliport","elevation_ft":"200","continent":"EU","iso_country":"ES","iso_region":"ES-CT","municipality":"Barcelona","scheduled_service":"no","gps_code":"LEPY"},"geometry":{"type":"Point","coordinates":[2.56079,41.5835]}},{"id":"331423","type":"Feature","properties":{"ident":"LEGP","type":"small_airport","name":"El Rinconcillo de Guadalupe","continent":"EU","iso_country":"ES","iso_region":"ES-EX","scheduled_service":"no","keywords":"LEGP"},"geometry":{"type":"Point","coordinates":[-6.206276,39.594127]}},{"id":"4040","type":"Feature","properties":{"ident":"LETI","type":"small_airport","name":"El Tietar Airfield","elevation_ft":"1401","continent":"EU","iso_country":"ES","iso_region":"ES-CM","municipality":"La Iglesuela","scheduled_service":"no","gps_code":"LETI"},"geometry":{"type":"Point","coordinates":[-4.79444,40.2439]}},{"id":"429747","type":"Feature","properties":{"ident":"ES-0312","type":"heliport","name":"Esporles Private Helipad","continent":"EU","iso_country":"ES","iso_region":"ES-IB","municipality":"Esporles","scheduled_service":"no"},"geometry":{"type":"Point","coordinates":[2.55311,39.67124]}},{"id":"326685","type":"Feature","properties":{"ident":"ES-0237","type":"heliport","name":"Estepona Airfield","elevation_ft":"2033","continent":"EU","iso_country":"ES","iso_region":"ES-AN","municipality":"Estepona","scheduled_service":"no"},"geometry":{"type":"Point","coordinates":[-5.17816,36.495633]}},{"id":"4011","type":"Feature","properties":{"ident":"LEGR","type":"medium_airport","name":"F.G.L. Airport Granada-Jaén Airport","elevation_ft":"1860","continent":"EU","iso_country":"ES","iso_region":"ES-AN","municipality":"Granada","scheduled_service":"yes","gps_code":"LEGR","iata_code":"GRX","home_link":"https://www.aena.es/en/f.g.l.-granada-jaen.html","wikipedia_link":"https://en.wikipedia.org/wiki/Federico_Garc%C3%ADa_Lorca_Airport"},"geometry":{"type":"Point","coordinates":[-3.77736,37.188702]}},{"id":"43260","type":"Feature","properties":{"ident":"LEFR","type":"heliport","name":"Fira M2 Heliport","elevation_ft":"34","continent":"EU","iso_country":"ES","iso_region":"ES-CT","municipality":"Barcelona","scheduled_service":"no","gps_code":"LEFR"},"geometry":{"type":"Point","coordinates":[2.12917,41.353901]}},{"id":"320825","type":"Feature","properties":{"ident":"ES-0109","type":"medium_airport","name":"Folgueroles Airfield","elevation_ft":"1670","continent":"EU","iso_country":"ES","iso_region":"ES-CT","municipality":"Folgueroles","scheduled_service":"no","keywords":"Osona"},"geometry":{"type":"Point","coordinates":[2.3072,41.9527]}},{"id":"340403","type":"Feature","properties":{"ident":"ES-0279","type":"heliport","name":"Formentera Heliport","continent":"EU","iso_country":"ES","iso_region":"ES-IB","municipality":"Sant Francesc Xavier","scheduled_service":"no"},"geometry":{"type":"Point","coordinates":[1.435214,38.707918]}},{"id":"331406","type":"Feature","properties":{"ident":"ES-0250","type":"small_airport","name":"Fresno de Losa Airstrip","continent":"EU","iso_country":"ES","iso_region":"ES-CL","scheduled_service":"no"},"geometry":{"type":"Point","coordinates":[-3.153117,42.953467]}},{"id":"321517","type":"Feature","properties":{"ident":"ES-0187","type":"small_airport","name":"Fuentealamo Airfield","elevation_ft":"2690","continent":"EU","iso_country":"ES","iso_region":"ES-CM","municipality":"Chinchilla de Montearagón","scheduled_service":"no"},"geometry":{"type":"Point","coordinates":[-1.545093,38.715499]}},{"id":"4008","type":"Feature","properties":{"ident":"LEFM","type":"small_airport","name":"Fuentemilanos Airfield","elevation_ft":"3307","continent":"EU","iso_country":"ES","iso_region":"ES-CL","municipality":"Segovia","scheduled_service":"no","gps_code":"LEFM","wikipedia_link":"http://es.wikipedia.org/wiki/Aer%C3%B3dromo_de_Fuentemilanos"},"geometry":{"type":"Point","coordinates":[-4.240165,40.889137]}},{"id":"315972","type":"Feature","properties":{"ident":"ES-0029","type":"small_airport","name":"Fuenterrobles","continent":"EU","iso_country":"ES","iso_region":"ES-VC","scheduled_service":"no"},"geometry":{"type":"Point","coordinates":[-1.36225,39.56601]}},{"id":"3077","type":"Feature","properties":{"ident":"GCFV","type":"large_airport","name":"Fuerteventura Airport","elevation_ft":"85","continent":"AF","iso_country":"ES","iso_region":"ES-CN","municipality":"El Matorral","scheduled_service":"yes","gps_code":"GCFV","iata_code":"FUE","home_link":"https://www.aena.es/en/fuerteventura.html","wikipedia_link":"https://en.wikipedia.org/wiki/Fuerteventura_Airport"},"geometry":{"type":"Point","coordinates":[-13.8638,28.4527]}},{"id":"43261","type":"Feature","properties":{"ident":"LEGD","type":"heliport","name":"Garidells Heliport","elevation_ft":"434","continent":"EU","iso_country":"ES","iso_region":"ES-CT","municipality":"Tarragona","scheduled_service":"no","gps_code":"LEGD"},"geometry":{"type":"Point","coordinates":[1.24156,41.213902]}},{"id":"38693","type":"Feature","properties":{"ident":"LEGY","type":"small_airport","name":"Garray Airfield","elevation_ft":"3360","continent":"EU","iso_country":"ES","iso_region":"ES-CL","municipality":"Soria","scheduled_service":"no","gps_code":"LEGY","wikipedia_link":"http://es.wikipedia.org/wiki/Aer%C3%B3dromo_de_Garray-Soria"},"geometry":{"type":"Point","coordinates":[-2.476387,41.820004]}},{"id":"4012","type":"Feature","properties":{"ident":"LEGT","type":"medium_airport","name":"Getafe Air Base","elevation_ft":"2031","continent":"EU","iso_country":"ES","iso_region":"ES-MD","municipality":"Getafe","scheduled_service":"no","gps_code":"LEGT","wikipedia_link":"https://en.wikipedia.org/wiki/Getafe_Air_Base"},"geometry":{"type":"Point","coordinates":[-3.72383,40.294102]}},{"id":"4010","type":"Feature","properties":{"ident":"LEGE","type":"medium_airport","name":"Girona-Costa Brava Airport","elevation_ft":"468","continent":"EU","iso_country":"ES","iso_region":"ES-CT","municipality":"Girona","scheduled_service":"yes","gps_code":"LEGE","iata_code":"GRO","home_link":"https://www.aena.es/en/girona-costa-brava.html","wikipedia_link":"https://en.wikipedia.org/wiki/Girona-Costa_Brava_Airport","keywords":"Girona,Costa Brava,Girona-Costa Brava"},"geometry":{"type":"Point","coordinates":[2.761774,41.904639]}},{"id":"510463","type":"Feature","properties":{"ident":"ES-0334","type":"balloonport","name":"Globedrom de Son Perot","continent":"EU","iso_country":"ES","iso_region":"ES-IB","scheduled_service":"no","home_link":"https://www.mallorcaballoons.com"},"geometry":{"type":"Point","coordinates":[3.15622,39.574676]}},{"id":"309930","type":"Feature","properties":{"ident":"ES-0013","type":"small_airport","name":"Godos Airfield","elevation_ft":"45","continent":"EU","iso_country":"ES","iso_region":"ES-GA","municipality":"Caldas de Reis","scheduled_service":"no"},"geometry":{"type":"Point","coordinates":[-8.6968,42.5787]}},{"id":"3081","type":"Feature","properties":{"ident":"GCLP","type":"large_airport","name":"Gran Canaria Airport","elevation_ft":"78","continent":"AF","iso_country":"ES","iso_region":"ES-CN","municipality":"Gran Canaria Island","scheduled_service":"yes","gps_code":"GCLP","iata_code":"LPA","home_link":"https://www.aena.es/en/gran-canaria.html","wikipedia_link":"https://en.wikipedia.org/wiki/Gran_Canaria_Airport","keywords":"Canary Islands, Las Palmas Airport, Gando Airport"},"geometry":{"type":"Point","coordinates":[-15.3866,27.9319]}},{"id":"430635","type":"Feature","properties":{"ident":"ES-0327","type":"heliport","name":"Grossa Helipad","continent":"EU","iso_country":"ES","iso_region":"ES-VC","municipality":"Castellon","scheduled_service":"no"},"geometry":{"type":"Point","coordinates":[0.684122,39.898227]}},{"id":"342017","type":"Feature","properties":{"ident":"ES-0290","type":"heliport","name":"Guadalajara Heliport","elevation_ft":"2100","continent":"EU","iso_country":"ES","iso_region":"ES-CM","municipality":"Guadalajara","scheduled_service":"no"},"geometry":{"type":"Point","coordinates":[-3.1731,40.6578]}},{"id":"320751","type":"Feature","properties":{"ident":"ES-0096","type":"small_airport","name":"Guadix","elevation_ft":"3281","continent":"EU","iso_country":"ES","iso_region":"ES-AN","scheduled_service":"no","keywords":"Conejo"},"geometry":{"type":"Point","coordinates":[-3.075759,37.412624]}},{"id":"329206","type":"Feature","properties":{"ident":"ES-0242","type":"heliport","name":"Guillade Heliport","continent":"EU","iso_country":"ES","iso_region":"ES-GA","municipality":"Guillade","scheduled_service":"no"},"geometry":{"type":"Point","coordinates":[-8.43643,42.170884]}},{"id":"320168","type":"Feature","properties":{"ident":"ES-0048","type":"small_airport","name":"Gérgal Aerodrome","elevation_ft":"2559","continent":"EU","iso_country":"ES","iso_region":"ES-AN","municipality":"Gérgal","scheduled_service":"no","keywords":"LEGG, Aerödromo de Gérgal"},"geometry":{"type":"Point","coordinates":[-2.595571,37.12557]}},{"id":"321660","type":"Feature","properties":{"ident":"ES-0212","type":"small_airport","name":"Hacienda de Orán","elevation_ft":"72","continent":"EU","iso_country":"ES","iso_region":"ES-AN","municipality":"Utrero","scheduled_service":"no"},"geometry":{"type":"Point","coordinates":[-5.880853,37.200041]}},{"id":"43263","type":"Feature","properties":{"ident":"LEMN","type":"heliport","name":"Heli Montsiá - Amposta Heliport","elevation_ft":"254","continent":"EU","iso_country":"ES","iso_region":"ES-CT","municipality":"Tarragona","scheduled_service":"no","gps_code":"LEMN"},"geometry":{"type":"Point","coordinates":[0.564722,40.666401]}},{"id":"329148","type":"Feature","properties":{"ident":"ES-0240","type":"heliport","name":"Heliactivo","continent":"EU","iso_country":"ES","iso_region":"ES-VC","municipality":"Benidorm","scheduled_service":"no"},"geometry":{"type":"Point","coordinates":[-0.151148,38.563299]}},{"id":"43264","type":"Feature","properties":{"ident":"LEHE","type":"heliport","name":"Helicsa Heliport","elevation_ft":"2226","continent":"EU","iso_country":"ES","iso_region":"ES-CM","municipality":"Albacete","scheduled_service":"no","gps_code":"LEHE"},"geometry":{"type":"Point","coordinates":[-1.834567,39.071106]}},{"id":"514552","type":"Feature","properties":{"ident":"ES-0338","type":"heliport","name":"Helipuerto de Campillo de la Jara","continent":"EU","iso_country":"ES","iso_region":"ES-CM","scheduled_service":"no"},"geometry":{"type":"Point","coordinates":[-5.05067,39.60047]}},{"id":"331570","type":"Feature","properties":{"ident":"ES-0258","type":"heliport","name":"Helipuerto de Sahechores","continent":"EU","iso_country":"ES","iso_region":"ES-CL","scheduled_service":"no"},"geometry":{"type":"Point","coordinates":[-5.19233,42.62011]}},{"id":"342666","type":"Feature","properties":{"ident":"ES-0292","type":"heliport","name":"Helipuerto de Segovia","continent":"EU","iso_country":"ES","iso_region":"ES-CL","scheduled_service":"no"},"geometry":{"type":"Point","coordinates":[-4.173464,40.923444]}},{"id":"43266","type":"Feature","properties":{"ident":"LENM","type":"heliport","name":"Hospital Can Misses Heliport","elevation_ft":"91","continent":"EU","iso_country":"ES","iso_region":"ES-IB","municipality":"Ibiza (Eivissa)","scheduled_service":"no","gps_code":"LENM"},"geometry":{"type":"Point","coordinates":[1.41944,38.9175]}},{"id":"43267","type":"Feature","properties":{"ident":"LEDO","type":"heliport","name":"Hospital Doce de Octubre Heliport","elevation_ft":"1970","continent":"EU","iso_country":"ES","iso_region":"ES-MD","municipality":"Madrid","scheduled_service":"no","gps_code":"LEDO"},"geometry":{"type":"Point","coordinates":[-3.699853,40.374736]}},{"id":"43268","type":"Feature","properties":{"ident":"LEJT","type":"heliport","name":"Hospital Doctor Josep Trueta Heliport","elevation_ft":"215","continent":"EU","iso_country":"ES","iso_region":"ES-CT","municipality":"Gerona","scheduled_service":"no","gps_code":"LEJT"},"geometry":{"type":"Point","coordinates":[2.8214,41.997898]}},{"id":"43269","type":"Feature","properties":{"ident":"LEHG","type":"heliport","name":"Hospital General De Catalunya Heliport","elevation_ft":"385","continent":"EU","iso_country":"ES","iso_region":"ES-CT","scheduled_service":"no","gps_code":"LEHG"},"geometry":{"type":"Point","coordinates":[2.0425,41.473598]}},{"id":"43270","type":"Feature","properties":{"ident":"LEHM","type":"heliport","name":"Hospital General De Manresa Heliport","elevation_ft":"962","continent":"EU","iso_country":"ES","iso_region":"ES-CT","municipality":"Manresa","scheduled_service":"no","gps_code":"LEHM"},"geometry":{"type":"Point","coordinates":[1.84056,41.720001]}},{"id":"43271","type":"Feature","properties":{"ident":"LESP","type":"heliport","name":"Hospital San Pau Heliport","elevation_ft":"265","continent":"EU","iso_country":"ES","iso_region":"ES-CT","municipality":"Barcelona","scheduled_service":"no","gps_code":"LESP"},"geometry":{"type":"Point","coordinates":[2.17196,41.413502]}},{"id":"43272","type":"Feature","properties":{"ident":"GCHU","type":"heliport","name":"Hospital Universitario De Canarias Heliport","elevation_ft":"1080","continent":"AF","iso_country":"ES","iso_region":"ES-CN","municipality":"Tenerife Island","scheduled_service":"no","gps_code":"GCHU"},"geometry":{"type":"Point","coordinates":[-16.292101,28.4562]}},{"id":"43273","type":"Feature","properties":{"ident":"LEHJ","type":"heliport","name":"Hospital Universitario Joan XXIII Heliport","elevation_ft":"75","continent":"EU","iso_country":"ES","iso_region":"ES-CT","municipality":"Tarragona","scheduled_service":"no","gps_code":"LEHJ"},"geometry":{"type":"Point","coordinates":[1.23813,41.125599]}},{"id":"43274","type":"Feature","properties":{"ident":"LEJC","type":"heliport","name":"Hotel Rey Juan Carlos I Heliport","elevation_ft":"287","continent":"EU","iso_country":"ES","iso_region":"ES-CT","municipality":"Barcelona","scheduled_service":"no","gps_code":"LEJC"},"geometry":{"type":"Point","coordinates":[2.10917,41.3825]}},{"id":"299647","type":"Feature","properties":{"ident":"ES-0004","type":"heliport","name":"Huerta Otea Helipad","continent":"EU","iso_country":"ES","iso_region":"ES-CL","municipality":"Salamanca","scheduled_service":"no"},"geometry":{"type":"Point","coordinates":[-5.683687,40.964462]}},{"id":"29967","type":"Feature","properties":{"ident":"LEHC","type":"small_airport","name":"Huesca-Pirineos Airport","elevation_ft":"1769","continent":"EU","iso_country":"ES","iso_region":"ES-AR","municipality":"Monflorite/Alcalá del Obispo","scheduled_service":"no","gps_code":"LEHC","iata_code":"HSK","home_link":"https://www.aena.es/en/huesca-pirineos.html","wikipedia_link":"https://en.wikipedia.org/wiki/Huesca%E2%80%93Pirineos_Airport","keywords":"Huesca-Pirineos, Huesca-Pyrenees"},"geometry":{"type":"Point","coordinates":[-0.316667,42.076099]}},{"id":"512845","type":"Feature","properties":{"ident":"ES-0337","type":"heliport","name":"Ibias Heliport","continent":"EU","iso_country":"ES","iso_region":"ES-AS","municipality":"Ibias","scheduled_service":"no"},"geometry":{"type":"Point","coordinates":[-6.88433,43.02707]}},{"id":"4013","type":"Feature","properties":{"ident":"LEIB","type":"large_airport","name":"Ibiza Airport","elevation_ft":"24","continent":"EU","iso_country":"ES","iso_region":"ES-IB","municipality":"Ibiza (Eivissa)","scheduled_service":"yes","gps_code":"LEIB","iata_code":"IBZ","home_link":"https://www.aena.es/en/ibiza.html","wikipedia_link":"https://en.wikipedia.org/wiki/Ibiza_Airport"},"geometry":{"type":"Point","coordinates":[1.37312,38.872898]}},{"id":"38691","type":"Feature","properties":{"ident":"LEIG","type":"small_airport","name":"Igualada/Odena Airfield","elevation_ft":"1080","continent":"EU","iso_country":"ES","iso_region":"ES-CT","municipality":"Barcelona","scheduled_service":"no","gps_code":"LEIG","home_link":"http://www10.gencat.net/ptop/AppJava/cat/aerotrans/aerodroms/aerodroms/igualada.jsp"},