{"type":"FeatureCollection","features":[{"id":"322421","type":"Feature","properties":{"ident":"FK-0029","type":"small_airport","name":"Beaver Island Airport","continent":"SA","iso_country":"FK","iso_region":"FK-U-A","municipality":"Beaver Island","scheduled_service":"no"},"geometry":{"type":"Point","coordinates":[-61.23365,-51.84025]}},{"id":"322419","type":"Feature","properties":{"ident":"FK-0027","type":"small_airport","name":"Bleaker Island Airport","continent":"SA","iso_country":"FK","iso_region":"FK-U-A","municipality":"Bleaker Island","scheduled_service":"no"},"geometry":{"type":"Point","coordinates":[-58.858788,-52.181403]}},{"id":"43041","type":"Feature","properties":{"ident":"FK-0011","type":"small_airport","name":"Carcass Island Landing Strip","continent":"SA","iso_country":"FK","iso_region":"FK-U-A","municipality":"Carcass Island","scheduled_service":"no"},"geometry":{"type":"Point","coordinates":[-60.592079,-51.263672]}},{"id":"322398","type":"Feature","properties":{"ident":"FK-0017","type":"small_airport","name":"Chartres Airport","continent":"SA","iso_country":"FK","iso_region":"FK-U-A","municipality":"Chartres","scheduled_service":"no"},"geometry":{"type":"Point","coordinates":[-60.062361,-51.719307]}},{"id":"322405","type":"Feature","properties":{"ident":"FK-0024","type":"small_airport","name":"Douglas Station Airport","continent":"SA","iso_country":"FK","iso_region":"FK-U-A","municipality":"Douglas","scheduled_service":"no"},"geometry":{"type":"Point","coordinates":[-58.612131,-51.459942]}},{"id":"322395","type":"Feature","properties":{"ident":"FK-0014","type":"small_airport","name":"Dunnose Head Airport","continent":"SA","iso_country":"FK","iso_region":"FK-U-A","municipality":"Dunnose Head","scheduled_service":"no"},"geometry":{"type":"Point","coordinates":[-60.415834,-51.753339]}},{"id":"41526","type":"Feature","properties":{"ident":"FK-0001","type":"small_airport","name":"Fox Bay Clay Airstrip","continent":"SA","iso_country":"FK","iso_region":"FK-U-A","municipality":"Fox Bay","scheduled_service":"no"},"geometry":{"type":"Point","coordinates":[-60.061595,-51.933694]}},{"id":"322502","type":"Feature","properties":{"ident":"FK-0035","type":"small_airport","name":"Fox Bay East Airstrip","continent":"SA","iso_country":"FK","iso_region":"FK-U-A","municipality":"Fox Bay East","scheduled_service":"no"},"geometry":{"type":"Point","coordinates":[-60.06315,-51.955049]}},{"id":"322404","type":"Feature","properties":{"ident":"FK-0023","type":"small_airport","name":"George Island Airport","continent":"SA","iso_country":"FK","iso_region":"FK-U-A","municipality":"George Island House","scheduled_service":"no"},"geometry":{"type":"Point","coordinates":[-59.758717,-52.349583]}},{"id":"41530","type":"Feature","properties":{"ident":"FK-0005","type":"small_airport","name":"Goose Green Airfield","continent":"SA","iso_country":"FK","iso_region":"FK-U-A","municipality":"Goose Green","scheduled_service":"no"},"geometry":{"type":"Point","coordinates":[-58.980893,-51.819282]}},{"id":"322397","type":"Feature","properties":{"ident":"FK-0016","type":"small_airport","name":"Hill Cove Airport","continent":"SA","iso_country":"FK","iso_region":"FK-U-A","municipality":"Hill Cove","scheduled_service":"no"},"geometry":{"type":"Point","coordinates":[-60.144435,-51.504427]}},{"id":"322403","type":"Feature","properties":{"ident":"FK-0022","type":"small_airport","name":"Lively Island Airport","continent":"SA","iso_country":"FK","iso_region":"FK-U-A","municipality":"Lively","scheduled_service":"no"},"geometry":{"type":"Point","coordinates":[-58.459238,-51.995626]}},{"id":"2512","type":"Feature","properties":{"ident":"EGYP","type":"medium_airport","name":"Mount Pleasant Airport","elevation_ft":"244","continent":"SA","iso_country":"FK","iso_region":"FK-U-A","municipality":"Mount Pleasant","scheduled_service":"yes","gps_code":"EGYP","iata_code":"MPN","wikipedia_link":"https://en.wikipedia.org/wiki/RAF_Mount_Pleasant","keywords":"RAF Mount Pleasant"},"geometry":{"type":"Point","coordinates":[-58.447201,-51.8228]}},{"id":"322399","type":"Feature","properties":{"ident":"FK-0018","type":"small_airport","name":"New Island Airport","continent":"SA","iso_country":"FK","iso_region":"FK-U-A","municipality":"New Island","scheduled_service":"no"},"geometry":{"type":"Point","coordinates":[-61.281616,-51.746491]}},{"id":"322400","type":"Feature","properties":{"ident":"FK-0019","type":"small_airport","name":"North Arm Airport","continent":"SA","iso_country":"FK","iso_region":"FK-U-A","municipality":"North Arm","scheduled_service":"no"},"geometry":{"type":"Point","coordinates":[-59.370239,-52.123295]}},{"id":"322504","type":"Feature","properties":{"ident":"FK-0036","type":"small_airport","name":"Pebble Island Beach Airstrip","elevation_ft":"1","continent":"SA","iso_country":"FK","iso_region":"FK-U-A","municipality":"Pebble Island","scheduled_service":"no"},"geometry":{"type":"Point","coordinates":[-59.566162,-51.310931]}},{"id":"41527","type":"Feature","properties":{"ident":"FK-0002","type":"small_airport","name":"Pebble Island Landing Strip","continent":"SA","iso_country":"FK","iso_region":"FK-U-A","municipality":"Pebble Island Settlement","scheduled_service":"no"},"geometry":{"type":"Point","coordinates":[-59.608772,-51.309788]}},{"id":"322394","type":"Feature","properties":{"ident":"FK-0013","type":"small_airport","name":"Port Abermarle Airport","continent":"SA","iso_country":"FK","iso_region":"FK-U-A","municipality":"Port Abermarle","scheduled_service":"no"},"geometry":{"type":"Point","coordinates":[-60.535062,-52.205532]}},{"id":"322495","type":"Feature","properties":{"ident":"FK-0032","type":"small_airport","name":"Port Edgar Airport","elevation_ft":"65","continent":"SA","iso_country":"FK","iso_region":"FK-U-A","municipality":"Port Edgar","scheduled_service":"no"},"geometry":{"type":"Point","coordinates":[-60.282682,-52.090803]}},{"id":"322500","type":"Feature","properties":{"ident":"FK-0033","type":"small_airport","name":"Port Howard Airstrip","continent":"SA","iso_country":"FK","iso_region":"FK-U-A","municipality":"Port Howard","scheduled_service":"no"},"geometry":{"type":"Point","coordinates":[-59.516675,-51.613225]}},{"id":"43039","type":"Feature","properties":{"ident":"FK-0009","type":"small_airport","name":"Port Howard Purvis Pond Airstrip","continent":"SA","iso_country":"FK","iso_region":"FK-U-A","municipality":"Port Howard Settlement","scheduled_service":"no"},"geometry":{"type":"Point","coordinates":[-59.533699,-51.5681]}},{"id":"41533","type":"Feature","properties":{"ident":"FK-0008","type":"small_airport","name":"Port San Carlos Landing Strip","continent":"SA","iso_country":"FK","iso_region":"FK-U-A","municipality":"Port San Carlos","scheduled_service":"no"},"geometry":{"type":"Point","coordinates":[-59.003613,-51.501667]}},{"id":"6087","type":"Feature","properties":{"ident":"SFAL","type":"medium_airport","name":"Port Stanley Airport","elevation_ft":"75","continent":"SA","iso_country":"FK","iso_region":"FK-U-A","municipality":"Stanley","scheduled_service":"yes","gps_code":"SFAL","iata_code":"PSY","wikipedia_link":"https://en.wikipedia.org/wiki/Port_Stanley_Airport"},"geometry":{"type":"Point","coordinates":[-57.777599,-51.685699]}},{"id":"322393","type":"Feature","properties":{"ident":"FK-0012","type":"small_airport","name":"Port Stephens Airport","continent":"SA","iso_country":"FK","iso_region":"FK-U-A","municipality":"Port Stephens","scheduled_service":"no"},"geometry":{"type":"Point","coordinates":[-60.852379,-52.09473]}},{"id":"41531","type":"Feature","properties":{"ident":"FK-0006","type":"small_airport","name":"Roy Cove Landing Strip","continent":"SA","iso_country":"FK","iso_region":"FK-U-A","municipality":"Roy Cove","scheduled_service":"no"},"geometry":{"type":"Point","coordinates":[-60.3564,-51.539398]}},{"id":"322401","type":"Feature","properties":{"ident":"FK-0020","type":"small_airport","name":"Salvador Airport","continent":"SA","iso_country":"FK","iso_region":"FK-U-A","municipality":"Salvador","scheduled_service":"no"},"geometry":{"type":"Point","coordinates":[-58.378874,-51.436639]}},{"id":"43040","type":"Feature","properties":{"ident":"FK-0010","type":"small_airport","name":"Saunders Island Landing Strip","continent":"SA","iso_country":"FK","iso_region":"FK-U-A","municipality":"Saunders Island Settlement","scheduled_service":"no"},"geometry":{"type":"Point","coordinates":[-60.09161,-51.378101]}},{"id":"322501","type":"Feature","properties":{"ident":"FK-0034","type":"small_airport","name":"Sea Lion Island Airstrip","continent":"SA","iso_country":"FK","iso_region":"FK-U-A","municipality":"Sea Lion Island","scheduled_service":"no"},"geometry":{"type":"Point","coordinates":[-59.127616,-52.441146]}},{"id":"41528","type":"Feature","properties":{"ident":"FK-0003","type":"small_airport","name":"Sea Lion Lodge Airstrip","continent":"SA","iso_country":"FK","iso_region":"FK-U-A","municipality":"Sea Lion Island","scheduled_service":"no"},"geometry":{"type":"Point","coordinates":[-59.077744,-52.428215]}},{"id":"322396","type":"Feature","properties":{"ident":"FK-0015","type":"small_airport","name":"Shallow Harbour Airport","continent":"SA","iso_country":"FK","iso_region":"FK-U-A","municipality":"Shallow Harbour","scheduled_service":"no"},"geometry":{"type":"Point","coordinates":[-60.534498,-51.755735]}},{"id":"322407","type":"Feature","properties":{"ident":"FK-0026","type":"small_airport","name":"Speedwell Island Airport","continent":"SA","iso_country":"FK","iso_region":"FK-U-A","municipality":"Speedwell Island","scheduled_service":"no"},"geometry":{"type":"Point","coordinates":[-59.744502,-52.2299]}},{"id":"41532","type":"Feature","properties":{"ident":"FK-0007","type":"small_airport","name":"Spring Point Landing Strip","continent":"SA","iso_country":"FK","iso_region":"FK-U-A","municipality":"Spring Point Settlement","scheduled_service":"no"},"geometry":{"type":"Point","coordinates":[-60.451401,-51.8293]}},{"id":"322420","type":"Feature","properties":{"ident":"FK-0028","type":"small_airport","name":"Weddell Island Airport","continent":"SA","iso_country":"FK","iso_region":"FK-U-A","municipality":"Weddell Island","scheduled_service":"no"},"geometry":{"type":"Point","coordinates":[-60.90601,-51.875659]}},{"id":"41529","type":"Feature","properties":{"ident":"FK-0004","type":"small_airport","name":"West Point Island Landing Strip","continent":"SA","iso_country":"FK","iso_region":"FK-U-A","municipality":"West Point Island","scheduled_service":"no"},"geometry":{"type":"Point","coordinates":[-60.683971,-51.345612]}}]}