{"type":"FeatureCollection","features":[{"id":"5499","type":"Feature","properties":{"ident":"PTKK","type":"large_airport","name":"Chuuk International Airport","elevation_ft":"11","continent":"OC","iso_country":"FM","iso_region":"FM-TRK","municipality":"Weno Island","scheduled_service":"yes","icao_code":"PTKK","iata_code":"TKK","gps_code":"PTKK","local_code":"TKK","home_link":"https://tci.gov.fm/civilaviation/chuuk.html","wikipedia_link":"https://en.wikipedia.org/wiki/Chuuk_International_Airport","keywords":"Erhart Aten International Airport"},"geometry":{"type":"Point","coordinates":[151.843002,7.46187]}},{"id":"354381","type":"Feature","properties":{"ident":"FM-0002","type":"small_airport","name":"HOUK (PULUSUK) CIVIL AIRFIELD","continent":"OC","iso_country":"FM","iso_region":"FM-TRK","municipality":"Houk Island","scheduled_service":"no"},"geometry":{"type":"Point","coordinates":[149.299543,6.675669]}},{"id":"5502","type":"Feature","properties":{"ident":"PTSA","type":"large_airport","name":"Kosrae International Airport","elevation_ft":"11","continent":"OC","iso_country":"FM","iso_region":"FM-KSA","municipality":"Okat","scheduled_service":"yes","icao_code":"PTSA","iata_code":"KSA","gps_code":"PTSA","local_code":"TTK","wikipedia_link":"https://en.wikipedia.org/wiki/Kosrae_International_Airport","keywords":"Caroline Islands Airport"},"geometry":{"type":"Point","coordinates":[162.957993,5.35698]}},{"id":"5500","type":"Feature","properties":{"ident":"PTPN","type":"large_airport","name":"Pohnpei International Airport","elevation_ft":"10","continent":"OC","iso_country":"FM","iso_region":"FM-PNI","municipality":"Pohnpei Island","scheduled_service":"yes","icao_code":"PTPN","iata_code":"PNI","gps_code":"PTPN","local_code":"PNI","home_link":"http://www.ppa.fm/en/","wikipedia_link":"https://en.wikipedia.org/wiki/Pohnpei_International_Airport","keywords":"Ponape"},"geometry":{"type":"Point","coordinates":[158.21068,6.983992]}},{"id":"32538","type":"Feature","properties":{"ident":"FM-ULI","type":"small_airport","name":"Ulithi Airport","elevation_ft":"6","continent":"OC","iso_country":"FM","iso_region":"FM-YAP","municipality":"Falalop Island","scheduled_service":"no","iata_code":"ULI","local_code":"TT02","home_link":"http://www.ict.fm/civilaviation/ulithi.html","wikipedia_link":"https://en.wikipedia.org/wiki/Ulithi_Airport","keywords":"Ulithi Airport, TT02"},"geometry":{"type":"Point","coordinates":[139.789993,10.0198]}},{"id":"44078","type":"Feature","properties":{"ident":"FM-0001","type":"small_airport","name":"Woleai Atoll Airport","continent":"OC","iso_country":"FM","iso_region":"FM-YAP","municipality":"Woleai Atoll","scheduled_service":"no"},"geometry":{"type":"Point","coordinates":[143.908005,7.37626]}},{"id":"5503","type":"Feature","properties":{"ident":"PTYA","type":"large_airport","name":"Yap International Airport","elevation_ft":"91","continent":"OC","iso_country":"FM","iso_region":"FM-YAP","municipality":"Yap Island","scheduled_service":"yes","icao_code":"PTYA","iata_code":"YAP","gps_code":"PTYA","local_code":"T11","home_link":"http://www.ict.fm/civilaviation/yap.html","wikipedia_link":"https://en.wikipedia.org/wiki/Yap_International_Airport"},"geometry":{"type":"Point","coordinates":[138.082993,9.49891]}}]}