{"type":"FeatureCollection","features":[{"id":"513662","type":"Feature","properties":{"ident":"GA-0007","type":"small_airport","name":"Achouka Airport","elevation_ft":"552","continent":"AF","iso_country":"GA","iso_region":"GA-6","municipality":"Achouka","scheduled_service":"no"},"geometry":{"type":"Point","coordinates":[11.777114,-0.099464]}},{"id":"30633","type":"Feature","properties":{"ident":"GA-AKE","type":"small_airport","name":"Akieni Airport","elevation_ft":"1660","continent":"AF","iso_country":"GA","iso_region":"GA-2","municipality":"Akieni","scheduled_service":"no","gps_code":"FOGA","iata_code":"AKE","wikipedia_link":"https://en.wikipedia.org/wiki/Akieni_Airport"},"geometry":{"type":"Point","coordinates":[13.9036,-1.13967]}},{"id":"301838","type":"Feature","properties":{"ident":"AWE","type":"small_airport","name":"Alowe Airport","elevation_ft":"600","continent":"AF","iso_country":"GA","iso_region":"GA-3","municipality":"Wonga Wongué Presidential Reserve","scheduled_service":"no","gps_code":"FOGW","iata_code":"AWE"},"geometry":{"type":"Point","coordinates":[9.444,-0.545]}},{"id":"318562","type":"Feature","properties":{"ident":"GA-0002","type":"small_airport","name":"Amvémé Airport","continent":"AF","iso_country":"GA","iso_region":"GA-9","municipality":"Amvémé","scheduled_service":"no"},"geometry":{"type":"Point","coordinates":[11.386303,0.287176]}},{"id":"340289","type":"Feature","properties":{"ident":"GA-0004","type":"small_airport","name":"Batanga Airstrip","continent":"AF","iso_country":"GA","iso_region":"GA-8","municipality":"Batanga","scheduled_service":"no"},"geometry":{"type":"Point","coordinates":[9.1188,-1.442]}},{"id":"2962","type":"Feature","properties":{"ident":"FOOB","type":"medium_airport","name":"Bitam Airport","elevation_ft":"1969","continent":"AF","iso_country":"GA","iso_region":"GA-9","municipality":"Bitam","scheduled_service":"no","gps_code":"FOOB","iata_code":"BMM"},"geometry":{"type":"Point","coordinates":[11.4932,2.07564]}},{"id":"30698","type":"Feature","properties":{"ident":"FOGB","type":"small_airport","name":"Booue Airport","elevation_ft":"604","continent":"AF","iso_country":"GA","iso_region":"GA-6","municipality":"Booue","scheduled_service":"no","gps_code":"FOGB","iata_code":"BGB"},"geometry":{"type":"Point","coordinates":[11.9438,-0.1075]}},{"id":"31202","type":"Feature","properties":{"ident":"FOGF","type":"small_airport","name":"Fougamou Airport","elevation_ft":"263","continent":"AF","iso_country":"GA","iso_region":"GA-4","municipality":"Fougamou","scheduled_service":"no","gps_code":"FOGF","iata_code":"FOU"},"geometry":{"type":"Point","coordinates":[10.612497,-1.278325]}},{"id":"35322","type":"Feature","properties":{"ident":"GA-GAX","type":"small_airport","name":"Gamba Airport","elevation_ft":"30","continent":"AF","iso_country":"GA","iso_region":"GA-8","municipality":"Gamba","scheduled_service":"yes","gps_code":"FOGX","iata_code":"GAX","wikipedia_link":"https://en.wikipedia.org/wiki/Gamba_Airport"},"geometry":{"type":"Point","coordinates":[10.047222,-2.785278]}},{"id":"340288","type":"Feature","properties":{"ident":"GA-0003","type":"small_airport","name":"Gavilo Lodge Airstrip","continent":"AF","iso_country":"GA","iso_region":"GA-8","municipality":"Iguela","scheduled_service":"no"},"geometry":{"type":"Point","coordinates":[9.31777,-1.895675]}},{"id":"316479","type":"Feature","properties":{"ident":"GA-0001","type":"small_airport","name":"Koulamoutou Airport","elevation_ft":"1100","continent":"AF","iso_country":"GA","iso_region":"GA-7","municipality":"Koulamoutou","scheduled_service":"no","keywords":"FOKO, KOU, Koulamouton"},"geometry":{"type":"Point","coordinates":[12.503,-1.106]}},{"id":"2957","type":"Feature","properties":{"ident":"FOGK","type":"medium_airport","name":"Koulamoutou Mabimbi Airport","elevation_ft":"1070","continent":"AF","iso_country":"GA","iso_region":"GA-7","municipality":"Koulamoutou","scheduled_service":"yes","gps_code":"FOGK","iata_code":"KOU","wikipedia_link":"https://en.wikipedia.org/wiki/Koula_Moutou_Airport","keywords":"Koula Moutou, FO23, Koulamouton/Mabimbi"},"geometry":{"type":"Point","coordinates":[12.4413,-1.18461]}},{"id":"2961","type":"Feature","properties":{"ident":"FOGR","type":"medium_airport","name":"Lambarene Airport","elevation_ft":"82","continent":"AF","iso_country":"GA","iso_region":"GA-3","municipality":"Lambarene","scheduled_service":"no","gps_code":"FOGR","iata_code":"LBQ"},"geometry":{"type":"Point","coordinates":[10.2457,-0.704389]}},{"id":"31857","type":"Feature","properties":{"ident":"FOOR","type":"small_airport","name":"Lastourville Airport","elevation_ft":"1585","continent":"AF","iso_country":"GA","iso_region":"GA-7","municipality":"Lastourville","scheduled_service":"no","gps_code":"FOOR","iata_code":"LTL"},"geometry":{"type":"Point","coordinates":[12.7486,-0.826667]}},{"id":"313892","type":"Feature","properties":{"ident":"LEO","type":"small_airport","name":"Lekoni Airport","elevation_ft":"2036","continent":"AF","iso_country":"GA","iso_region":"GA-2","municipality":"Lekoni","scheduled_service":"no","iata_code":"LEO","keywords":"Léconi"},"geometry":{"type":"Point","coordinates":[14.2878,-1.5724]}},{"id":"2966","type":"Feature","properties":{"ident":"FOOL","type":"medium_airport","name":"Libreville Leon M'ba International Airport","elevation_ft":"39","continent":"AF","iso_country":"GA","iso_region":"GA-1","municipality":"Libreville","scheduled_service":"yes","gps_code":"FOOL","iata_code":"LBV","home_link":"http://www.adlgabon.com","wikipedia_link":"https://en.wikipedia.org/wiki/Libreville_International_Airport"},"geometry":{"type":"Point","coordinates":[9.41228,0.4586]}},{"id":"31880","type":"Feature","properties":{"ident":"FOGG","type":"small_airport","name":"M'Bigou Airport","elevation_ft":"2346","continent":"AF","iso_country":"GA","iso_region":"GA-4","municipality":"M'Bigou","scheduled_service":"no","gps_code":"FOGG","iata_code":"MBC","wikipedia_link":"https://en.wikipedia.org/wiki/Mbigou_Airport"},"geometry":{"type":"Point","coordinates":[11.9125,-1.893056]}},{"id":"2967","type":"Feature","properties":{"ident":"FOON","type":"medium_airport","name":"M'Vengue El Hadj Omar Bongo Ondimba International Airport","elevation_ft":"1450","continent":"AF","iso_country":"GA","iso_region":"GA-2","municipality":"Franceville","scheduled_service":"yes","gps_code":"FOON","iata_code":"MVB","wikipedia_link":"https://en.wikipedia.org/wiki/M'Vengue_El_Hadj_Omar_Bongo_Ondimba_International_Airport"},"geometry":{"type":"Point","coordinates":[13.438,-1.65616]}},{"id":"2965","type":"Feature","properties":{"ident":"FOOK","type":"medium_airport","name":"Makokou Airport","elevation_ft":"1726","continent":"AF","iso_country":"GA","iso_region":"GA-6","municipality":"Makokou","scheduled_service":"yes","gps_code":"FOOK","iata_code":"MKU","wikipedia_link":"https://en.wikipedia.org/wiki/Makokou_Airport"},"geometry":{"type":"Point","coordinates":[12.8909,0.579211]}},{"id":"31984","type":"Feature","properties":{"ident":"FOOY","type":"small_airport","name":"Mayumba Airport","elevation_ft":"13","continent":"AF","iso_country":"GA","iso_region":"GA-5","municipality":"Mayumba","scheduled_service":"no","gps_code":"FOOY","iata_code":"MYB","keywords":"Mayoumba"},"geometry":{"type":"Point","coordinates":[10.676539,-3.458372]}},{"id":"513668","type":"Feature","properties":{"ident":"GA-0010","type":"small_airport","name":"Mboungou Airstrip","elevation_ft":"1116","continent":"AF","iso_country":"GA","iso_region":"GA-U-A","municipality":"Mboungou","scheduled_service":"no"},"geometry":{"type":"Point","coordinates":[13.2722,-1.311]}},{"id":"31915","type":"Feature","properties":{"ident":"FOOE","type":"small_airport","name":"Mekambo Airport","elevation_ft":"1673","continent":"AF","iso_country":"GA","iso_region":"GA-6","municipality":"Mekambo","scheduled_service":"no","gps_code":"FOOE","iata_code":"MKB","wikipedia_link":"https://en.wikipedia.org/wiki/M%C3%A9kambo_Airport"},"geometry":{"type":"Point","coordinates":[13.968462,0.976706]}},{"id":"513659","type":"Feature","properties":{"ident":"GA-0006","type":"small_airport","name":"Miele Mimbale Airport","elevation_ft":"965","continent":"AF","iso_country":"GA","iso_region":"GA-6","municipality":"Miele Mimbale","scheduled_service":"no","iata_code":"GIM"},"geometry":{"type":"Point","coordinates":[11.418021,-0.02894]}},{"id":"513665","type":"Feature","properties":{"ident":"GA-0009","type":"small_airport","name":"Milolé Airstrip","elevation_ft":"938","continent":"AF","iso_country":"GA","iso_region":"GA-7","municipality":"Milolé","scheduled_service":"no"},"geometry":{"type":"Point","coordinates":[12.633707,-0.539352]}},{"id":"31976","type":"Feature","properties":{"ident":"FOGV","type":"small_airport","name":"Minvoul Airport","elevation_ft":"1969","continent":"AF","iso_country":"GA","iso_region":"GA-9","municipality":"Minvoul","scheduled_service":"no","gps_code":"FOGV","iata_code":"MVX"},"geometry":{"type":"Point","coordinates":[12.133,2.15]}},{"id":"31999","type":"Feature","properties":{"ident":"FOOM","type":"small_airport","name":"Mitzic Airport","elevation_ft":"1913","continent":"AF","iso_country":"GA","iso_region":"GA-9","municipality":"Mitzic","scheduled_service":"no","gps_code":"FOOM","iata_code":"MZC"},"geometry":{"type":"Point","coordinates":[11.55,0.783]}},{"id":"31902","type":"Feature","properties":{"ident":"FOGI","type":"small_airport","name":"Moabi Airport","elevation_ft":"787","continent":"AF","iso_country":"GA","iso_region":"GA-5","municipality":"Moabi","scheduled_service":"no","gps_code":"FOGI","iata_code":"MGX"},"geometry":{"type":"Point","coordinates":[10.9358,-2.455187]}},{"id":"31894","type":"Feature","properties":{"ident":"FOOD","type":"small_airport","name":"Moanda Airport","elevation_ft":"1877","continent":"AF","iso_country":"GA","iso_region":"GA-2","municipality":"Moanda","scheduled_service":"no","gps_code":"FOOD","iata_code":"MFF","wikipedia_link":"https://en.wikipedia.org/wiki/Moanda_Airport"},"geometry":{"type":"Point","coordinates":[13.251332,-1.526558]}},{"id":"2958","type":"Feature","properties":{"ident":"FOGM","type":"medium_airport","name":"Mouilla Ville Airport","elevation_ft":"295","continent":"AF","iso_country":"GA","iso_region":"GA-4","municipality":"Mouila","scheduled_service":"yes","gps_code":"FOGM","iata_code":"MJL","wikipedia_link":"https://en.wikipedia.org/wiki/Mouila_Airport"},"geometry":{"type":"Point","coordinates":[11.0567,-1.84514]}},{"id":"31737","type":"Feature","properties":{"ident":"FOGE","type":"small_airport","name":"Ndende Airport","elevation_ft":"417","continent":"AF","iso_country":"GA","iso_region":"GA-4","municipality":"Ndende","scheduled_service":"no","gps_code":"FOGE","iata_code":"KDN","keywords":"FOND"},"geometry":{"type":"Point","coordinates":[11.367,-2.4]}},{"id":"340291","type":"Feature","properties":{"ident":"GA-0005","type":"small_airport","name":"Nkan Airstrip","continent":"AF","iso_country":"GA","iso_region":"GA-1","municipality":"Ntoum","scheduled_service":"no","iata_code":"NKA"},"geometry":{"type":"Point","coordinates":[9.75364,0.3843]}},{"id":"2960","type":"Feature","properties":{"ident":"FOGQ","type":"medium_airport","name":"Okondja Airport","elevation_ft":"1325","continent":"AF","iso_country":"GA","iso_region":"GA-2","municipality":"Okondja","scheduled_service":"no","gps_code":"FOGQ","iata_code":"OKN"},"geometry":{"type":"Point","coordinates":[13.6731,-0.665214]}},{"id":"2964","type":"Feature","properties":{"ident":"FOOH","type":"medium_airport","name":"Omboue Hospital Airport","elevation_ft":"33","continent":"AF","iso_country":"GA","iso_region":"GA-8","municipality":"Omboue","scheduled_service":"no","gps_code":"FOOH","iata_code":"OMB"},"geometry":{"type":"Point","coordinates":[9.26269,-1.57473]}},{"id":"2959","type":"Feature","properties":{"ident":"FOGO","type":"medium_airport","name":"Oyem Airport","elevation_ft":"2158","continent":"AF","iso_country":"GA","iso_region":"GA-9","municipality":"Oyem","scheduled_service":"yes","gps_code":"FOGO","iata_code":"OYE","wikipedia_link":"https://en.wikipedia.org/wiki/Oyem_Airport"},"geometry":{"type":"Point","coordinates":[11.5814,1.54311]}},{"id":"2963","type":"Feature","properties":{"ident":"FOOG","type":"medium_airport","name":"Port Gentil Airport","elevation_ft":"13","continent":"AF","iso_country":"GA","iso_region":"GA-8","municipality":"Port Gentil","scheduled_service":"yes","gps_code":"FOOG","iata_code":"POG","wikipedia_link":"https://en.wikipedia.org/wiki/Port-Gentil_International_Airport"},"geometry":{"type":"Point","coordinates":[8.75438,-0.711739]}},{"id":"32747","type":"Feature","properties":{"ident":"FOOS","type":"small_airport","name":"Sette Cama Airport","elevation_ft":"10","continent":"AF","iso_country":"GA","iso_region":"GA-8","municipality":"Sette Cama","scheduled_service":"no","gps_code":"FOOS","keywords":"ZKM"},"geometry":{"type":"Point","coordinates":[9.76386,-2.53732]}},{"id":"32428","type":"Feature","properties":{"ident":"FOOT","type":"small_airport","name":"Tchibanga Airport","elevation_ft":"269","continent":"AF","iso_country":"GA","iso_region":"GA-5","municipality":"Tchibanga","scheduled_service":"yes","gps_code":"FOOT","iata_code":"TCH"},"geometry":{"type":"Point","coordinates":[10.955429,-2.88848]}},{"id":"311974","type":"Feature","properties":{"ident":"FOOI","type":"small_airport","name":"Tchongorove Airport","elevation_ft":"48","continent":"AF","iso_country":"GA","iso_region":"GA-8","municipality":"Iguela","scheduled_service":"no","gps_code":"FOOI","iata_code":"IGE"},"geometry":{"type":"Point","coordinates":[9.319577,-1.930801]}},{"id":"513663","type":"Feature","properties":{"ident":"GA-0008","type":"small_airport","name":"Tsengué Leledi Airstrip","elevation_ft":"726","continent":"AF","iso_country":"GA","iso_region":"GA-6","municipality":"Tsengué Leledi Falls","scheduled_service":"no"},"geometry":{"type":"Point","coordinates":[12.187929,-0.144131]}},{"id":"31736","type":"Feature","properties":{"ident":"FOGJ","type":"small_airport","name":"Ville Airport","elevation_ft":"164","continent":"AF","iso_country":"GA","iso_region":"GA-3","municipality":"N'Djolé","scheduled_service":"no","gps_code":"FOGJ","iata_code":"KDJ"},"geometry":{"type":"Point","coordinates":[10.75,-0.183]}}]}