{"type":"FeatureCollection","features":[{"id":"506946","type":"Feature","properties":{"ident":"UGAM","type":"medium_airport","name":"Ambrolauri Airport","elevation_ft":"1784","continent":"AS","iso_country":"GE","iso_region":"GE-RL","municipality":"Ambrolauri","scheduled_service":"yes","gps_code":"UGAM","wikipedia_link":"https://en.wikipedia.org/wiki/Ambrolauri_Airport"},"geometry":{"type":"Point","coordinates":[43.13538,42.52687]}},{"id":"6452","type":"Feature","properties":{"ident":"UGSB","type":"medium_airport","name":"Batumi International Airport","elevation_ft":"105","continent":"AS","iso_country":"GE","iso_region":"GE-AJ","municipality":"Batumi","scheduled_service":"yes","gps_code":"UGSB","iata_code":"BUS","home_link":"https://batumiairport.com/","wikipedia_link":"https://en.wikipedia.org/wiki/Batumi_International_Airport","keywords":"Batumi, batumi, Black Sea"},"geometry":{"type":"Point","coordinates":[41.599701,41.610298]}},{"id":"525931","type":"Feature","properties":{"ident":"GE-0020","type":"small_airport","name":"Bolnisi Parachutist Training Airfield","continent":"AS","iso_country":"GE","iso_region":"GE-KK","municipality":"Bolnisi","scheduled_service":"no"},"geometry":{"type":"Point","coordinates":[44.53348,41.48523]}},{"id":"3091","type":"Feature","properties":{"ident":"UG28","type":"medium_airport","name":"Bolshiye Shiraki Air Base","elevation_ft":"1795","continent":"AS","iso_country":"GE","iso_region":"GE-KA","municipality":"Bolshiye Shiraki","scheduled_service":"no","keywords":"UG28"},"geometry":{"type":"Point","coordinates":[46.367298,41.379501]}},{"id":"6451","type":"Feature","properties":{"ident":"UGKO","type":"medium_airport","name":"David the Builder Kutaisi International Airport","elevation_ft":"223","continent":"AS","iso_country":"GE","iso_region":"GE-IM","municipality":"Kopitnari","scheduled_service":"yes","gps_code":"UGKO","iata_code":"KUT","home_link":"https://kutaisi.aero","wikipedia_link":"https://en.wikipedia.org/wiki/David_the_Builder_Kutaisi_International_Airport","keywords":"Kopitnari"},"geometry":{"type":"Point","coordinates":[42.482393,42.176768]}},{"id":"3086","type":"Feature","properties":{"ident":"UG0U","type":"medium_airport","name":"Gudauta Air Base","elevation_ft":"79","continent":"AS","iso_country":"GE","iso_region":"GE-AB","municipality":"Gudauta","scheduled_service":"no","gps_code":"UGSG","keywords":"Bambora Air Base, Bombora Air Base, Bamboura Air Base, Bomboura Air Base, UG23"},"geometry":{"type":"Point","coordinates":[40.5793,43.104]}},{"id":"46138","type":"Feature","properties":{"ident":"GE-0014","type":"heliport","name":"Isani-Samgori Heliport","elevation_ft":"1939","continent":"AS","iso_country":"GE","iso_region":"GE-TB","municipality":"Isani-Samgori","scheduled_service":"no"},"geometry":{"type":"Point","coordinates":[44.870111,41.651019]}},{"id":"44553","type":"Feature","properties":{"ident":"GE-0006","type":"small_airport","name":"Kobuleti Airfield","continent":"AS","iso_country":"GE","iso_region":"GE-AJ","municipality":"Kobuleti","scheduled_service":"no"},"geometry":{"type":"Point","coordinates":[41.799461,41.840599]}},{"id":"3089","type":"Feature","properties":{"ident":"UG26","type":"small_airport","name":"Kutaisi West Airport","elevation_ft":"384","continent":"AS","iso_country":"GE","iso_region":"GE-IM","municipality":"Kutaisi","scheduled_service":"no","keywords":"UG26"},"geometry":{"type":"Point","coordinates":[42.624699,42.2486]}},{"id":"44939","type":"Feature","properties":{"ident":"GE-0011","type":"small_airport","name":"Lagodekhi Airfield","continent":"AS","iso_country":"GE","iso_region":"GE-KA","scheduled_service":"no"},"geometry":{"type":"Point","coordinates":[46.234159,41.815018]}},{"id":"315702","type":"Feature","properties":{"ident":"UGMS","type":"small_airport","name":"Mestia Queen Tamar Airport","elevation_ft":"4778","continent":"EU","iso_country":"GE","iso_region":"GE-SZ","municipality":"Mestia","scheduled_service":"yes","gps_code":"UGMS","wikipedia_link":"https://en.wikipedia.org/wiki/Queen_Tamar_Airport"},"geometry":{"type":"Point","coordinates":[42.749012,43.053597]}},{"id":"45186","type":"Feature","properties":{"ident":"UGSA","type":"small_airport","name":"Natakhtari Airfield","continent":"AS","iso_country":"GE","iso_region":"GE-MM","municipality":"Natakhtari","scheduled_service":"yes","gps_code":"UGSA","wikipedia_link":"https://en.wikipedia.org/wiki/Natakhtari_Airfield","keywords":"ნატახტარი"},"geometry":{"type":"Point","coordinates":[44.712166,41.921737]}},{"id":"355274","type":"Feature","properties":{"ident":"GE-0019","type":"heliport","name":"Ochamchire Base Heliport","continent":"AS","iso_country":"GE","iso_region":"GE-AB","municipality":"Ochamchire","scheduled_service":"no"},"geometry":{"type":"Point","coordinates":[41.484162,42.666106]}},{"id":"44554","type":"Feature","properties":{"ident":"GE-0007","type":"medium_airport","name":"Ozurgeti Air Base","continent":"AS","iso_country":"GE","iso_region":"GE-GU","municipality":"Ozurgeti","scheduled_service":"no","keywords":"Meria Airport"},"geometry":{"type":"Point","coordinates":[41.863499,41.9291]}},{"id":"342232","type":"Feature","properties":{"ident":"GE-0016","type":"heliport","name":"Pichori Heliport","elevation_ft":"7","continent":"AS","iso_country":"GE","iso_region":"GE-AB","municipality":"Pichori","scheduled_service":"no"},"geometry":{"type":"Point","coordinates":[41.54572,42.43698]}},{"id":"46585","type":"Feature","properties":{"ident":"GE-0015","type":"small_airport","name":"Pskhu Airport","continent":"AS","iso_country":"GE","iso_region":"GE-AB","municipality":"Pskhu","scheduled_service":"no"},"geometry":{"type":"Point","coordinates":[40.816355,43.385152]}},{"id":"340315","type":"Feature","properties":{"ident":"GE-0013","type":"small_airport","name":"Sedmoye Nebo Airstrip","continent":"AS","iso_country":"GE","iso_region":"GE-AB","municipality":"Inkiti","scheduled_service":"no","keywords":"UGBC, Bich'vinta, Seventh Heaven"},"geometry":{"type":"Point","coordinates":[40.3011,43.1812]}},{"id":"44938","type":"Feature","properties":{"ident":"GE-0010","type":"medium_airport","name":"Senaki Air Base","continent":"AS","iso_country":"GE","iso_region":"GE-SZ","municipality":"Senaki","scheduled_service":"no"},"geometry":{"type":"Point","coordinates":[42.045493,42.240306]}},{"id":"3092","type":"Feature","properties":{"ident":"UGSS","type":"medium_airport","name":"Sukhumi Babushara /  Vladislav Ardzinba International Airport","elevation_ft":"53","continent":"AS","iso_country":"GE","iso_region":"GE-AB","municipality":"Sukhumi","scheduled_service":"yes","gps_code":"UGSS","iata_code":"SUI","wikipedia_link":"https://en.wikipedia.org/wiki/Sukhumi_Babushara_Airport","keywords":"Babushara Airport, Sukhumi Dranda, UG29, URAS"},"geometry":{"type":"Point","coordinates":[41.128101,42.8582]}},{"id":"6453","type":"Feature","properties":{"ident":"UGTB","type":"large_airport","name":"Tbilisi International Airport","elevation_ft":"1624","continent":"AS","iso_country":"GE","iso_region":"GE-TB","municipality":"Tbilisi","scheduled_service":"yes","gps_code":"UGTB","iata_code":"TBS","home_link":"http://www.tbilisiairport.com/","wikipedia_link":"https://en.wikipedia.org/wiki/Tbilisi_International_Airport","keywords":"თბილისის საერთაშორისო აეროპორტი"},"geometry":{"type":"Point","coordinates":[44.9547,41.669201]}},{"id":"3085","type":"Feature","properties":{"ident":"UG22","type":"medium_airport","name":"Tbilisi Marneuli Air Base","elevation_ft":"1305","continent":"AS","iso_country":"GE","iso_region":"GE-KK","municipality":"Tbilisi","scheduled_service":"no","keywords":"UG22"},"geometry":{"type":"Point","coordinates":[44.783199,41.459202]}},{"id":"3087","type":"Feature","properties":{"ident":"UG24","type":"medium_airport","name":"Tbilisi Soganlug Air Base","elevation_ft":"1250","continent":"AS","iso_country":"GE","iso_region":"GE-TB","municipality":"Tbilisi","scheduled_service":"no","keywords":"UG24"},"geometry":{"type":"Point","coordinates":[44.936401,41.6492]}},{"id":"3088","type":"Feature","properties":{"ident":"UG25","type":"small_airport","name":"Telavi Kurdgelauri Airport","elevation_ft":"1496","continent":"AS","iso_country":"GE","iso_region":"GE-KA","municipality":"Telavi","scheduled_service":"no","gps_code":"UGGT","keywords":"UG25"},"geometry":{"type":"Point","coordinates":[45.507999,41.9534]}},{"id":"44675","type":"Feature","properties":{"ident":"GE-0008","type":"heliport","name":"Tsalka Helipad","continent":"AS","iso_country":"GE","iso_region":"GE-KK","municipality":"Tsalka","scheduled_service":"no","keywords":"Вертолётная площадка Цалка"},"geometry":{"type":"Point","coordinates":[44.076199,41.593399]}},{"id":"3090","type":"Feature","properties":{"ident":"UG27","type":"medium_airport","name":"Vaziani Air Base","elevation_ft":"1460","continent":"AS","iso_country":"GE","iso_region":"GE-TB","municipality":"Tbilisi","scheduled_service":"no","keywords":"UG27"},"geometry":{"type":"Point","coordinates":[45.0308,41.627998]}}]}