{"type":"FeatureCollection","features":[{"id":"316855","type":"Feature","properties":{"ident":"GUBE","type":"small_airport","name":"Beyla Airport","elevation_ft":"2190","continent":"AF","iso_country":"GN","iso_region":"GN-N","municipality":"Beyla","scheduled_service":"no","gps_code":"GUBE","wikipedia_link":"https://en.wikipedia.org/wiki/Beyla_Airport"},"geometry":{"type":"Point","coordinates":[-8.713889,8.697222]}},{"id":"30763","type":"Feature","properties":{"ident":"GUOK","type":"small_airport","name":"Boké Baralande Airport","elevation_ft":"164","continent":"AF","iso_country":"GN","iso_region":"GN-B","municipality":"Boké","scheduled_service":"no","gps_code":"GUOK","iata_code":"BKJ","wikipedia_link":"https://en.wikipedia.org/wiki/Bok%C3%A9_Baralande_Airport"},"geometry":{"type":"Point","coordinates":[-14.2811,10.9658]}},{"id":"3146","type":"Feature","properties":{"ident":"GUCY","type":"medium_airport","name":"Conakry International Airport","elevation_ft":"72","continent":"AF","iso_country":"GN","iso_region":"GN-C","municipality":"Conakry","scheduled_service":"yes","gps_code":"GUCY","iata_code":"CKY","home_link":"http://www.aeroport-conakry.com/aeroport_international_de_conakry.php","wikipedia_link":"https://en.wikipedia.org/wiki/Conakry_International_Airport","keywords":"Gbessia International Airport"},"geometry":{"type":"Point","coordinates":[-13.612,9.57689]}},{"id":"3148","type":"Feature","properties":{"ident":"GUFH","type":"small_airport","name":"Faranah Airport","elevation_ft":"1476","continent":"AF","iso_country":"GN","iso_region":"GN-F","municipality":"Faranah","scheduled_service":"no","gps_code":"GUFH","iata_code":"FAA","wikipedia_link":"https://en.wikipedia.org/wiki/Faranah_Airport"},"geometry":{"type":"Point","coordinates":[-10.7698,10.0355]}},{"id":"3147","type":"Feature","properties":{"ident":"GUFA","type":"small_airport","name":"Fria Airport","elevation_ft":"499","continent":"AF","iso_country":"GN","iso_region":"GN-B","municipality":"Fria","scheduled_service":"no","gps_code":"GUFA","iata_code":"FIG","wikipedia_link":"https://en.wikipedia.org/wiki/Fria_Airport"},"geometry":{"type":"Point","coordinates":[-13.5692,10.3506]}},{"id":"31556","type":"Feature","properties":{"ident":"GUGO","type":"small_airport","name":"Gbenko Airport","elevation_ft":"2133","continent":"AF","iso_country":"GN","iso_region":"GN-F","municipality":"Banankoro","scheduled_service":"no","gps_code":"GUGO","wikipedia_link":"https://en.wikipedia.org/wiki/Gbenko_Airport"},"geometry":{"type":"Point","coordinates":[-9.29997,9.24284]}},{"id":"44577","type":"Feature","properties":{"ident":"GUXN","type":"small_airport","name":"Kankan Airport","elevation_ft":"1233","continent":"AF","iso_country":"GN","iso_region":"GN-K","municipality":"Kankan","scheduled_service":"no","gps_code":"GUXD","iata_code":"KNN","wikipedia_link":"https://en.wikipedia.org/wiki/Kankan_Airport"},"geometry":{"type":"Point","coordinates":[-9.228757,10.448438]}},{"id":"31557","type":"Feature","properties":{"ident":"GUKR","type":"small_airport","name":"Kawass Airport","elevation_ft":"36","continent":"AF","iso_country":"GN","iso_region":"GN-B","municipality":"Port Kamsar","scheduled_service":"no","gps_code":"GUKR","wikipedia_link":"https://en.wikipedia.org/wiki/Kawass_Airport"},"geometry":{"type":"Point","coordinates":[-14.532337,10.657484]}},{"id":"318900","type":"Feature","properties":{"ident":"GN-0001","type":"small_airport","name":"Kiniéro Airport","elevation_ft":"1375","continent":"AF","iso_country":"GN","iso_region":"GN-K","municipality":"Kiniéro","scheduled_service":"no","local_code":"GUNE"},"geometry":{"type":"Point","coordinates":[-9.77592,10.42242]}},{"id":"31777","type":"Feature","properties":{"ident":"GUKU","type":"small_airport","name":"Kissidougou Airport","elevation_ft":"1808","continent":"AF","iso_country":"GN","iso_region":"GN-F","municipality":"Kissidougou","scheduled_service":"no","gps_code":"GUKU","iata_code":"KSI","wikipedia_link":"https://en.wikipedia.org/wiki/Kissidougou_Airport"},"geometry":{"type":"Point","coordinates":[-10.1244,9.16056]}},{"id":"31886","type":"Feature","properties":{"ident":"GUMA","type":"small_airport","name":"Macenta Airport","elevation_ft":"1690","continent":"AF","iso_country":"GN","iso_region":"GN-N","municipality":"Macenta","scheduled_service":"no","gps_code":"GUMA","iata_code":"MCA","wikipedia_link":"https://en.wikipedia.org/wiki/Macenta_Airport"},"geometry":{"type":"Point","coordinates":[-9.526048,8.481456]}},{"id":"32069","type":"Feature","properties":{"ident":"GUNZ","type":"small_airport","name":"Nzérékoré Airport","elevation_ft":"1657","continent":"AF","iso_country":"GN","iso_region":"GN-N","municipality":"Nzérékoré","scheduled_service":"no","gps_code":"GUNZ","iata_code":"NZE","wikipedia_link":"https://en.wikipedia.org/wiki/Nz%C3%A9r%C3%A9kor%C3%A9_Airport"},"geometry":{"type":"Point","coordinates":[-8.702073,7.810413]}},{"id":"32250","type":"Feature","properties":{"ident":"GUSB","type":"small_airport","name":"Sambailo Airport","elevation_ft":"295","continent":"AF","iso_country":"GN","iso_region":"GN-B","municipality":"Koundara","scheduled_service":"no","gps_code":"GUSB","iata_code":"SBI","wikipedia_link":"https://en.wikipedia.org/wiki/Sambailo_Airport"},"geometry":{"type":"Point","coordinates":[-13.363349,12.575315]}},{"id":"31558","type":"Feature","properties":{"ident":"GUSA","type":"small_airport","name":"Sangarédi Airport","elevation_ft":"686","continent":"AF","iso_country":"GN","iso_region":"GN-B","municipality":"Sangarédi","scheduled_service":"no","gps_code":"GUSA","wikipedia_link":"https://en.wikipedia.org/wiki/Sangar%C3%A9di_Airport"},"geometry":{"type":"Point","coordinates":[-13.815834,11.114558]}},{"id":"31530","type":"Feature","properties":{"ident":"GUSI","type":"small_airport","name":"Siguiri Airport","elevation_ft":"1296","continent":"AF","iso_country":"GN","iso_region":"GN-K","municipality":"Siguiri","scheduled_service":"no","gps_code":"GUSI","iata_code":"GII","wikipedia_link":"https://en.wikipedia.org/wiki/Siguiri_Airport"},"geometry":{"type":"Point","coordinates":[-9.18841,11.399833]}},{"id":"3149","type":"Feature","properties":{"ident":"GULB","type":"small_airport","name":"Tata Airport","elevation_ft":"3396","continent":"AF","iso_country":"GN","iso_region":"GN-L","municipality":"Labé","scheduled_service":"no","gps_code":"GULB","iata_code":"LEK","wikipedia_link":"https://en.wikipedia.org/wiki/Tata_Airport"},"geometry":{"type":"Point","coordinates":[-12.290869,11.337512]}},{"id":"353584","type":"Feature","properties":{"ident":"GN-0002","type":"heliport","name":"Île Tamara Heliport","elevation_ft":"364","continent":"AF","iso_country":"GN","iso_region":"GN-C","municipality":"Île Tamara","scheduled_service":"no"},"geometry":{"type":"Point","coordinates":[-13.83193,9.47995]}}]}