{"type":"FeatureCollection","features":[{"id":"542496","type":"Feature","properties":{"ident":"HU-0073","type":"heliport","name":"Albert Schweitzer Hospital Heliport","elevation_ft":"390","continent":"EU","iso_country":"HU","iso_region":"HU-HE","municipality":"Hatvan","scheduled_service":"no"},"geometry":{"type":"Point","coordinates":[19.681386,47.671881]}},{"id":"317630","type":"Feature","properties":{"ident":"HU-0029","type":"small_airport","name":"Atkár Airfield","elevation_ft":"370","continent":"EU","iso_country":"HU","iso_region":"HU-HE","municipality":"Atkár","scheduled_service":"no","gps_code":"LHAK","home_link":"http://www.matra-aero.hu/","keywords":"Gyongyoshalasz, Atkar, Atkár Margit-kút"},"geometry":{"type":"Point","coordinates":[19.904652,47.720908]}},{"id":"309443","type":"Feature","properties":{"ident":"HU-0013","type":"small_airport","name":"Baja Airfield","elevation_ft":"378","continent":"EU","iso_country":"HU","iso_region":"HU-BK","municipality":"Baja","scheduled_service":"no","gps_code":"LHBJ"},"geometry":{"type":"Point","coordinates":[19.043172,46.145347]}},{"id":"317696","type":"Feature","properties":{"ident":"HU-0031","type":"small_airport","name":"Balatonederics Airfield","continent":"EU","iso_country":"HU","iso_region":"HU-VE","municipality":"Balatonederics","scheduled_service":"no"},"geometry":{"type":"Point","coordinates":[17.378794,46.784913]}},{"id":"315487","type":"Feature","properties":{"ident":"HU-0018","type":"small_airport","name":"Balatonfőkajár Airfield","continent":"EU","iso_country":"HU","iso_region":"HU-VE","municipality":"Balatonfőkajár","scheduled_service":"no"},"geometry":{"type":"Point","coordinates":[18.21188,47.0065]}},{"id":"309444","type":"Feature","properties":{"ident":"HU-0014","type":"small_airport","name":"Balatonkeresztúr Airfield","elevation_ft":"337","continent":"EU","iso_country":"HU","iso_region":"HU-SO","municipality":"Balatonkeresztúr","scheduled_service":"no","gps_code":"LHBK","home_link":"http://balatonflugplatz.com/"},"geometry":{"type":"Point","coordinates":[17.397773,46.693034]}},{"id":"317421","type":"Feature","properties":{"ident":"HU-0025","type":"small_airport","name":"Balatonlelle Glider Field","elevation_ft":"423","continent":"EU","iso_country":"HU","iso_region":"HU-SO","municipality":"Balatonlelle","scheduled_service":"no","keywords":"Balatonlelle sárkány repülőtér"},"geometry":{"type":"Point","coordinates":[17.689823,46.760514]}},{"id":"347168","type":"Feature","properties":{"ident":"HU-0056","type":"small_airport","name":"Balkány Airfield","elevation_ft":"430","continent":"EU","iso_country":"HU","iso_region":"HU-HB","municipality":"Balkány","scheduled_service":"no"},"geometry":{"type":"Point","coordinates":[21.815028,47.771461]}},{"id":"309447","type":"Feature","properties":{"ident":"HU-0016","type":"small_airport","name":"Ballószög Airfield","elevation_ft":"393","continent":"EU","iso_country":"HU","iso_region":"HU-BK","municipality":"Ballószög","scheduled_service":"no","gps_code":"LHBL"},"geometry":{"type":"Point","coordinates":[19.5566,46.8618]}},{"id":"346357","type":"Feature","properties":{"ident":"HU-0052","type":"small_airport","name":"Becsehely Airstrip","elevation_ft":"456","continent":"EU","iso_country":"HU","iso_region":"HU-ZA","municipality":"Becsehely","scheduled_service":"no"},"geometry":{"type":"Point","coordinates":[16.778913,46.432148]}},{"id":"345619","type":"Feature","properties":{"ident":"LHBI","type":"small_airport","name":"Biharkeresztes Airfield","elevation_ft":"302","continent":"EU","iso_country":"HU","iso_region":"HU-HB","municipality":"Biharkeresztes","scheduled_service":"no","gps_code":"LHBI"},"geometry":{"type":"Point","coordinates":[21.675425,47.137425]}},{"id":"317555","type":"Feature","properties":{"ident":"LHFC","type":"small_airport","name":"Bodmér-Felcsút Airfield","elevation_ft":"492","continent":"EU","iso_country":"HU","iso_region":"HU-FE","municipality":"Bodmér","scheduled_service":"no","gps_code":"LHFC","keywords":"Felcsút"},"geometry":{"type":"Point","coordinates":[18.557102,47.444629]}},{"id":"4296","type":"Feature","properties":{"ident":"LHBP","type":"large_airport","name":"Budapest Liszt Ferenc International Airport","elevation_ft":"495","continent":"EU","iso_country":"HU","iso_region":"HU-BU","municipality":"Budapest","scheduled_service":"yes","gps_code":"LHBP","iata_code":"BUD","home_link":"http://www.bud.hu/english","wikipedia_link":"https://en.wikipedia.org/wiki/Budapest_Ferenc_Liszt_International_Airport","keywords":"Ferihegyi nemzetközi repülőtér, Budapest Liszt Ferenc international Airport"},"geometry":{"type":"Point","coordinates":[19.262393,47.43018]}},{"id":"29732","type":"Feature","properties":{"ident":"LHBS","type":"small_airport","name":"Budaörs Airfield","elevation_ft":"397","continent":"EU","iso_country":"HU","iso_region":"HU-BU","municipality":"Budaörs","scheduled_service":"no","gps_code":"LHBS","home_link":"http://www.budaorsirepuloter.hu/","wikipedia_link":"https://en.wikipedia.org/wiki/Buda%C3%B6rs_Airport"},"geometry":{"type":"Point","coordinates":[18.9806,47.451099]}},{"id":"317377","type":"Feature","properties":{"ident":"LHBO","type":"small_airport","name":"Bácsbokod Airfield","elevation_ft":"512","continent":"EU","iso_country":"HU","iso_region":"HU-BK","municipality":"Bácsbokod","scheduled_service":"no","gps_code":"LHBO"},"geometry":{"type":"Point","coordinates":[19.149051,46.153445]}},{"id":"329132","type":"Feature","properties":{"ident":"HU-0045","type":"heliport","name":"Bácsbokod Border Police Heliport","elevation_ft":"358","continent":"EU","iso_country":"HU","iso_region":"HU-BK","municipality":"Bácsbokod","scheduled_service":"no"},"geometry":{"type":"Point","coordinates":[19.15722,46.10847]}},{"id":"315662","type":"Feature","properties":{"ident":"HU-0019","type":"small_airport","name":"Bátonyterenye-Világosipuszta sportreptér","elevation_ft":"869","continent":"EU","iso_country":"HU","iso_region":"HU-NO","scheduled_service":"no","gps_code":"LHBT"},"geometry":{"type":"Point","coordinates":[19.805066,48.025531]}},{"id":"29691","type":"Feature","properties":{"ident":"LHBC","type":"small_airport","name":"Békéscsaba Airfield","elevation_ft":"286","continent":"EU","iso_country":"HU","iso_region":"HU-BE","municipality":"Békéscsaba","scheduled_service":"no","gps_code":"LHBC","home_link":"http://www.bekesairport.hu","wikipedia_link":"https://hu.wikipedia.org/wiki/B%C3%A9k%C3%A9scsabai_rep%C3%BCl%C5%91t%C3%A9r","keywords":"Viharsarok,Kvasz András"},"geometry":{"type":"Point","coordinates":[21.161188,46.677132]}},{"id":"43989","type":"Feature","properties":{"ident":"HU-0007","type":"small_airport","name":"Börgönd Airfield","elevation_ft":"392","continent":"EU","iso_country":"HU","iso_region":"HU-FE","municipality":"Székesfehérvár","scheduled_service":"no","gps_code":"LHBD","wikipedia_link":"https://hu.wikipedia.org/wiki/B%C3%B6rg%C3%B6ndi_rep%C3%BCl%C5%91t%C3%A9r"},"geometry":{"type":"Point","coordinates":[18.50029,47.129833]}},{"id":"317553","type":"Feature","properties":{"ident":"LHBF","type":"small_airport","name":"Bükfördö Airfield","elevation_ft":"545","continent":"EU","iso_country":"HU","iso_region":"HU-VA","municipality":"Bö","scheduled_service":"no","gps_code":"LHBF"},"geometry":{"type":"Point","coordinates":[16.80264,47.3848]}},{"id":"317554","type":"Feature","properties":{"ident":"LHCL","type":"small_airport","name":"Cegléd Airfield","elevation_ft":"315","continent":"EU","iso_country":"HU","iso_region":"HU-PE","municipality":"Cegléd","scheduled_service":"no","gps_code":"LHCL"},"geometry":{"type":"Point","coordinates":[19.877401,47.162621]}},{"id":"44986","type":"Feature","properties":{"ident":"HU-0012","type":"small_airport","name":"Cserszegtomaj-Hévíz Airfield","elevation_ft":"381","continent":"EU","iso_country":"HU","iso_region":"HU-ZA","municipality":"Cserszegtomaj","scheduled_service":"no"},"geometry":{"type":"Point","coordinates":[17.19974,46.809114]}},{"id":"337925","type":"Feature","properties":{"ident":"HU-0047","type":"small_airport","name":"Csikéria Airstrip","continent":"EU","iso_country":"HU","iso_region":"HU-BK","municipality":"Csikéria","scheduled_service":"no"},"geometry":{"type":"Point","coordinates":[19.48895,46.11381]}},{"id":"4297","type":"Feature","properties":{"ident":"LHDC","type":"medium_airport","name":"Debrecen International Airport","elevation_ft":"359","continent":"EU","iso_country":"HU","iso_region":"HU-HB","municipality":"Debrecen","scheduled_service":"yes","gps_code":"LHDC","iata_code":"DEB","home_link":"http://www.airportdebrecen.hu/","wikipedia_link":"https://en.wikipedia.org/wiki/Debrecen_International_Airport","keywords":"Debreceni nemzetközi repülőtér"},"geometry":{"type":"Point","coordinates":[21.615299,47.488899]}},{"id":"319486","type":"Feature","properties":{"ident":"HU-0035","type":"small_airport","name":"Dunabogdány Airfield","elevation_ft":"377","continent":"EU","iso_country":"HU","iso_region":"HU-PE","municipality":"Dunabogdány","scheduled_service":"no","home_link":"http://www.aeroglobus.hu/","keywords":"Aeroglobus"},"geometry":{"type":"Point","coordinates":[19.062484,47.774341]}},{"id":"29831","type":"Feature","properties":{"ident":"LHDK","type":"small_airport","name":"Dunakeszi Airfield","elevation_ft":"397","continent":"EU","iso_country":"HU","iso_region":"HU-PE","municipality":"Dunakeszi","scheduled_service":"no","gps_code":"LHDK"},"geometry":{"type":"Point","coordinates":[19.143299,47.613899]}},{"id":"29832","type":"Feature","properties":{"ident":"LHDV","type":"small_airport","name":"Dunaújváros Airfield","elevation_ft":"394","continent":"EU","iso_country":"HU","iso_region":"HU-FE","municipality":"Dunaújváros","scheduled_service":"no","gps_code":"LHDV","wikipedia_link":"https://hu.wikipedia.org/wiki/Duna%C3%BAjv%C3%A1rosi_rep%C3%BCl%C5%91t%C3%A9r"},"geometry":{"type":"Point","coordinates":[18.9139,46.895802]}},{"id":"309445","type":"Feature","properties":{"ident":"HU-0015","type":"small_airport","name":"Dáka Sport Airfield","elevation_ft":"492","continent":"EU","iso_country":"HU","iso_region":"HU-VE","municipality":"Dáka","scheduled_service":"no","gps_code":"LHDA"},"geometry":{"type":"Point","coordinates":[17.4105,47.271801]}},{"id":"317444","type":"Feature","properties":{"ident":"HU-0026","type":"small_airport","name":"Dány Airfield","elevation_ft":"591","continent":"EU","iso_country":"HU","iso_region":"HU-PE","municipality":"Dány","scheduled_service":"no"},"geometry":{"type":"Point","coordinates":[19.504709,47.500436]}},{"id":"328592","type":"Feature","properties":{"ident":"HU-0044","type":"small_airport","name":"Dévaványa Airfield","continent":"EU","iso_country":"HU","iso_region":"HU-BE","municipality":"Dévaványa","scheduled_service":"no","keywords":"Füves repülőtér"},"geometry":{"type":"Point","coordinates":[20.982331,47.011512]}},{"id":"309451","type":"Feature","properties":{"ident":"LHER","type":"small_airport","name":"Eger Apolló Airfield","elevation_ft":"790","continent":"EU","iso_country":"HU","iso_region":"HU-HE","municipality":"Eger","scheduled_service":"no","gps_code":"LHER","home_link":"http://www.halley.hu"},"geometry":{"type":"Point","coordinates":[20.4055,47.9052]}},{"id":"430379","type":"Feature","properties":{"ident":"HU-0062","type":"small_airport","name":"ESRE Glider Field","continent":"EU","iso_country":"HU","iso_region":"HU-FE","scheduled_service":"no"},"geometry":{"type":"Point","coordinates":[18.78092,47.43479]}},{"id":"43033","type":"Feature","properties":{"ident":"LHEM","type":"small_airport","name":"Esztergom Ernő Rubik Airfield","elevation_ft":"342","continent":"EU","iso_country":"HU","iso_region":"HU-KE","municipality":"Esztergom","scheduled_service":"no","gps_code":"LHEM","wikipedia_link":"https://hu.wikipedia.org/wiki/Id._Rubik_Ern%C5%91_rep%C3%BCl%C5%91t%C3%A9r"},"geometry":{"type":"Point","coordinates":[18.730459,47.756811]}},{"id":"43034","type":"Feature","properties":{"ident":"LHFH","type":"small_airport","name":"Farkashegy Airfield","elevation_ft":"690","continent":"EU","iso_country":"HU","iso_region":"HU-PE","municipality":"Farkashegy","scheduled_service":"no","gps_code":"LHFH","wikipedia_link":"https://hu.wikipedia.org/wiki/Farkashegyi_rep%C3%BCl%C5%91t%C3%A9r"},"geometry":{"type":"Point","coordinates":[18.9147,47.4869]}},{"id":"320902","type":"Feature","properties":{"ident":"HU-0041","type":"small_airport","name":"Felsőráda Airstrip","continent":"EU","iso_country":"HU","iso_region":"HU-PE","municipality":"Felsőráda","scheduled_service":"no"},"geometry":{"type":"Point","coordinates":[19.173974,47.264102]}},{"id":"4298","type":"Feature","properties":{"ident":"LHFM","type":"small_airport","name":"Fertőszentmiklós Airfield","elevation_ft":"440","continent":"EU","iso_country":"HU","iso_region":"HU-GS","municipality":"Fertőszentmiklós","scheduled_service":"no","gps_code":"LHFM","home_link":"http://www.lhfm.hu/","wikipedia_link":"https://en.wikipedia.org/wiki/Fert%C5%91szentmikl%C3%B3s_Airfield","keywords":"Meidl"},"geometry":{"type":"Point","coordinates":[16.8454,47.582802]}},{"id":"346205","type":"Feature","properties":{"ident":"HU-0050","type":"small_airport","name":"Földes Airfield","continent":"EU","iso_country":"HU","iso_region":"HU-VE","municipality":"Balatonfüred","scheduled_service":"no","gps_code":"LHJT","keywords":"Balatonszőlős"},"geometry":{"type":"Point","coordinates":[17.84473,46.96852]}},{"id":"320501","type":"Feature","properties":{"ident":"HU-0039","type":"small_airport","name":"Gyomaendrőd","continent":"EU","iso_country":"HU","iso_region":"HU-BE","scheduled_service":"no"},"geometry":{"type":"Point","coordinates":[20.761519,46.911296]}},{"id":"514624","type":"Feature","properties":{"ident":"HU-0067","type":"heliport","name":"Gyula Kálmán Pándy Hospital Heliport","continent":"EU","iso_country":"HU","iso_region":"HU-BE","municipality":"Gyula","scheduled_service":"no","keywords":"Gyula Pándy Kálmán Kórház V. osztályú Mentőhelikopter Repülőtér"},"geometry":{"type":"Point","coordinates":[21.27588,46.64028]}},{"id":"309452","type":"Feature","properties":{"ident":"HU-0017","type":"small_airport","name":"Gyõrszentiván-Bõny Airfield","elevation_ft":"490","continent":"EU","iso_country":"HU","iso_region":"HU-GS","municipality":"Gyõrszentiván/Bõny","scheduled_service":"no","gps_code":"LHBY"},"geometry":{"type":"Point","coordinates":[17.784801,47.6672]}},{"id":"43035","type":"Feature","properties":{"ident":"LHGY","type":"small_airport","name":"Gyöngyös Pipishegy Airfield","elevation_ft":"1150","continent":"EU","iso_country":"HU","iso_region":"HU-HE","municipality":"Gyöngyös","scheduled_service":"no","gps_code":"LHGY","wikipedia_link":"https://hu.wikipedia.org/wiki/Gy%C3%B6ngy%C3%B6si_rep%C3%BCl%C5%91t%C3%A9r"},"geometry":{"type":"Point","coordinates":[19.976792,47.814279]}},{"id":"309481","type":"Feature","properties":{"ident":"LHGR","type":"small_airport","name":"Gyúró Airfield","elevation_ft":"640","continent":"EU","iso_country":"HU","iso_region":"HU-FE","municipality":"Gyúró","scheduled_service":"no","gps_code":"LHGR","wikipedia_link":"http://hu.wikipedia.org/wiki/Gy%C3%BAr%C3%B3i_rep%C3%BCl%C5%91t%C3%A9r"},"geometry":{"type":"Point","coordinates":[18.75786,47.3914]}},{"id":"4303","type":"Feature","properties":{"ident":"LHPR","type":"medium_airport","name":"Győr-Pér International Airport","elevation_ft":"424","continent":"EU","iso_country":"HU","iso_region":"HU-GS","municipality":"Pér","scheduled_service":"yes","gps_code":"LHPR","home_link":"http://www.gyor-perairport.hu/index.php?displang=eng","wikipedia_link":"https://en.wikipedia.org/wiki/Gy%C5%91r-P%C3%A9r_International_Airport"},"geometry":{"type":"Point","coordinates":[17.804718,47.628436]}},{"id":"318133","type":"Feature","properties":{"ident":"LHGU","type":"heliport","name":"Győrújbarát Heliport","elevation_ft":"397","continent":"EU","iso_country":"HU","iso_region":"HU-GS","municipality":"Győrújbarát","scheduled_service":"no","gps_code":"LHGU"},"geometry":{"type":"Point","coordinates":[17.660188,47.605143]}},{"id":"31817","type":"Feature","properties":{"ident":"LHGD","type":"small_airport","name":"Gödöllő Airfield","elevation_ft":"600","continent":"EU","iso_country":"HU","iso_region":"HU-PE","municipality":"Gödöllő","scheduled_service":"no","gps_code":"LHGD","wikipedia_link":"https://hu.wikipedia.org/wiki/G%C3%B6d%C3%B6ll%C5%91i_rep%C3%BCl%C5%91t%C3%A9r","keywords":"Gödöllő Sport Airport"},"geometry":{"type":"Point","coordinates":[19.336796,47.571662]}},{"id":"29934","type":"Feature","properties":{"ident":"LHHO","type":"small_airport","name":"Hajdúszoboszló Airfield","elevation_ft":"335","continent":"EU","iso_country":"HU","iso_region":"HU-HB","municipality":"Hajdúszoboszló","scheduled_service":"no","gps_code":"LHHO","wikipedia_link":"https://hu.wikipedia.org/wiki/Hajd%C3%BAszoboszl%C3%B3i_rep%C3%BCl%C5%91t%C3%A9r"},"geometry":{"type":"Point","coordinates":[21.391105,47.459202]}},{"id":"318134","type":"Feature","properties":{"ident":"HU-0033","type":"small_airport","name":"Hajmáskér Airfield","continent":"EU","iso_country":"HU","iso_region":"HU-VE","municipality":"Hajmáskér","scheduled_service":"no","gps_code":"LHHK","keywords":"Hajmáskér Repülőtér"},"geometry":{"type":"Point","coordinates":[17.997751,47.142766]}},{"id":"506626","type":"Feature","properties":{"ident":"HU-0064","type":"small_airport","name":"Halászi Airstrip","elevation_ft":"390","continent":"EU","iso_country":"HU","iso_region":"HU-GS","municipality":"Halászi","scheduled_service":"no"},"geometry":{"type":"Point","coordinates":[17.34828,47.89016]}},{"id":"309204","type":"Feature","properties":{"ident":"LH0","type":"small_airport","name":"Hertelendy Kastély Field","elevation_ft":"469","continent":"EU","iso_country":"HU","iso_region":"HU-SO","municipality":"Kutas","scheduled_service":"no","gps_code":"LHKU","home_link":"http://www.hotel-hertelendy.com/airfield_information","keywords":"Hertelendy Castle, Kutas-Hertelendy"},"geometry":{"type":"Point","coordinates":[17.428007,46.373168]}},{"id":"355338","type":"Feature","properties":{"ident":"HU-0058","type":"heliport","name":"Hungaroring GoKart Center Heliport","elevation_ft":"767","continent":"EU","iso_country":"HU","iso_region":"HU-PE","municipality":"Mogyoród","scheduled_service":"no"},"geometry":{"type":"Point","coordinates":[19.25113,47.5783]}},{"id":"43032","type":"Feature","properties":{"ident":"LHHH","type":"small_airport","name":"Hármashatárhegy Glider Field","elevation_ft":"960","continent":"EU","iso_country":"HU","iso_region":"HU-BU","municipality":"Budapest","scheduled_service":"no","gps_code":"LHHH","home_link":"https://www.lhhh.hu"},"geometry":{"type":"Point","coordinates":[18.978701,47.550301]}},{"id":"4305","type":"Feature","properties":{"ident":"LHSM","type":"medium_airport","name":"Hévíz–Balaton Airport","elevation_ft":"408","continent":"EU","iso_country":"HU","iso_region":"HU-ZA","municipality":"Sármellék","scheduled_service":"yes","gps_code":"LHSM","iata_code":"SOB","home_link":"http://www.flybalaton.com/?null&lang=en","wikipedia_link":"https://en.wikipedia.org/wiki/S%C3%A1rmell%C3%A9k_International_Airport","keywords":"Sármellék International, FlyBatalon Airport, Batalon Airport, Sármellék Nemzetközi Repülőtér"},"geometry":{"type":"Point","coordinates":[17.159084,46.686391]}},{"id":"316485","type":"Feature","properties":{"ident":"HU-0023","type":"small_airport","name":"Hódmezővásárhelyi Airfield","elevation_ft":"262","continent":"EU","iso_country":"HU","iso_region":"HU-CS","municipality":"Hódmezővásárhelyi","scheduled_service":"no","gps_code":"LHHM"},"geometry":{"type":"Point","coordinates":[20.308333,46.384444]}},{"id":"320203","type":"Feature","properties":{"ident":"HU-0038","type":"small_airport","name":"Inárcs Airfield","continent":"EU","iso_country":"HU","iso_region":"HU-PE","municipality":"Inárcs","scheduled_service":"no","gps_code":"LHIN"},"geometry":{"type":"Point","coordinates":[19.313225,47.263641]}},{"id":"29987","type":"Feature","properties":{"ident":"LHJK","type":"small_airport","name":"Jakabszállás Airfield","elevation_ft":"348","continent":"EU","iso_country":"HU","iso_region":"HU-BK","municipality":"Jakabszállás","scheduled_service":"no","gps_code":"LHJK","wikipedia_link":"https://hu.wikipedia.org/wiki/Jakabsz%C3%A1ll%C3%A1si_rep%C3%BCl%C5%91t%C3%A9r"},"geometry":{"type":"Point","coordinates":[19.6056,46.7472]}},{"id":"331871","type":"Feature","properties":{"ident":"HU-0046","type":"small_airport","name":"Jászapáti Agricultural Airfield","elevation_ft":"295","continent":"EU","iso_country":"HU","iso_region":"HU-HE","municipality":"Jászapáti","scheduled_service":"no","keywords":"Mezőgazdasági Repülőtér"},"geometry":{"type":"Point","coordinates":[20.16257,47.521857]}},{"id":"317557","type":"Feature","properties":{"ident":"LHKT","type":"small_airport","name":"Kadarkút Airfield","continent":"EU","iso_country":"HU","iso_region":"HU-SO","municipality":"Kadarkút","scheduled_service":"no","gps_code":"LHKT"},"geometry":{"type":"Point","coordinates":[17.607822,46.247418]}},{"id":"43983","type":"Feature","properties":{"ident":"HU-0002","type":"medium_airport","name":"Kalocsa-Foktő Airfield","elevation_ft":"299","continent":"EU","iso_country":"HU","iso_region":"HU-BK","municipality":"Kalocsa","scheduled_service":"no","gps_code":"LHKA","home_link":"http://www.aeroportkalocsa.hu","wikipedia_link":"https://hu.wikipedia.org/wiki/Kalocsai_rep%C3%BCl%C5%91t%C3%A9r"},"geometry":{"type":"Point","coordinates":[18.942299,46.55149]}},{"id":"30009","type":"Feature","properties":{"ident":"LHKV","type":"small_airport","name":"Kaposvar Kaposújlak Airfield","elevation_ft":"499","continent":"EU","iso_country":"HU","iso_region":"HU-SO","municipality":"Kaposújlak","scheduled_service":"no","gps_code":"LHKV","wikipedia_link":"https://hu.wikipedia.org/wiki/Kapos%C3%BAjlaki_rep%C3%BCl%C5%91t%C3%A9r"},"geometry":{"type":"Point","coordinates":[17.733479,46.386398]}},{"id":"43984","type":"Feature","properties":{"ident":"LHKC","type":"heliport","name":"Kecel Heliport","elevation_ft":"323","continent":"EU","iso_country":"HU","iso_region":"HU-BK","municipality":"Kecel","scheduled_service":"no","gps_code":"LHKC"},"geometry":{"type":"Point","coordinates":[19.241703,46.536388]}},{"id":"4299","type":"Feature","properties":{"ident":"LHKE","type":"medium_airport","name":"Kecskemét Air Base","elevation_ft":"376","continent":"EU","iso_country":"HU","iso_region":"HU-BK","municipality":"Kecskemét","scheduled_service":"no","gps_code":"LHKE","wikipedia_link":"https://en.wikipedia.org/wiki/Kecskem%C3%A9t_Air_Base"},"geometry":{"type":"Point","coordinates":[19.749201,46.9175]}},{"id":"43036","type":"Feature","properties":{"ident":"LHKD","type":"small_airport","name":"Kecskéd Airfield","elevation_ft":"570","continent":"EU","iso_country":"HU","iso_region":"HU-KE","municipality":"Kecskéd","scheduled_service":"no","gps_code":"LHKD","wikipedia_link":"https://hu.wikipedia.org/wiki/Kecsk%C3%A9di_rep%C3%BCl%C5%91t%C3%A9r"},"geometry":{"type":"Point","coordinates":[18.325024,47.517121]}},{"id":"30029","type":"Feature","properties":{"ident":"LHKH","type":"small_airport","name":"Kiskunfélegyháza Airfield","elevation_ft":"289","continent":"EU","iso_country":"HU","iso_region":"HU-BK","municipality":"Kiskunfélegyháza","scheduled_service":"no","gps_code":"LHKH","home_link":"https://www.blue-sky.hu"},"geometry":{"type":"Point","coordinates":[19.893299,46.733101]}},{"id":"320510","type":"Feature","properties":{"ident":"HU-0040","type":"small_airport","name":"Kiskunhalas-Füzespuszta","elevation_ft":"426","continent":"EU","iso_country":"HU","iso_region":"HU-BK","municipality":"Kiskunhalas","scheduled_service":"no","gps_code":"LHKF"},"geometry":{"type":"Point","coordinates":[19.478889,46.368333]}},{"id":"46653","type":"Feature","properties":{"ident":"lhkk","type":"small_airport","name":"Kiskunlacháza Airfield","elevation_ft":"322","continent":"EU","iso_country":"HU","iso_region":"HU-PE","municipality":"Kiskunlacháza","scheduled_service":"no","gps_code":"LHKK","home_link":"http://www.kiskunlachaza-airport.hu","wikipedia_link":"http://hu.wikipedia.org/wiki/Kiskunlacházi_repülőtér","keywords":"Lachaza, LHKK, Lacháza, Kiskunlacháza, Budapest, LHTL, LHBP, ferihegy"},"geometry":{"type":"Point","coordinates":[19.077501,47.174484]}},{"id":"317552","type":"Feature","properties":{"ident":"LHKI","type":"small_airport","name":"Kiskőrös-Akasztó Airfield","elevation_ft":"305","continent":"EU","iso_country":"HU","iso_region":"HU-BK","municipality":"Akasztó","scheduled_service":"no","gps_code":"LHKI","keywords":"Akasztó"},"geometry":{"type":"Point","coordinates":[19.242997,46.656791]}},{"id":"346048","type":"Feature","properties":{"ident":"HU-0049","type":"small_airport","name":"Kislőd Airstrip","elevation_ft":"1319","continent":"EU","iso_country":"HU","iso_region":"HU-VE","municipality":"Városlőd","scheduled_service":"no"},"geometry":{"type":"Point","coordinates":[17.640073,47.1336]}},{"id":"43992","type":"Feature","properties":{"ident":"HU-0010","type":"small_airport","name":"Kunmadaras Air Base","elevation_ft":"279","continent":"EU","iso_country":"HU","iso_region":"HU-JN","municipality":"Kunmadaras","scheduled_service":"no","gps_code":"LHKM","wikipedia_link":"https://hu.wikipedia.org/wiki/Kunmadarasi_rep%C3%BCl%C5%91t%C3%A9r"},"geometry":{"type":"Point","coordinates":[20.785009,47.390839]}},{"id":"43981","type":"Feature","properties":{"ident":"HU-0001","type":"small_airport","name":"Kákahalom Airfield","elevation_ft":"256","continent":"EU","iso_country":"HU","iso_region":"HU-BE","municipality":"Szarvas","scheduled_service":"no","gps_code":"LHSV","wikipedia_link":"https://hu.wikipedia.org/wiki/K%C3%A1kai-Szarvasi_rep%C3%BCl%C5%91t%C3%A9r","keywords":"Szarvas-Káka"},"geometry":{"type":"Point","coordinates":[20.527838,46.803936]}},{"id":"318135","type":"Feature","properties":{"ident":"LHLI","type":"small_airport","name":"Lipót Szigetköz Airfield","elevation_ft":"377","continent":"EU","iso_country":"HU","iso_region":"HU-GS","municipality":"Lipót","scheduled_service":"no","gps_code":"LHLI","keywords":"Lipót Szigetköz repülőtér"},"geometry":{"type":"Point","coordinates":[17.448333,47.8575]}},{"id":"331678","type":"Feature","properties":{"ident":"LHBB","type":"heliport","name":"Légimentő bázis","continent":"EU","iso_country":"HU","iso_region":"HU-BU","municipality":"Budapest","scheduled_service":"no","gps_code":"LHBB"},"geometry":{"type":"Point","coordinates":[18.907278,47.454519]}},{"id":"29841","type":"Feature","properties":{"ident":"LHMR","type":"small_airport","name":"Maklár Airfield","elevation_ft":"407","continent":"EU","iso_country":"HU","iso_region":"HU-HE","municipality":"Eger","scheduled_service":"no","gps_code":"LHMR","wikipedia_link":"https://hu.wikipedia.org/wiki/Makl%C3%A1ri_rep%C3%BCl%C5%91t%C3%A9r"},"geometry":{"type":"Point","coordinates":[20.422254,47.811857]}},{"id":"516362","type":"Feature","properties":{"ident":"HU-0069","type":"heliport","name":"Markusovszky Hospital Heliport","continent":"EU","iso_country":"HU","iso_region":"HU-VA","municipality":"Szombathely","scheduled_service":"no"},"geometry":{"type":"Point","coordinates":[16.61823,47.2384]}},{"id":"506009","type":"Feature","properties":{"ident":"HU-0063","type":"small_airport","name":"Martfű Airstrip","elevation_ft":"-2","continent":"EU","iso_country":"HU","iso_region":"HU-JN","scheduled_service":"no"},"geometry":{"type":"Point","coordinates":[20.28573,47.01397]}},{"id":"43985","type":"Feature","properties":{"ident":"HU-0003","type":"small_airport","name":"Matkópuszta Airfield","elevation_ft":"367","continent":"EU","iso_country":"HU","iso_region":"HU-BK","municipality":"Matkópuszta","scheduled_service":"no","gps_code":"LHMP","home_link":"http://www.matkoairport.hu/"},"geometry":{"type":"Point","coordinates":[19.68257,46.800343]}},{"id":"355339","type":"Feature","properties":{"ident":"HU-0059","type":"heliport","name":"Merényi Gusztàv Kórhàz Heliport","elevation_ft":"380","continent":"EU","iso_country":"HU","iso_region":"HU-BU","municipality":"Budapest","scheduled_service":"no"},"geometry":{"type":"Point","coordinates":[19.09962,47.4657]}},{"id":"317730","type":"Feature","properties":{"ident":"HU-0032","type":"small_airport","name":"Mezőhegyes","continent":"EU","iso_country":"HU","iso_region":"HU-CS","scheduled_service":"no"},"geometry":{"type":"Point","coordinates":[20.813389,46.296989]}},{"id":"339205","type":"Feature","properties":{"ident":"HU-0048","type":"heliport","name":"Mátyásföldi Heliport","continent":"EU","iso_country":"HU","iso_region":"HU-BU","municipality":"Budapest","scheduled_service":"no"},"geometry":{"type":"Point","coordinates":[19.201027,47.50095]}},{"id":"324738","type":"Feature","properties":{"ident":"HU-0043","type":"small_airport","name":"Mórahalom Airstrip","elevation_ft":"292","continent":"EU","iso_country":"HU","iso_region":"HU-CS","municipality":"Domaszék","scheduled_service":"no"},"geometry":{"type":"Point","coordinates":[19.949197,46.251378]}},{"id":"30178","type":"Feature","properties":{"ident":"LHNK","type":"small_airport","name":"Nagykanizsa Airfield","elevation_ft":"466","continent":"EU","iso_country":"HU","iso_region":"HU-ZA","municipality":"Nagykanizsa","scheduled_service":"no","gps_code":"LHNK","wikipedia_link":"https://hu.wikipedia.org/wiki/Nagykanizsai_rep%C3%BCl%C5%91t%C3%A9r"},"geometry":{"type":"Point","coordinates":[16.957569,46.428304]}},{"id":"318136","type":"Feature","properties":{"ident":"LHNS","type":"small_airport","name":"Nagyszénás","continent":"EU","iso_country":"HU","iso_region":"HU-BE","municipality":"Nagyszénás","scheduled_service":"no","gps_code":"LHNS","wikipedia_link":"https://hu.wikipedia.org/wiki/Nagysz%C3%A9n%C3%A1si_rep%C3%BCl%C5%91t%C3%A9r"},"geometry":{"type":"Point","coordinates":[20.668611,46.698056]}},{"id":"4300","type":"Feature","properties":{"ident":"LHNY","type":"small_airport","name":"Nyíregyháza Airfield","elevation_ft":"338","continent":"EU","iso_country":"HU","iso_region":"HU-SZ","municipality":"Nyíregyháza","scheduled_service":"no","gps_code":"LHNY","home_link":"http://www.trenerkft.hu/","wikipedia_link":"https://en.wikipedia.org/wiki/Ny%C3%ADregyh%C3%A1za_Airport"},"geometry":{"type":"Point","coordinates":[21.692301,47.983898]}},{"id":"316170","type":"Feature","properties":{"ident":"HU-0021","type":"small_airport","name":"Papkutapuszta Airfield","elevation_ft":"459","continent":"EU","iso_country":"HU","iso_region":"HU-SO","municipality":"Papkutapuszta","scheduled_service":"no","gps_code":"LHPK"},"geometry":{"type":"Point","coordinates":[18.039036,46.874977]}},{"id":"506631","type":"Feature","properties":{"ident":"HU-0065","type":"heliport","name":"Petz Aladár County Teaching Hospital Heliport","continent":"EU","iso_country":"HU","iso_region":"HU-GY","municipality":"Győr","scheduled_service":"no"},"geometry":{"type":"Point","coordinates":[17.64919,47.67088]}},{"id":"318132","type":"Feature","properties":{"ident":"LHFP","type":"small_airport","name":"Piuszpuszta Airfield","elevation_ft":"486","continent":"EU","iso_country":"HU","iso_region":"HU-GS","municipality":"Fertőrákos","scheduled_service":"no","gps_code":"LHFP"},"geometry":{"type":"Point","coordinates":[16.614167,47.744444]}},{"id":"43990","type":"Feature","properties":{"ident":"HU-0008","type":"small_airport","name":"Pusztacsalád Airfield","elevation_ft":"497","continent":"EU","iso_country":"HU","iso_region":"HU-GS","municipality":"Pusztacsalád","scheduled_service":"no","gps_code":"LHPC"},"geometry":{"type":"Point","coordinates":[16.897216,47.493935]}},{"id":"317133","type":"Feature","properties":{"ident":"HU-0024","type":"small_airport","name":"Pusztaszer Airfield","elevation_ft":"292","continent":"EU","iso_country":"HU","iso_region":"HU-CS","municipality":"Pusztaszer","scheduled_service":"no","gps_code":"LHPS"},"geometry":{"type":"Point","coordinates":[19.99022,46.57687]}},{"id":"321512","type":"Feature","properties":{"ident":"HU-0042","type":"small_airport","name":"Pusztaszer West Airfield","continent":"EU","iso_country":"HU","iso_region":"HU-CS","municipality":"Pusztaszer","scheduled_service":"no","gps_code":"LHPW"},"geometry":{"type":"Point","coordinates":[19.96,46.546667]}},{"id":"30239","type":"Feature","properties":{"ident":"LHPA","type":"small_airport","name":"Pápa Air Base","elevation_ft":"466","continent":"EU","iso_country":"HU","iso_region":"HU-VE","municipality":"Pápa","scheduled_service":"no","gps_code":"LHPA","wikipedia_link":"https://en.wikipedia.org/wiki/P%C3%A1pa_Air_Base"},"geometry":{"type":"Point","coordinates":[17.500799,47.363602]}},{"id":"317535","type":"Feature","properties":{"ident":"HU-0028","type":"small_airport","name":"Pásztó-Hasznos repülőtér","continent":"EU","iso_country":"HU","iso_region":"HU-NO","municipality":"Pásztó","scheduled_service":"no"},"geometry":{"type":"Point","coordinates":[19.774745,47.932738]}},{"id":"316466","type":"Feature","properties":{"ident":"HU-0022","type":"heliport","name":"Pécs Hospital Heliport","continent":"EU","iso_country":"HU","iso_region":"HU-PS","scheduled_service":"no"},"geometry":{"type":"Point","coordinates":[18.20536,46.075003]}},{"id":"4302","type":"Feature","properties":{"ident":"LHPP","type":"medium_airport","name":"Pécs-Pogány Airport","elevation_ft":"651","continent":"EU","iso_country":"HU","iso_region":"HU-BA","municipality":"Pogány","scheduled_service":"yes","gps_code":"LHPP","iata_code":"PEV","home_link":"http://www.airport-pecs.hu/","wikipedia_link":"https://en.wikipedia.org/wiki/P%C3%A9cs-Pog%C3%A1ny_International_Airport","keywords":"Pecs South Airport, QPJ"},"geometry":{"type":"Point","coordinates":[18.242044,45.988891]}},{"id":"315679","type":"Feature","properties":{"ident":"HU-0020","type":"small_airport","name":"Rétság Airfield","elevation_ft":"719","continent":"EU","iso_country":"HU","iso_region":"HU-NO","municipality":"Rétság","scheduled_service":"no"},"geometry":{"type":"Point","coordinates":[19.122283,47.932748]}},{"id":"317567","type":"Feature","properties":{"ident":"LHSI","type":"small_airport","name":"Sitke Airfield","continent":"EU","iso_country":"HU","iso_region":"HU-VA","municipality":"Sitke","scheduled_service":"no","gps_code":"LHSI"},"geometry":{"type":"Point","coordinates":[17.027178,47.234558]}},{"id":"29681","type":"Feature","properties":{"ident":"LHSK","type":"small_airport","name":"Siófok-Kiliti Airfield","elevation_ft":"417","continent":"EU","iso_country":"HU","iso_region":"HU-SO","municipality":"Siófok-Kiliti","scheduled_service":"no","gps_code":"LHSK","home_link":"http://www.bud.hu/english/about_us/siofok-kiliti_airport/","wikipedia_link":"https://en.wikipedia.org/wiki/Si%C3%B3fok-Kiliti_Airfield"},"geometry":{"type":"Point","coordinates":[18.0958,46.856899]}},{"id":"346260","type":"Feature","properties":{"ident":"HU-0051","type":"small_airport","name":"Soltvadkert Sports Aerodrome","continent":"EU","iso_country":"HU","iso_region":"HU-BK","scheduled_service":"no"},"geometry":{"type":"Point","coordinates":[19.42941,46.57223]}},{"id":"514778","type":"Feature","properties":{"ident":"HU-0068","type":"heliport","name":"Sopron Erzsébet Teaching Hospital Heliport","elevation_ft":"745","continent":"EU","iso_country":"HU","iso_region":"HU-SN","municipality":"Sopron","scheduled_service":"no"},"geometry":{"type":"Point","coordinates":[16.60035,47.67796]}},{"id":"317566","type":"Feature","properties":{"ident":"LHSU","type":"small_airport","name":"Surjány Airfield","continent":"EU","iso_country":"HU","iso_region":"HU-JN","municipality":"Törökszentmiklós","scheduled_service":"no","gps_code":"LHSU"},"geometry":{"type":"Point","coordinates":[20.481934,47.199968]}},{"id":"317532","type":"Feature","properties":{"ident":"LHSB","type":"small_airport","name":"Szabadszállás-Balázspuszta Airfield","elevation_ft":"325","continent":"EU","iso_country":"HU","iso_region":"HU-BK","municipality":"Szabadszállás","scheduled_service":"no","gps_code":"LHSB"},"geometry":{"type":"Point","coordinates":[19.366389,46.900278]}},{"id":"43988","type":"Feature","properties":{"ident":"HU-0006","type":"small_airport","name":"Szatymaz Airfield","elevation_ft":"251","continent":"EU","iso_country":"HU","iso_region":"HU-CS","municipality":"Szatymaz","scheduled_service":"no","gps_code":"LHST"},"geometry":{"type":"Point","coordinates":[20.053209,46.322651]}},{"id":"30454","type":"Feature","properties":{"ident":"LHUD","type":"small_airport","name":"Szeged Airfield","elevation_ft":"249","continent":"EU","iso_country":"HU","iso_region":"HU-CS","municipality":"Szeged","scheduled_service":"no","gps_code":"LHUD","home_link":"http://www.airportszeged.hu/","wikipedia_link":"https://en.wikipedia.org/wiki/Szeged_Airport","keywords":"QZD"},"geometry":{"type":"Point","coordinates":[20.092217,46.245127]}},{"id":"355340","type":"Feature","properties":{"ident":"HU-0060","type":"heliport","name":"Szent János és a Kútvölgyi kórhàzi Heliport","elevation_ft":"593","continent":"EU","iso_country":"HU","iso_region":"HU-BU","municipality":"Budapest","scheduled_service":"no"},"geometry":{"type":"Point","coordinates":[19.001117,47.510335]}},{"id":"30455","type":"Feature","properties":{"ident":"LHSZ","type":"small_airport","name":"Szentes Aerodrome","elevation_ft":"259","continent":"EU","iso_country":"HU","iso_region":"HU-CS","municipality":"Szentes","scheduled_service":"no","gps_code":"LHSZ","wikipedia_link":"https://hu.wikipedia.org/wiki/Szentesi_rep%C3%BCl%C5%91t%C3%A9r"},"geometry":{"type":"Point","coordinates":[20.282801,46.6133]}},{"id":"4304","type":"Feature","properties":{"ident":"LHSA","type":"small_airport","name":"Szentkirályszabadja Airfield","elevation_ft":"919","continent":"EU","iso_country":"HU","iso_region":"HU-VE","municipality":"Szentkirályszabadja","scheduled_service":"no","gps_code":"LHSA","wikipedia_link":"https://hu.wikipedia.org/wiki/Veszpr%C3%A9m-Szentkir%C3%A1lyszabadja_Rep%C3%BCl%C5%91t%C3%A9r"},"geometry":{"type":"Point","coordinates":[17.968399,47.0779]}},{"id":"4306","type":"Feature","properties":{"ident":"LHSN","type":"medium_airport","name":"Szolnok Air Base","elevation_ft":"322","continent":"EU","iso_country":"HU","iso_region":"HU-JN","municipality":"Szolnok","scheduled_service":"no","gps_code":"LHSN","wikipedia_link":"https://en.wikipedia.org/wiki/Szolnok_Air_Base","keywords":"Szolnok Air Base, MH86"},"geometry":{"type":"Point","coordinates":[20.2355,47.122897]}},{"id":"514623","type":"Feature","properties":{"ident":"HU-0066","type":"heliport","name":"Szolnok Géza Hetényi Hospital Heliport","elevation_ft":"276","continent":"EU","iso_country":"HU","iso_region":"HU-SK","municipality":"Szolnok","scheduled_service":"no","keywords":"Helikopter repülőtér Szolnok Hetényi Géza Kórház"},"geometry":{"type":"Point","coordinates":[20.16843,47.15575]}},{"id":"30457","type":"Feature","properties":{"ident":"LHSS","type":"small_airport","name":"Szolnok-Szandai Airfield","elevation_ft":"266","continent":"EU","iso_country":"HU","iso_region":"HU-JN","municipality":"Szolnok","scheduled_service":"no","gps_code":"LHSS","keywords":"Szolnok-Szandaszőlős Sport Airfield"},"geometry":{"type":"Point","coordinates":[20.1978,47.144402]}},{"id":"30456","type":"Feature","properties":{"ident":"LHSY","type":"small_airport","name":"Szombathely Airfield","elevation_ft":"732","continent":"EU","iso_country":"HU","iso_region":"HU-VA","municipality":"Szombathely","scheduled_service":"no","gps_code":"LHSY","wikipedia_link":"https://hu.wikipedia.org/wiki/Szombathelyi_rep%C3%BCl%C5%91t%C3%A9r"},"geometry":{"type":"Point","coordinates":[16.6264,47.279999]}},{"id":"319722","type":"Feature","properties":{"ident":"HU-0036","type":"small_airport","name":"Sárospatak Airfield","elevation_ft":"315","continent":"EU","iso_country":"HU","iso_region":"HU-BZ","municipality":"Sárospatak","scheduled_service":"no"},"geometry":{"type":"Point","coordinates":[21.586117,48.318035]}},{"id":"516457","type":"Feature","properties":{"ident":"HU-0070","type":"small_airport","name":"Sülysáp Airfield","elevation_ft":"584","continent":"EU","iso_country":"HU","iso_region":"HU-PE","municipality":"Sülysáp","scheduled_service":"no"},"geometry":{"type":"Point","coordinates":[19.4594,47.49786]}},{"id":"317695","type":"Feature","properties":{"ident":"HU-0030","type":"small_airport","name":"Tapolca Airfield","continent":"EU","iso_country":"HU","iso_region":"HU-VE","municipality":"Tapolca","scheduled_service":"no","gps_code":"LHTP","wikipedia_link":"https://hu.wikipedia.org/wiki/Tapolcai_rep%C3%BCl%C5%91t%C3%A9r"},"geometry":{"type":"Point","coordinates":[17.407322,46.8687]}},{"id":"30003","type":"Feature","properties":{"ident":"LHTA","type":"medium_airport","name":"Taszár Air Base","elevation_ft":"531","continent":"EU","iso_country":"HU","iso_region":"HU-SO","municipality":"Taszár","scheduled_service":"no","gps_code":"LHTA","wikipedia_link":"https://en.wikipedia.org/wiki/Tasz%C3%A1r_Air_Base","keywords":"Kaland Taszar"},"geometry":{"type":"Point","coordinates":[17.9175,46.393101]}},{"id":"356009","type":"Feature","properties":{"ident":"HU-0061","type":"small_airport","name":"Telekgerendás Airfield","continent":"EU","iso_country":"HU","iso_region":"HU-BE","scheduled_service":"no"},"geometry":{"type":"Point","coordinates":[20.96272,46.65295]}},{"id":"318137","type":"Feature","properties":{"ident":"LHTM","type":"small_airport","name":"Tápiószentmárton Airfield","continent":"EU","iso_country":"HU","iso_region":"HU-PE","municipality":"Tápiószentmárton","scheduled_service":"no","gps_code":"LHTM"},"geometry":{"type":"Point","coordinates":[19.777364,47.310956]}},{"id":"346381","type":"Feature","properties":{"ident":"HU-0054","type":"small_airport","name":"Tótvázsony Airfield","continent":"EU","iso_country":"HU","iso_region":"HU-VE","municipality":"Tótvázsony","scheduled_service":"no","keywords":"Kövesgyűrpuszta"},"geometry":{"type":"Point","coordinates":[17.78407,47.03787]}},{"id":"30488","type":"Feature","properties":{"ident":"LHTL","type":"medium_airport","name":"Tököl Airport","elevation_ft":"318","continent":"EU","iso_country":"HU","iso_region":"HU-PE","municipality":"Tököl","scheduled_service":"no","gps_code":"LHTL","home_link":"http://www.lhtl.hu/","wikipedia_link":"https://hu.wikipedia.org/wiki/T%C3%B6k%C3%B6li_rep%C3%BCl%C5%91t%C3%A9r","keywords":"Tököl Air Base"},"geometry":{"type":"Point","coordinates":[18.980801,47.345299]}},{"id":"517301","type":"Feature","properties":{"ident":"HU-0071","type":"small_airport","name":"Velence Airstrip UL","elevation_ft":"413","continent":"EU","iso_country":"HU","iso_region":"HU-FE","municipality":"Velence","scheduled_service":"no"},"geometry":{"type":"Point","coordinates":[18.64159,47.25452]}},{"id":"318141","type":"Feature","properties":{"ident":"LHVE","type":"small_airport","name":"Veresegyház Airfield","continent":"EU","iso_country":"HU","iso_region":"HU-PE","municipality":"Veresegyház","scheduled_service":"no","gps_code":"LHVE","keywords":"East Line Air Team"},"geometry":{"type":"Point","coordinates":[19.255007,47.638107]}},{"id":"317447","type":"Feature","properties":{"ident":"HU-0027","type":"small_airport","name":"Zalacsány Airfield","elevation_ft":"381","continent":"EU","iso_country":"HU","iso_region":"HU-ZA","scheduled_service":"no","keywords":"Zalacsány Repülőtér"},"geometry":{"type":"Point","coordinates":[17.11188,46.79941]}},{"id":"30575","type":"Feature","properties":{"ident":"LHZA","type":"small_airport","name":"Zalaegerszeg Andráshida Airfield","elevation_ft":"617","continent":"EU","iso_country":"HU","iso_region":"HU-ZA","municipality":"Zalaegerszeg","scheduled_service":"no","gps_code":"LHZA","keywords":"Zalaegerszeg, Andráshida"},"geometry":{"type":"Point","coordinates":[16.7889,46.884701]}},{"id":"309480","type":"Feature","properties":{"ident":"LHZK","type":"small_airport","name":"Zalakaros Airfield","elevation_ft":"370","continent":"EU","iso_country":"HU","iso_region":"HU-ZA","municipality":"Zalakaros","scheduled_service":"no","gps_code":"LHZK"},"geometry":{"type":"Point","coordinates":[17.15118,46.5539]}},{"id":"346382","type":"Feature","properties":{"ident":"HU-0055","type":"small_airport","name":"Zirc-Tündérmajor Repülőtér","continent":"EU","iso_country":"HU","iso_region":"HU-VE","scheduled_service":"no"},"geometry":{"type":"Point","coordinates":[17.838192,47.259864]}},{"id":"318138","type":"Feature","properties":{"ident":"LHUH","type":"small_airport","name":"Úrhida","elevation_ft":"633","continent":"EU","iso_country":"HU","iso_region":"HU-FE","municipality":"Úrhida","scheduled_service":"no","gps_code":"LHUH"},"geometry":{"type":"Point","coordinates":[18.312986,47.128198]}},{"id":"4301","type":"Feature","properties":{"ident":"LHOY","type":"small_airport","name":"Őcsény Airfield","elevation_ft":"295","continent":"EU","iso_country":"HU","iso_region":"HU-TO","municipality":"Őcsény","scheduled_service":"no","gps_code":"LHOY","wikipedia_link":"https://hu.wikipedia.org/wiki/%C5%90cs%C3%A9nyi_rep%C3%BCl%C5%91t%C3%A9r"},"geometry":{"type":"Point","coordinates":[18.767386,46.306138]}}]}