{"type":"FeatureCollection","features":[{"id":"341689","type":"Feature","properties":{"ident":"IQ-0056","type":"heliport","name":"Adnan Khair Allah Hospital Helipad","elevation_ft":"128","continent":"AS","iso_country":"IQ","iso_region":"IQ-BG","municipality":"Baghdad","scheduled_service":"no"},"geometry":{"type":"Point","coordinates":[44.378074,33.343871]}},{"id":"5286","type":"Feature","properties":{"ident":"ORAA","type":"medium_airport","name":"Al Asad Air Base","elevation_ft":"618","continent":"AS","iso_country":"IQ","iso_region":"IQ-AN","municipality":"Hīt","scheduled_service":"no","gps_code":"ORAA","iata_code":"IQA","wikipedia_link":"https://en.wikipedia.org/wiki/Al_Asad_Airbase","keywords":"Qadisiyah Airbase"},"geometry":{"type":"Point","coordinates":[42.4412,33.785599]}},{"id":"44494","type":"Feature","properties":{"ident":"IQ-0001","type":"small_airport","name":"Al Fathah Air Base","continent":"AS","iso_country":"IQ","iso_region":"IQ-TS","scheduled_service":"no"},"geometry":{"type":"Point","coordinates":[43.725201,35.135399]}},{"id":"44495","type":"Feature","properties":{"ident":"IQ-0002","type":"small_airport","name":"Al Hayy Airport","continent":"AS","iso_country":"IQ","iso_region":"IQ-WA","scheduled_service":"no"},"geometry":{"type":"Point","coordinates":[45.781616,32.125633]}},{"id":"44496","type":"Feature","properties":{"ident":"IQ-0003","type":"small_airport","name":"Al Iskandariyah Airport","continent":"AS","iso_country":"IQ","iso_region":"IQ-BB","municipality":"Al Iskandariyah","scheduled_service":"no","gps_code":"ORAI"},"geometry":{"type":"Point","coordinates":[44.271275,32.969193]}},{"id":"44497","type":"Feature","properties":{"ident":"IQ-0004","type":"small_airport","name":"Al Mufrash Airport","continent":"AS","iso_country":"IQ","iso_region":"IQ-BA","municipality":"Ar Rumaylah","scheduled_service":"no","keywords":"ORAZ"},"geometry":{"type":"Point","coordinates":[47.476536,30.226498]}},{"id":"44498","type":"Feature","properties":{"ident":"IQ-0005","type":"small_airport","name":"Al Muhammadi Airport","continent":"AS","iso_country":"IQ","iso_region":"IQ-AN","municipality":"Abu Teban","scheduled_service":"no"},"geometry":{"type":"Point","coordinates":[42.913307,33.44088]}},{"id":"311028","type":"Feature","properties":{"ident":"ORNI","type":"medium_airport","name":"Al Najaf International Airport","elevation_ft":"103","continent":"AS","iso_country":"IQ","iso_region":"IQ-NA","municipality":"Najaf","scheduled_service":"yes","gps_code":"ORNI","iata_code":"NJF","home_link":"http://www.alnajafairport.net/","wikipedia_link":"https://en.wikipedia.org/wiki/Al_Najaf_International_Airport"},"geometry":{"type":"Point","coordinates":[44.404317,31.989853]}},{"id":"5296","type":"Feature","properties":{"ident":"ORSH","type":"medium_airport","name":"Al Sahra Army Air Field","elevation_ft":"451","continent":"AS","iso_country":"IQ","iso_region":"IQ-SD","municipality":"Tikrit","scheduled_service":"no","gps_code":"ORSH","wikipedia_link":"https://en.wikipedia.org/wiki/Camp_Speicher","keywords":"Camp Speicher"},"geometry":{"type":"Point","coordinates":[43.542999,34.673199]}},{"id":"5299","type":"Feature","properties":{"ident":"ORTI","type":"medium_airport","name":"Al Taji Army Air Field","elevation_ft":"121","continent":"AS","iso_country":"IQ","iso_region":"IQ-BG","municipality":"Taji","scheduled_service":"no","gps_code":"ORTI","wikipedia_link":"https://en.wikipedia.org/wiki/Taji,_Iraq#Camp_Taji"},"geometry":{"type":"Point","coordinates":[44.256699,33.523899]}},{"id":"5287","type":"Feature","properties":{"ident":"ORAT","type":"medium_airport","name":"Al Taqaddum Air Base","elevation_ft":"275","continent":"AS","iso_country":"IQ","iso_region":"IQ-AN","municipality":"Al Habbaniyah","scheduled_service":"no","gps_code":"ORAT","iata_code":"TQD","wikipedia_link":"https://en.wikipedia.org/wiki/Al_Taqaddum","keywords":"Tammuz Airbase, Al Fallujah, Greene Field"},"geometry":{"type":"Point","coordinates":[43.597099,33.3381]}},{"id":"341965","type":"Feature","properties":{"ident":"IQ-0057","type":"heliport","name":"Al-Faw Palace Heliport","elevation_ft":"121","continent":"AS","iso_country":"IQ","iso_region":"IQ-BG","municipality":"Baghdad","scheduled_service":"no"},"geometry":{"type":"Point","coordinates":[44.265,33.2638]}},{"id":"5300","type":"Feature","properties":{"ident":"ORTL","type":"medium_airport","name":"Ali Air Base","elevation_ft":"20","continent":"AS","iso_country":"IQ","iso_region":"IQ-DQ","municipality":"Nasiriyah","scheduled_service":"no","gps_code":"ORTL","iata_code":"XNH","wikipedia_link":"https://en.wikipedia.org/wiki/Ali_Air_Base","keywords":"Tallil Air Base, Camp Adder"},"geometry":{"type":"Point","coordinates":[46.090099,30.935801]}},{"id":"44499","type":"Feature","properties":{"ident":"IQ-0006","type":"small_airport","name":"Amara New Air Base","continent":"AS","iso_country":"IQ","iso_region":"IQ-MA","scheduled_service":"no"},"geometry":{"type":"Point","coordinates":[47.079571,31.817972]}},{"id":"44500","type":"Feature","properties":{"ident":"IQ-0007","type":"small_airport","name":"An Numaniyah Air Base","continent":"AS","iso_country":"IQ","iso_region":"IQ-WA","municipality":"An Numaniyah","scheduled_service":"no","gps_code":"ORAN"},"geometry":{"type":"Point","coordinates":[45.33306,32.504356]}},{"id":"44502","type":"Feature","properties":{"ident":"IQ-0009","type":"small_airport","name":"Ar Rutbah Highway Strip","continent":"AS","iso_country":"IQ","iso_region":"IQ-AN","scheduled_service":"no"},"geometry":{"type":"Point","coordinates":[40.396641,33.059032]}},{"id":"44503","type":"Feature","properties":{"ident":"IQ-0010","type":"small_airport","name":"Ar Rutbah South Airport","continent":"AS","iso_country":"IQ","iso_region":"IQ-AN","scheduled_service":"no"},"geometry":{"type":"Point","coordinates":[40.339565,32.831566]}},{"id":"355291","type":"Feature","properties":{"ident":"IQ-0065","type":"small_airport","name":"Arbat Airport","continent":"AS","iso_country":"IQ","iso_region":"IQ-SW","municipality":"Khrabeh","scheduled_service":"no"},"geometry":{"type":"Point","coordinates":[45.634088,35.399367]}},{"id":"44504","type":"Feature","properties":{"ident":"IQ-0011","type":"small_airport","name":"As Salman North Air Base","continent":"AS","iso_country":"IQ","iso_region":"IQ-MU","scheduled_service":"no"},"geometry":{"type":"Point","coordinates":[44.56971,30.646996]}},{"id":"5289","type":"Feature","properties":{"ident":"ORBI","type":"large_airport","name":"Baghdad International Airport / New Al Muthana Air Base","elevation_ft":"114","continent":"AS","iso_country":"IQ","iso_region":"IQ-BG","municipality":"Baghdad","scheduled_service":"yes","gps_code":"ORBI","iata_code":"BGW","wikipedia_link":"https://en.wikipedia.org/wiki/Baghdad_International_Airport","keywords":"SDA, BIAP, VBC, ORBS, Camp Sather, Saddam International Airport, Al Anbar Airport"},"geometry":{"type":"Point","coordinates":[44.2346,33.262501]}},{"id":"5288","type":"Feature","properties":{"ident":"ORBD","type":"medium_airport","name":"Balad Southeast Airport / Joint Base Balad","elevation_ft":"161","continent":"AS","iso_country":"IQ","iso_region":"IQ-SD","municipality":"Al Bakr","scheduled_service":"no","gps_code":"ORBD","local_code":"OR9","wikipedia_link":"https://en.wikipedia.org/wiki/Joint_Base_Balad","keywords":"Balad Southeast Air Base,Al-Bakir Air Base, Camp Anaconda, قاعدة البكر الجوية"},"geometry":{"type":"Point","coordinates":[44.361599,33.940201]}},{"id":"30776","type":"Feature","properties":{"ident":"ORBB","type":"small_airport","name":"Bamarni Airport","elevation_ft":"3455","continent":"AS","iso_country":"IQ","iso_region":"IQ-DA","municipality":"Bamarni","scheduled_service":"no","gps_code":"ORBB","iata_code":"BMN"},"geometry":{"type":"Point","coordinates":[43.266602,37.098801]}},{"id":"44506","type":"Feature","properties":{"ident":"IQ-0013","type":"small_airport","name":"Bashiqah Airport","continent":"AS","iso_country":"IQ","iso_region":"IQ-NI","scheduled_service":"no"},"geometry":{"type":"Point","coordinates":[43.346298,36.490662]}},{"id":"5291","type":"Feature","properties":{"ident":"ORBR","type":"small_airport","name":"Bashur Airfield","elevation_ft":"2079","continent":"AS","iso_country":"IQ","iso_region":"IQ-AR","municipality":"Bashur","scheduled_service":"no","gps_code":"ORBR"},"geometry":{"type":"Point","coordinates":[44.339901,36.533699]}},{"id":"5294","type":"Feature","properties":{"ident":"ORMM","type":"medium_airport","name":"Basra International Airport","elevation_ft":"11","continent":"AS","iso_country":"IQ","iso_region":"IQ-BA","municipality":"Basra","scheduled_service":"yes","gps_code":"ORMM","iata_code":"BSR","home_link":"http://www.basrainternationalairport.com","wikipedia_link":"https://en.wikipedia.org/wiki/Basra_International_Airport","keywords":"Basrah"},"geometry":{"type":"Point","coordinates":[47.662102,30.549101]}},{"id":"352476","type":"Feature","properties":{"ident":"IQ-0063","type":"heliport","name":"Camp Baharia Army Heliport","elevation_ft":"178","continent":"AS","iso_country":"IQ","iso_region":"IQ-AN","municipality":"Fallujah","scheduled_service":"no"},"geometry":{"type":"Point","coordinates":[43.84786,33.33409]}},{"id":"352477","type":"Feature","properties":{"ident":"IQ-0064","type":"heliport","name":"Camp Baharia South Heliport","elevation_ft":"151","continent":"AS","iso_country":"IQ","iso_region":"IQ-AN","municipality":"Fallujah","scheduled_service":"no"},"geometry":{"type":"Point","coordinates":[43.84765,33.33267]}},{"id":"5292","type":"Feature","properties":{"ident":"ORER","type":"medium_airport","name":"Erbil International Airport","elevation_ft":"1341","continent":"AS","iso_country":"IQ","iso_region":"IQ-AR","municipality":"Arbil","scheduled_service":"yes","gps_code":"ORER","iata_code":"EBL","wikipedia_link":"https://en.wikipedia.org/wiki/Erbil_International_Airport","keywords":"Irbil, Kurdistan, فروکه‌خانه‌ی نيوده‌وله‌تی هه‌ولير"},"geometry":{"type":"Point","coordinates":[43.9632,36.237598]}},{"id":"44508","type":"Feature","properties":{"ident":"IQ-0015","type":"small_airport","name":"Ghalaysan New Air Base","continent":"AS","iso_country":"IQ","iso_region":"IQ-NA","scheduled_service":"no"},"geometry":{"type":"Point","coordinates":[43.675461,30.913952]}},{"id":"44509","type":"Feature","properties":{"ident":"IQ-0016","type":"medium_airport","name":"H1 New Air Base","elevation_ft":"1353","continent":"AS","iso_country":"IQ","iso_region":"IQ-AN","municipality":"Anah","scheduled_service":"no"},"geometry":{"type":"Point","coordinates":[41.436712,33.816262]}},{"id":"44510","type":"Feature","properties":{"ident":"IQ-0017","type":"medium_airport","name":"H2 Air Base","continent":"AS","iso_country":"IQ","iso_region":"IQ-AN","scheduled_service":"no"},"geometry":{"type":"Point","coordinates":[40.588024,33.363724]}},{"id":"44511","type":"Feature","properties":{"ident":"IQ-0018","type":"medium_airport","name":"H3 Air Base","continent":"AS","iso_country":"IQ","iso_region":"IQ-AN","scheduled_service":"no"},"geometry":{"type":"Point","coordinates":[39.745102,32.929382]}},{"id":"44512","type":"Feature","properties":{"ident":"IQ-0019","type":"small_airport","name":"H3 Highway Strip","continent":"AS","iso_country":"IQ","iso_region":"IQ-AN","scheduled_service":"no"},"geometry":{"type":"Point","coordinates":[39.310894,32.848534]}},{"id":"44513","type":"Feature","properties":{"ident":"IQ-0020","type":"medium_airport","name":"H3 Northwest AFB","continent":"AS","iso_country":"IQ","iso_region":"IQ-AN","scheduled_service":"no"},"geometry":{"type":"Point","coordinates":[39.599617,33.07457]}},{"id":"44514","type":"Feature","properties":{"ident":"IQ-0021","type":"medium_airport","name":"H3 Southwest Air Base","continent":"AS","iso_country":"IQ","iso_region":"IQ-AN","scheduled_service":"no"},"geometry":{"type":"Point","coordinates":[39.599556,32.744926]}},{"id":"44515","type":"Feature","properties":{"ident":"IQ-0022","type":"small_airport","name":"Habbaniyah Airport","continent":"AS","iso_country":"IQ","iso_region":"IQ-AN","scheduled_service":"no","gps_code":"ORBH"},"geometry":{"type":"Point","coordinates":[43.564396,33.374226]}},{"id":"44516","type":"Feature","properties":{"ident":"IQ-0023","type":"small_airport","name":"Injanah Air Field","continent":"AS","iso_country":"IQ","iso_region":"IQ-DI","scheduled_service":"no"},"geometry":{"type":"Point","coordinates":[44.595306,34.445618]}},{"id":"44517","type":"Feature","properties":{"ident":"IQ-0024","type":"medium_airport","name":"Jalibah Southeast Air Base","continent":"AS","iso_country":"IQ","iso_region":"IQ-BA","municipality":"Jalibah","scheduled_service":"no","gps_code":"ORJA"},"geometry":{"type":"Point","coordinates":[46.602779,30.546518]}},{"id":"44518","type":"Feature","properties":{"ident":"IQ-0025","type":"small_airport","name":"Juwarin Highway Strip","continent":"AS","iso_country":"IQ","iso_region":"IQ-MU","scheduled_service":"no"},"geometry":{"type":"Point","coordinates":[46.424103,30.689335]}},{"id":"44519","type":"Feature","properties":{"ident":"IQ-0026","type":"small_airport","name":"K1 Air Base","continent":"AS","iso_country":"IQ","iso_region":"IQ-TS","scheduled_service":"no"},"geometry":{"type":"Point","coordinates":[44.283627,35.513191]}},{"id":"44520","type":"Feature","properties":{"ident":"IQ-0027","type":"small_airport","name":"K2 Air Base","continent":"AS","iso_country":"IQ","iso_region":"IQ-SD","scheduled_service":"no"},"geometry":{"type":"Point","coordinates":[43.384731,34.92065]}},{"id":"44521","type":"Feature","properties":{"ident":"IQ-0028","type":"small_airport","name":"Karbala Northeast Airport","continent":"AS","iso_country":"IQ","iso_region":"IQ-BB","municipality":"Karbala","scheduled_service":"no"},"geometry":{"type":"Point","coordinates":[44.127552,32.755466]}},{"id":"44522","type":"Feature","properties":{"ident":"IQ-0029","type":"small_airport","name":"Khan Bani Saad Airport","elevation_ft":"150","continent":"AS","iso_country":"IQ","iso_region":"IQ-DI","municipality":"Khan Bani Saad","scheduled_service":"no"},"geometry":{"type":"Point","coordinates":[44.594937,33.591599]}},{"id":"5293","type":"Feature","properties":{"ident":"ORKK","type":"medium_airport","name":"Kirkuk Air Base","elevation_ft":"1061","continent":"AS","iso_country":"IQ","iso_region":"IQ-TS","municipality":"Kirkuk","scheduled_service":"no","gps_code":"ORKK","iata_code":"KIK","wikipedia_link":"https://en.wikipedia.org/wiki/Kirkuk_International_Airport"},"geometry":{"type":"Point","coordinates":[44.3489,35.469501]}},{"id":"300117","type":"Feature","properties":{"ident":"ORRW","type":"heliport","name":"Korean Village Forward Operating Base","elevation_ft":"2442","continent":"AS","iso_country":"IQ","iso_region":"IQ-AN","scheduled_service":"no","gps_code":"ORRW"},"geometry":{"type":"Point","coordinates":[39.938333,33.019167]}},{"id":"44524","type":"Feature","properties":{"ident":"IQ-0030","type":"medium_airport","name":"Kut Al Hayy East Air Base","continent":"AS","iso_country":"IQ","iso_region":"IQ-WA","scheduled_service":"no"},"geometry":{"type":"Point","coordinates":[46.38224,32.11684]}},{"id":"44525","type":"Feature","properties":{"ident":"IQ-0031","type":"small_airport","name":"Markab Northeast Airport","continent":"AS","iso_country":"IQ","iso_region":"IQ-AN","scheduled_service":"no"},"geometry":{"type":"Point","coordinates":[43.594501,33.252525]}},{"id":"5290","type":"Feature","properties":{"ident":"ORBM","type":"medium_airport","name":"Mosul International Airport","elevation_ft":"719","continent":"AS","iso_country":"IQ","iso_region":"IQ-NI","municipality":"Mosul","scheduled_service":"no","gps_code":"ORBM","iata_code":"OSM","wikipedia_link":"https://en.wikipedia.org/wiki/Mosul_International_Airport","keywords":"OSB"},"geometry":{"type":"Point","coordinates":[43.1474,36.305801]}},{"id":"44526","type":"Feature","properties":{"ident":"IQ-0032","type":"small_airport","name":"Mudaysis Air Base","elevation_ft":"1210","continent":"AS","iso_country":"IQ","iso_region":"IQ-AN","scheduled_service":"no","gps_code":"KQMG"},"geometry":{"type":"Point","coordinates":[41.947495,32.410671]}},{"id":"44528","type":"Feature","properties":{"ident":"IQ-0034","type":"medium_airport","name":"Qalat Salih Air Base","continent":"AS","iso_country":"IQ","iso_region":"IQ-MA","scheduled_service":"no"},"geometry":{"type":"Point","coordinates":[47.289791,31.456581]}},{"id":"44529","type":"Feature","properties":{"ident":"IQ-0035","type":"small_airport","name":"Qalat Sikar Air Base","continent":"AS","iso_country":"IQ","iso_region":"IQ-DQ","scheduled_service":"no"},"geometry":{"type":"Point","coordinates":[46.30484,31.834982]}},{"id":"44530","type":"Feature","properties":{"ident":"IQ-0036","type":"small_airport","name":"Qasr Tall Mihl Airport","continent":"AS","iso_country":"IQ","iso_region":"IQ-BG","municipality":"Baghdad","scheduled_service":"no","gps_code":"ORQT"},"geometry":{"type":"Point","coordinates":[44.241753,33.306409]}},{"id":"44531","type":"Feature","properties":{"ident":"IQ-0037","type":"small_airport","name":"Qayyarah South Airport","continent":"AS","iso_country":"IQ","iso_region":"IQ-NI","scheduled_service":"no"},"geometry":{"type":"Point","coordinates":[43.264633,35.757072]}},{"id":"5295","type":"Feature","properties":{"ident":"ORQW","type":"medium_airport","name":"Qayyarah West Airport","elevation_ft":"749","continent":"AS","iso_country":"IQ","iso_region":"IQ-NI","municipality":"Qayyarah","scheduled_service":"no","gps_code":"ORQW","iata_code":"RQW","wikipedia_link":"https://en.wikipedia.org/wiki/Qayyarah_Airfield_West"},"geometry":{"type":"Point","coordinates":[43.125099,35.7672]}},{"id":"44532","type":"Feature","properties":{"ident":"IQ-0038","type":"small_airport","name":"Radif Al Khafi Highway Strip","continent":"AS","iso_country":"IQ","iso_region":"IQ-AN","scheduled_service":"no"},"geometry":{"type":"Point","coordinates":[42.140594,31.93084]}},{"id":"44533","type":"Feature","properties":{"ident":"IQ-0039","type":"medium_airport","name":"Rasheed Air Base","continent":"AS","iso_country":"IQ","iso_region":"IQ-BG","municipality":"Baghdad","scheduled_service":"no","wikipedia_link":"https://en.wikipedia.org/wiki/Rasheed_Air_Base","keywords":"RAF Hinaidi, Alsalam Air Base"},"geometry":{"type":"Point","coordinates":[44.493706,33.279327]}},{"id":"519840","type":"Feature","properties":{"ident":"IQ-0066","type":"small_airport","name":"Rashken","continent":"AS","iso_country":"IQ","iso_region":"IQ-U-A","scheduled_service":"no"},"geometry":{"type":"Point","coordinates":[43.923667,36.199566]}},{"id":"349456","type":"Feature","properties":{"ident":"IQ-0061","type":"heliport","name":"Rawah Heliport","elevation_ft":"533","continent":"AS","iso_country":"IQ","iso_region":"IQ-AN","municipality":"Rawah","scheduled_service":"no"},"geometry":{"type":"Point","coordinates":[41.91218,34.46139]}},{"id":"44534","type":"Feature","properties":{"ident":"IQ-0040","type":"medium_airport","name":"Ruwayshid Air Base","continent":"AS","iso_country":"IQ","iso_region":"IQ-AN","scheduled_service":"no"},"geometry":{"type":"Point","coordinates":[39.123611,32.406113]}},{"id":"44535","type":"Feature","properties":{"ident":"IQ-0041","type":"small_airport","name":"Safwan Airport","continent":"AS","iso_country":"IQ","iso_region":"IQ-BA","municipality":"Safwan","scheduled_service":"no","wikipedia_link":"https://en.wikipedia.org/wiki/Safwan_Air_Base","keywords":"OR1M"},"geometry":{"type":"Point","coordinates":[47.649387,30.135675]}},{"id":"44536","type":"Feature","properties":{"ident":"IQ-0042","type":"medium_airport","name":"Sahl Sinjar Air Base","continent":"AS","iso_country":"IQ","iso_region":"IQ-NI","scheduled_service":"no"},"geometry":{"type":"Point","coordinates":[42.142139,35.859264]}},{"id":"44537","type":"Feature","properties":{"ident":"IQ-0043","type":"small_airport","name":"Salman Pak East Air Field","continent":"AS","iso_country":"IQ","iso_region":"IQ-DI","scheduled_service":"no"},"geometry":{"type":"Point","coordinates":[44.774094,33.16069]}},{"id":"44538","type":"Feature","properties":{"ident":"IQ-0044","type":"medium_airport","name":"Salum Air Base","continent":"AS","iso_country":"IQ","iso_region":"IQ-DI","scheduled_service":"no"},"geometry":{"type":"Point","coordinates":[44.746948,34.164074]}},{"id":"44539","type":"Feature","properties":{"ident":"IQ-0045","type":"medium_airport","name":"Samarra East Air Base / Dhuluiya Airport","elevation_ft":"203","continent":"AS","iso_country":"IQ","iso_region":"IQ-SD","municipality":"Dhuluiya","scheduled_service":"no"},"geometry":{"type":"Point","coordinates":[44.264304,34.16554]}},{"id":"44540","type":"Feature","properties":{"ident":"IQ-0046","type":"small_airport","name":"Samarra West Air Field","continent":"AS","iso_country":"IQ","iso_region":"IQ-SD","scheduled_service":"no"},"geometry":{"type":"Point","coordinates":[43.259827,34.306313]}},{"id":"44542","type":"Feature","properties":{"ident":"IQ-0048","type":"small_airport","name":"Shayka Mazhar Air Base","continent":"AS","iso_country":"IQ","iso_region":"IQ-WA","scheduled_service":"no"},"geometry":{"type":"Point","coordinates":[44.629791,32.929039]}},{"id":"44543","type":"Feature","properties":{"ident":"IQ-0049","type":"small_airport","name":"Shaykh Hantush Highway Strip","continent":"AS","iso_country":"IQ","iso_region":"IQ-BB","scheduled_service":"no"},"geometry":{"type":"Point","coordinates":[44.887432,32.293064]}},{"id":"44541","type":"Feature","properties":{"ident":"IQ-0047","type":"small_airport","name":"Shu'aiba Airport","continent":"AS","iso_country":"IQ","iso_region":"IQ-BA","municipality":"Shu'aiba","scheduled_service":"no"},"geometry":{"type":"Point","coordinates":[47.642235,30.426825]}},{"id":"44544","type":"Feature","properties":{"ident":"IQ-0050","type":"small_airport","name":"Subakhu Air Field","elevation_ft":"171","continent":"AS","iso_country":"IQ","iso_region":"IQ-DI","municipality":"Muqdadiyah","scheduled_service":"no"},"geometry":{"type":"Point","coordinates":[45.101368,33.934475]}},{"id":"5297","type":"Feature","properties":{"ident":"ORSU","type":"medium_airport","name":"Sulaymaniyah International Airport","elevation_ft":"2494","continent":"AS","iso_country":"IQ","iso_region":"IQ-SW","municipality":"Sulaymaniyah","scheduled_service":"yes","gps_code":"ORSU","iata_code":"ISU","local_code":"OSO","wikipedia_link":"https://en.wikipedia.org/wiki/Sulaimaniyah_International_Airport","keywords":"Kurd, Kurdish, Kurdistan"},"geometry":{"type":"Point","coordinates":[45.316738,35.561749]}},{"id":"44545","type":"Feature","properties":{"ident":"IQ-0051","type":"medium_airport","name":"Tal Ashtah New Air Base","elevation_ft":"611","continent":"AS","iso_country":"IQ","iso_region":"IQ-TS","scheduled_service":"no"},"geometry":{"type":"Point","coordinates":[44.133888,35.139721]}},{"id":"5298","type":"Feature","properties":{"ident":"ORTF","type":"medium_airport","name":"Tall Afar Army Air Field","elevation_ft":"996","continent":"AS","iso_country":"IQ","iso_region":"IQ-NI","municipality":"Tall Afar","scheduled_service":"no","gps_code":"ORTF"},"geometry":{"type":"Point","coordinates":[42.403,36.2831]}},{"id":"44546","type":"Feature","properties":{"ident":"IQ-0052","type":"small_airport","name":"Tikrit East Airport","continent":"AS","iso_country":"IQ","iso_region":"IQ-SD","municipality":"Tikrit","scheduled_service":"no","gps_code":"ORTK","wikipedia_link":"https://en.wikipedia.org/wiki/Tikrit_East_Air_Base"},"geometry":{"type":"Point","coordinates":[43.775711,34.608257]}},{"id":"345156","type":"Feature","properties":{"ident":"IQ-0058","type":"heliport","name":"Tikrit Heliport","continent":"AS","iso_country":"IQ","iso_region":"IQ-SD","municipality":"Tikrit","scheduled_service":"no"},"geometry":{"type":"Point","coordinates":[43.691355,34.594751]}},{"id":"44547","type":"Feature","properties":{"ident":"IQ-0053","type":"small_airport","name":"Tikrit South Airport","elevation_ft":"356","continent":"AS","iso_country":"IQ","iso_region":"IQ-SD","municipality":"Tikrit","scheduled_service":"no","gps_code":"ORTS","wikipedia_link":"https://en.wikipedia.org/wiki/Tikrit_South_Air_Base","keywords":"FOB Packhorse, FOB Remagen"},"geometry":{"type":"Point","coordinates":[43.677574,34.534641]}},{"id":"341688","type":"Feature","properties":{"ident":"IQ-0033","type":"heliport","name":"Transportation Ministry Helipad","elevation_ft":"115","continent":"AS","iso_country":"IQ","iso_region":"IQ-BG","municipality":"Baghdad","scheduled_service":"no"},"geometry":{"type":"Point","coordinates":[44.443063,33.346906]}},{"id":"44548","type":"Feature","properties":{"ident":"IQ-0054","type":"medium_airport","name":"Tuz Khurmatu Air Base","continent":"AS","iso_country":"IQ","iso_region":"IQ-SD","scheduled_service":"no"},"geometry":{"type":"Point","coordinates":[44.482777,34.937222]}},{"id":"5301","type":"Feature","properties":{"ident":"ORUB","type":"medium_airport","name":"Ubaydah Bin Al Jarrah Airport","elevation_ft":"68","continent":"AS","iso_country":"IQ","iso_region":"IQ-WA","municipality":"Al Kut","scheduled_service":"no","gps_code":"ORUB"},"geometry":{"type":"Point","coordinates":[45.757099,32.481998]}},{"id":"351576","type":"Feature","properties":{"ident":"IQ-0062","type":"heliport","name":"Umm Qasr Naval Base Heliport","elevation_ft":"13","continent":"AS","iso_country":"IQ","iso_region":"IQ-BA","municipality":"Umm Qasr","scheduled_service":"no"},"geometry":{"type":"Point","coordinates":[47.94933,30.01682]}},{"id":"44549","type":"Feature","properties":{"ident":"IQ-0055","type":"medium_airport","name":"Wadi Al Khirr New Air Base","continent":"AS","iso_country":"IQ","iso_region":"IQ-NA","scheduled_service":"no"},"geometry":{"type":"Point","coordinates":[43.182362,31.417402]}},{"id":"300116","type":"Feature","properties":{"ident":"ORWH","type":"heliport","name":"Washington Army Heliport","elevation_ft":"139","continent":"AS","iso_country":"IQ","iso_region":"IQ-BG","municipality":"Baghdad","scheduled_service":"no","gps_code":"ORWH","keywords":"Republican Palace Heliport"},"geometry":{"type":"Point","coordinates":[44.403719,33.304688]}}]}