{"type":"FeatureCollection","features":[{"id":"352610","type":"Feature","properties":{"ident":"JP-2971","type":"heliport","name":"(Duplicate)Uehonmachi Hills Mark Heliport","continent":"AS","iso_country":"JP","iso_region":"JP-27","municipality":"Osaka","scheduled_service":"no"},"geometry":{"type":"Point","coordinates":[135.52381,34.66423]}},{"id":"352039","type":"Feature","properties":{"ident":"JP-2830","type":"heliport","name":"1-chome-2-1 Tomobuchicho Helipad","continent":"AS","iso_country":"JP","iso_region":"JP-27","municipality":"Osaka","scheduled_service":"no"},"geometry":{"type":"Point","coordinates":[135.52464,34.71405]}},{"id":"351931","type":"Feature","properties":{"ident":"JP-2772","type":"heliport","name":"4-1 Hakubaicho Helipad","continent":"AS","iso_country":"JP","iso_region":"JP-27","municipality":"Takatsuki","scheduled_service":"no"},"geometry":{"type":"Point","coordinates":[135.61909,34.85311]}},{"id":"351412","type":"Feature","properties":{"ident":"JP-2756","type":"heliport","name":"5-chome-3-1 Ohashicho Helipad","continent":"AS","iso_country":"JP","iso_region":"JP-28","municipality":"Kobe","scheduled_service":"no"},"geometry":{"type":"Point","coordinates":[135.14544,34.6554]}},{"id":"351405","type":"Feature","properties":{"ident":"JP-2751","type":"heliport","name":"6-chome-2-14 Kaigandori Helipad","continent":"AS","iso_country":"JP","iso_region":"JP-28","municipality":"Kobe","scheduled_service":"no"},"geometry":{"type":"Point","coordinates":[135.182451,34.683023]}},{"id":"508817","type":"Feature","properties":{"ident":"JP-3252","type":"heliport","name":"A City Towers East Helipad","continent":"AS","iso_country":"JP","iso_region":"JP-34","municipality":"Hiroshima","scheduled_service":"no"},"geometry":{"type":"Point","coordinates":[132.39657,34.44567]}},{"id":"508816","type":"Feature","properties":{"ident":"JP-3251","type":"heliport","name":"A City Towers West Helipad","continent":"AS","iso_country":"JP","iso_region":"JP-34","municipality":"Hiroshima","scheduled_service":"no"},"geometry":{"type":"Point","coordinates":[132.3958,34.44578]}},{"id":"340597","type":"Feature","properties":{"ident":"JP-1174","type":"heliport","name":"Abashiri Fire Department South Station Heliport","continent":"AS","iso_country":"JP","iso_region":"JP-01","municipality":"Abashiri","scheduled_service":"no"},"geometry":{"type":"Point","coordinates":[144.27072,43.99428]}},{"id":"336031","type":"Feature","properties":{"ident":"JP-0343","type":"heliport","name":"Abeno Grantour Helipad","continent":"AS","iso_country":"JP","iso_region":"JP-27","municipality":"Osaka","scheduled_service":"no"},"geometry":{"type":"Point","coordinates":[135.510483,34.644723]}},{"id":"336030","type":"Feature","properties":{"ident":"JP-0342","type":"heliport","name":"Abeno Harukas Helipad","continent":"AS","iso_country":"JP","iso_region":"JP-27","municipality":"Osaka","scheduled_service":"no"},"geometry":{"type":"Point","coordinates":[135.513852,34.645698]}},{"id":"341366","type":"Feature","properties":{"ident":"JP-1508","type":"heliport","name":"Abeno Lucias Helipad","continent":"AS","iso_country":"JP","iso_region":"JP-27","municipality":"Osaka","scheduled_service":"no"},"geometry":{"type":"Point","coordinates":[135.511,34.64665]}},{"id":"337605","type":"Feature","properties":{"ident":"JP-0599","type":"small_airport","name":"Abukuma Flying Club Airstrip","continent":"AS","iso_country":"JP","iso_region":"JP-07","municipality":"Date","scheduled_service":"no"},"geometry":{"type":"Point","coordinates":[140.604283,37.86812]}},{"id":"338276","type":"Feature","properties":{"ident":"JP-0736","type":"heliport","name":"Acresty Minamisenju Helipad","continent":"AS","iso_country":"JP","iso_region":"JP-13","municipality":"Arakawa, Tokyo","scheduled_service":"no"},"geometry":{"type":"Point","coordinates":[139.798198,35.733101]}},{"id":"343686","type":"Feature","properties":{"ident":"JP-1862","type":"heliport","name":"Acros Shin-Osaka Helipad","continent":"AS","iso_country":"JP","iso_region":"JP-27","municipality":"Osaka","scheduled_service":"no"},"geometry":{"type":"Point","coordinates":[135.49723,34.73526]}},{"id":"347817","type":"Feature","properties":{"ident":"JP-2497","type":"heliport","name":"ACS Heliport","elevation_ft":"49","continent":"AS","iso_country":"JP","iso_region":"JP-23","municipality":"Anjo","scheduled_service":"no"},"geometry":{"type":"Point","coordinates":[137.06381,34.9619]}},{"id":"338263","type":"Feature","properties":{"ident":"JP-0723","type":"heliport","name":"Actopia Kita-Akabane Building 4 Helipad","continent":"AS","iso_country":"JP","iso_region":"JP-13","municipality":"Kita, Tokyo","scheduled_service":"no"},"geometry":{"type":"Point","coordinates":[139.708757,35.78523]}},{"id":"334638","type":"Feature","properties":{"ident":"JP-0273","type":"heliport","name":"Acty Shiodome Helipad","continent":"AS","iso_country":"JP","iso_region":"JP-13","municipality":"Minato, Tokyo","scheduled_service":"no"},"geometry":{"type":"Point","coordinates":[139.75885,35.65795]}},{"id":"334937","type":"Feature","properties":{"ident":"JP-0328","type":"heliport","name":"Adachi Ward Office Helipad","continent":"AS","iso_country":"JP","iso_region":"JP-13","municipality":"Adachi, Tokyo","scheduled_service":"no"},"geometry":{"type":"Point","coordinates":[139.804512,35.774635]}},{"id":"343496","type":"Feature","properties":{"ident":"JP-1729","type":"heliport","name":"Adenium Tower East Umeda Square Helipad","elevation_ft":"382","continent":"AS","iso_country":"JP","iso_region":"JP-27","municipality":"Osaka","scheduled_service":"no"},"geometry":{"type":"Point","coordinates":[135.5071,34.71058]}},{"id":"339774","type":"Feature","properties":{"ident":"JP-1101","type":"heliport","name":"Aeon Tower Annex Helipad","continent":"AS","iso_country":"JP","iso_region":"JP-12","municipality":"Chiba","scheduled_service":"no"},"geometry":{"type":"Point","coordinates":[140.040034,35.650179]}},{"id":"339775","type":"Feature","properties":{"ident":"JP-1102","type":"heliport","name":"Aeon Tower Helipad","continent":"AS","iso_country":"JP","iso_region":"JP-12","municipality":"Chiba","scheduled_service":"no"},"geometry":{"type":"Point","coordinates":[140.03828,35.651468]}},{"id":"355874","type":"Feature","properties":{"ident":"JP-3085","type":"small_airport","name":"Agawa Skypark Gliderport","elevation_ft":"2703","continent":"AS","iso_country":"JP","iso_region":"JP-39","municipality":"Niyodogawa","scheduled_service":"no"},"geometry":{"type":"Point","coordinates":[133.06374,33.57508]}},{"id":"341558","type":"Feature","properties":{"ident":"JP-1562","type":"heliport","name":"Agora Shizuoka Helipad","continent":"AS","iso_country":"JP","iso_region":"JP-22","municipality":"Shizuoka","scheduled_service":"no"},"geometry":{"type":"Point","coordinates":[138.38491,34.97434]}},{"id":"30621","type":"Feature","properties":{"ident":"RORA","type":"small_airport","name":"Aguni Airport","elevation_ft":"38","continent":"AS","iso_country":"JP","iso_region":"JP-47","municipality":"Aguni","scheduled_service":"yes","gps_code":"RORA","iata_code":"AGJ","wikipedia_link":"https://en.wikipedia.org/wiki/Aguni_Airport"},"geometry":{"type":"Point","coordinates":[127.240335,26.592755]}},{"id":"337968","type":"Feature","properties":{"ident":"JP-0652","type":"heliport","name":"Aichi Children's Health and Medical Center Heliport","continent":"AS","iso_country":"JP","iso_region":"JP-23","municipality":"Obu","scheduled_service":"no"},"geometry":{"type":"Point","coordinates":[136.95318,34.99809]}},{"id":"343594","type":"Feature","properties":{"ident":"JP-1777","type":"heliport","name":"Aichi Credit Guarantee Association Helipad","continent":"AS","iso_country":"JP","iso_region":"JP-23","municipality":"Nagoya","scheduled_service":"no"},"geometry":{"type":"Point","coordinates":[136.88003,35.16947]}},{"id":"508670","type":"Feature","properties":{"ident":"JP-3189","type":"heliport","name":"Aichi Medical University Hospital Helipiort","elevation_ft":"203","continent":"AS","iso_country":"JP","iso_region":"JP-23","municipality":"Nagakute","scheduled_service":"no"},"geometry":{"type":"Point","coordinates":[137.04736,35.19185]}},{"id":"338839","type":"Feature","properties":{"ident":"JP-0897","type":"heliport","name":"Aichi Medical University Hospital Rooftop Helipad","continent":"AS","iso_country":"JP","iso_region":"JP-23","municipality":"Nagakute","scheduled_service":"no"},"geometry":{"type":"Point","coordinates":[137.04958,35.19162]}},{"id":"336750","type":"Feature","properties":{"ident":"JP-0482","type":"heliport","name":"Aichi Prefectural Police Heliport","continent":"AS","iso_country":"JP","iso_region":"JP-23","municipality":"Nagoya","scheduled_service":"no"},"geometry":{"type":"Point","coordinates":[136.901268,35.180991]}},{"id":"350264","type":"Feature","properties":{"ident":"JP-2714","type":"heliport","name":"Aichi Prefecture Self Government Center Helipad","continent":"AS","iso_country":"JP","iso_region":"JP-23","municipality":"Nagoya","scheduled_service":"no"},"geometry":{"type":"Point","coordinates":[136.90407,35.18137]}},{"id":"340475","type":"Feature","properties":{"ident":"JP-1158","type":"heliport","name":"Aichi University Nagoya Campus Helipad","continent":"AS","iso_country":"JP","iso_region":"JP-23","municipality":"Nagoya","scheduled_service":"no"},"geometry":{"type":"Point","coordinates":[136.885236,35.161735]}},{"id":"323777","type":"Feature","properties":{"ident":"JP-0010","type":"heliport","name":"Aidomari (Oshima) Heliport","elevation_ft":"364","continent":"AS","iso_country":"JP","iso_region":"JP-01","municipality":"Matsumae","scheduled_service":"no","keywords":"Aidomari, Oshima, Lighthouse"},"geometry":{"type":"Point","coordinates":[139.34505,41.49771]}},{"id":"323995","type":"Feature","properties":{"ident":"JP-0066","type":"heliport","name":"Aikoku Heliport","continent":"AS","iso_country":"JP","iso_region":"JP-01","municipality":"Kushiro","scheduled_service":"no","keywords":"Aikoku"},"geometry":{"type":"Point","coordinates":[144.401978,43.02899]}},{"id":"344476","type":"Feature","properties":{"ident":"JP-2070","type":"heliport","name":"Ainagata Heliport","continent":"AS","iso_country":"JP","iso_region":"JP-05","municipality":"Senboku","scheduled_service":"no"},"geometry":{"type":"Point","coordinates":[140.64232,39.75168]}},{"id":"514921","type":"Feature","properties":{"ident":"JP-3289","type":"heliport","name":"Ainomine Heliport","elevation_ft":"2533","continent":"AS","iso_country":"JP","iso_region":"JP-38","municipality":"Kumakogen","scheduled_service":"no"},"geometry":{"type":"Point","coordinates":[133.00295,33.69336]}},{"id":"575827","type":"Feature","properties":{"ident":"JP-3589","type":"heliport","name":"Ainoshima Heliport","elevation_ft":"292","continent":"AS","iso_country":"JP","iso_region":"JP-35","municipality":"Hagi","scheduled_service":"no"},"geometry":{"type":"Point","coordinates":[131.2845,34.50837]}},{"id":"340089","type":"Feature","properties":{"ident":"JP-1126","type":"heliport","name":"Ainoshima Heliport","continent":"AS","iso_country":"JP","iso_region":"JP-40","municipality":"Kitakyushu","scheduled_service":"no"},"geometry":{"type":"Point","coordinates":[130.82073,33.98779]}},{"id":"515652","type":"Feature","properties":{"ident":"JP-3354","type":"heliport","name":"Ainotani Heliport","elevation_ft":"813","continent":"AS","iso_country":"JP","iso_region":"JP-39","municipality":"Niyodogawa","scheduled_service":"no"},"geometry":{"type":"Point","coordinates":[133.15335,33.60678]}},{"id":"352280","type":"Feature","properties":{"ident":"JP-2877","type":"heliport","name":"Aioi Nissay Dowa Insurance Midosuji Building Helipad","continent":"AS","iso_country":"JP","iso_region":"JP-27","municipality":"Osaka","scheduled_service":"no"},"geometry":{"type":"Point","coordinates":[135.50136,34.68749]}},{"id":"343605","type":"Feature","properties":{"ident":"JP-1788","type":"heliport","name":"Aioi Nissay Dowa Insurance Nagoya Meieki Building Helipad","continent":"AS","iso_country":"JP","iso_region":"JP-23","municipality":"Nagoya","scheduled_service":"no"},"geometry":{"type":"Point","coordinates":[136.88144,35.17584]}},{"id":"343486","type":"Feature","properties":{"ident":"JP-1719","type":"heliport","name":"Aioi Nissay Dowa Insurance Phoenix Tower Helipad","elevation_ft":"522","continent":"AS","iso_country":"JP","iso_region":"JP-27","municipality":"Osaka","scheduled_service":"no"},"geometry":{"type":"Point","coordinates":[135.50129,34.69783]}},{"id":"349238","type":"Feature","properties":{"ident":"JP-2614","type":"heliport","name":"Air Residence Shin-Urayasu East Helipad","continent":"AS","iso_country":"JP","iso_region":"JP-12","municipality":"Urayasu","scheduled_service":"no"},"geometry":{"type":"Point","coordinates":[139.91392,35.64797]}},{"id":"349237","type":"Feature","properties":{"ident":"JP-2613","type":"heliport","name":"Air Residence Shin-Urayasu West Helipad","continent":"AS","iso_country":"JP","iso_region":"JP-12","municipality":"Urayasu","scheduled_service":"no"},"geometry":{"type":"Point","coordinates":[139.91336,35.64797]}},{"id":"336646","type":"Feature","properties":{"ident":"JP-0401","type":"small_airport","name":"Air Wing Motor Paraglider School Osato Landing Area","continent":"AS","iso_country":"JP","iso_region":"JP-11","municipality":"Kumagaya","scheduled_service":"no"},"geometry":{"type":"Point","coordinates":[139.43146,36.08799]}},{"id":"347816","type":"Feature","properties":{"ident":"JP-2496","type":"heliport","name":"Aisai Heliport","elevation_ft":"33","continent":"AS","iso_country":"JP","iso_region":"JP-23","municipality":"Aisai","scheduled_service":"no"},"geometry":{"type":"Point","coordinates":[136.68507,35.2283]}},{"id":"565350","type":"Feature","properties":{"ident":"JP-3498","type":"heliport","name":"Aisin Headquarters Heliport","continent":"AS","iso_country":"JP","iso_region":"JP-23","municipality":"Kariya","scheduled_service":"no"},"geometry":{"type":"Point","coordinates":[137.01544,34.99971]}},{"id":"565351","type":"Feature","properties":{"ident":"JP-3499","type":"heliport","name":"Aisin Technical Center Heliport","continent":"AS","iso_country":"JP","iso_region":"JP-23","municipality":"Kariya","scheduled_service":"no"},"geometry":{"type":"Point","coordinates":[137.016549,35.001342]}},{"id":"340762","type":"Feature","properties":{"ident":"JP-1314","type":"heliport","name":"Aizawa Hospital Heliport","continent":"AS","iso_country":"JP","iso_region":"JP-20","municipality":"Matsumoto","scheduled_service":"no"},"geometry":{"type":"Point","coordinates":[137.97398,36.226765]}},{"id":"336673","type":"Feature","properties":{"ident":"JP-0406","type":"heliport","name":"Aizu Central Heliport","continent":"AS","iso_country":"JP","iso_region":"JP-07","municipality":"Aizuwakamatsu","scheduled_service":"no"},"geometry":{"type":"Point","coordinates":[139.9442,37.51986]}},{"id":"563213","type":"Feature","properties":{"ident":"JP-3460","type":"heliport","name":"Aizu Medical Center Heliport","elevation_ft":"617","continent":"AS","iso_country":"JP","iso_region":"JP-07","municipality":"Aizuwakamatsu","scheduled_service":"no"},"geometry":{"type":"Point","coordinates":[139.90767,37.55352]}},{"id":"347401","type":"Feature","properties":{"ident":"JP-2425","type":"heliport","name":"Aizumisato Heliport","elevation_ft":"690","continent":"AS","iso_country":"JP","iso_region":"JP-07","municipality":"Aizumisato","scheduled_service":"no"},"geometry":{"type":"Point","coordinates":[139.857305,37.47301]}},{"id":"355867","type":"Feature","properties":{"ident":"JP-3078","type":"heliport","name":"Aizuwakamatsu Interchange Heliport","elevation_ft":"663","continent":"AS","iso_country":"JP","iso_region":"JP-07","municipality":"Aizuwakamatsu","scheduled_service":"no"},"geometry":{"type":"Point","coordinates":[139.91786,37.52588]}},{"id":"324529","type":"Feature","properties":{"ident":"JP-0082","type":"heliport","name":"Ajicho Helipad","continent":"AS","iso_country":"JP","iso_region":"JP-37","municipality":"Ajicho","scheduled_service":"no","keywords":"Ajicho, Oshima, Ooshima"},"geometry":{"type":"Point","coordinates":[134.106749,34.406633]}},{"id":"341207","type":"Feature","properties":{"ident":"JP-1419","type":"heliport","name":"Ajinomoto Group Osaka Building Helipad","continent":"AS","iso_country":"JP","iso_region":"JP-27","municipality":"Osaka","scheduled_service":"no"},"geometry":{"type":"Point","coordinates":[135.48534,34.68736]}},{"id":"340598","type":"Feature","properties":{"ident":"JP-1175","type":"heliport","name":"Akabira Sky Sports Airport","continent":"AS","iso_country":"JP","iso_region":"JP-01","municipality":"Akabira","scheduled_service":"no"},"geometry":{"type":"Point","coordinates":[141.99087,43.572838]}},{"id":"515336","type":"Feature","properties":{"ident":"JP-3344","type":"heliport","name":"Akada Heliport","elevation_ft":"535","continent":"AS","iso_country":"JP","iso_region":"JP-14","municipality":"Oi","scheduled_service":"no","keywords":"Shonannishi"},"geometry":{"type":"Point","coordinates":[139.182512,35.337888]}},{"id":"508695","type":"Feature","properties":{"ident":"JP-3213","type":"heliport","name":"Akadake Kosen Heliport","elevation_ft":"7345","continent":"AS","iso_country":"JP","iso_region":"JP-20","municipality":"Chino","scheduled_service":"no"},"geometry":{"type":"Point","coordinates":[138.36088,35.98539]}},{"id":"346309","type":"Feature","properties":{"ident":"JP-2361","type":"heliport","name":"Akagi Helicopter Yoshino Base","elevation_ft":"705","continent":"AS","iso_country":"JP","iso_region":"JP-29","municipality":"Higashiyoshino","scheduled_service":"no"},"geometry":{"type":"Point","coordinates":[135.9469,34.3833]}},{"id":"508689","type":"Feature","properties":{"ident":"JP-3208","type":"heliport","name":"Akagi Heliport","elevation_ft":"134","continent":"AS","iso_country":"JP","iso_region":"JP-30","municipality":"Shingu","scheduled_service":"no"},"geometry":{"type":"Point","coordinates":[135.85215,33.77864]}},{"id":"355864","type":"Feature","properties":{"ident":"JP-3075","type":"heliport","name":"Akagiyama Relay Station Heliport","elevation_ft":"2546","continent":"AS","iso_country":"JP","iso_region":"JP-10","municipality":"Maebashi","scheduled_service":"no"},"geometry":{"type":"Point","coordinates":[139.14503,36.49751]}},{"id":"340111","type":"Feature","properties":{"ident":"JP-1148","type":"heliport","name":"Akajima Heliport","continent":"AS","iso_country":"JP","iso_region":"JP-47","municipality":"Zamami","scheduled_service":"no"},"geometry":{"type":"Point","coordinates":[127.28595,26.19567]}},{"id":"508654","type":"Feature","properties":{"ident":"JP-3180","type":"heliport","name":"Akamatsu Heliport","elevation_ft":"489","continent":"AS","iso_country":"JP","iso_region":"JP-36","municipality":"Minami","scheduled_service":"no"},"geometry":{"type":"Point","coordinates":[134.49871,33.77523]}},{"id":"341435","type":"Feature","properties":{"ident":"JP-1525","type":"heliport","name":"Akasaka Civic Center Helipad","continent":"AS","iso_country":"JP","iso_region":"JP-13","municipality":"Minato, Tokyo","scheduled_service":"no"},"geometry":{"type":"Point","coordinates":[139.7318,35.67479]}},{"id":"341434","type":"Feature","properties":{"ident":"JP-1524","type":"heliport","name":"Akasaka Garden City Building Helipad","continent":"AS","iso_country":"JP","iso_region":"JP-13","municipality":"Minato, Tokyo","scheduled_service":"no"},"geometry":{"type":"Point","coordinates":[139.73155,35.67416]}},{"id":"341433","type":"Feature","properties":{"ident":"JP-1523","type":"heliport","name":"Akasaka Intercity AIR Helipad","continent":"AS","iso_country":"JP","iso_region":"JP-13","municipality":"Minato, Tokyo","scheduled_service":"no"},"geometry":{"type":"Point","coordinates":[139.74286,35.67005]}},{"id":"341425","type":"Feature","properties":{"ident":"JP-1521","type":"heliport","name":"Akasaka Intercity Helipad","continent":"AS","iso_country":"JP","iso_region":"JP-13","municipality":"Minato, Tokyo","scheduled_service":"no"},"geometry":{"type":"Point","coordinates":[139.74256,35.66898]}},{"id":"341436","type":"Feature","properties":{"ident":"JP-1526","type":"heliport","name":"Akasaka Park Building Helipad","continent":"AS","iso_country":"JP","iso_region":"JP-13","municipality":"Minato, Tokyo","scheduled_service":"no"},"geometry":{"type":"Point","coordinates":[139.73354,35.67218]}},{"id":"300123","type":"Feature","properties":{"ident":"RJ01","type":"heliport","name":"Akasaka Press Center (Hardy Barracks) Heliport","elevation_ft":"97","continent":"AS","iso_country":"JP","iso_region":"JP-13","municipality":"Minato, Tokyo","scheduled_service":"no","gps_code":"RJ01","keywords":"akasaka press center, hardy barracks, azabu"},"geometry":{"type":"Point","coordinates":[139.725556,35.663333]}},{"id":"351316","type":"Feature","properties":{"ident":"JP-2733","type":"heliport","name":"Akasaka Tower Residence Top of the Hill Heliport","continent":"AS","iso_country":"JP","iso_region":"JP-13","municipality":"Chiyoda, Tokyo","scheduled_service":"no"},"geometry":{"type":"Point","coordinates":[139.7386,35.66974]}},{"id":"346306","type":"Feature","properties":{"ident":"JP-2358","type":"heliport","name":"Akasaki Heliport","elevation_ft":"3","continent":"AS","iso_country":"JP","iso_region":"JP-42","municipality":"Sasebo","scheduled_service":"no"},"geometry":{"type":"Point","coordinates":[129.70602,33.14426]}},{"id":"515697","type":"Feature","properties":{"ident":"JP-3360","type":"heliport","name":"Akashi Kawasaki Heliport","elevation_ft":"45","continent":"AS","iso_country":"JP","iso_region":"JP-28","municipality":"Akashi","scheduled_service":"no"},"geometry":{"type":"Point","coordinates":[134.96565,34.65841]}},{"id":"554812","type":"Feature","properties":{"ident":"JP-3418","type":"heliport","name":"Akashibu Disaster Prevention Station Heliport","elevation_ft":"13","continent":"AS","iso_country":"JP","iso_region":"JP-15","municipality":"Niigata","scheduled_service":"no"},"geometry":{"type":"Point","coordinates":[139.05579,37.79004]}},{"id":"338596","type":"Feature","properties":{"ident":"JP-0865","type":"small_airport","name":"Akeno Auxiliary Airfield","continent":"AS","iso_country":"JP","iso_region":"JP-08","municipality":"Chikusei","scheduled_service":"no"},"geometry":{"type":"Point","coordinates":[140.00184,36.22588]}},{"id":"343357","type":"Feature","properties":{"ident":"JP-1688","type":"heliport","name":"Aki General Hospital Helipad","continent":"AS","iso_country":"JP","iso_region":"JP-39","municipality":"Aki","scheduled_service":"no"},"geometry":{"type":"Point","coordinates":[133.89724,33.50658]}},{"id":"336637","type":"Feature","properties":{"ident":"JP-0393","type":"heliport","name":"Akigase Heliport","continent":"AS","iso_country":"JP","iso_region":"JP-11","municipality":"Saitama","scheduled_service":"no"},"geometry":{"type":"Point","coordinates":[139.61389,35.83991]}},{"id":"334544","type":"Feature","properties":{"ident":"JP-0180","type":"heliport","name":"Akihabara Daibiru Building Helipad","continent":"AS","iso_country":"JP","iso_region":"JP-13","municipality":"Chiyoda, Tokyo","scheduled_service":"no"},"geometry":{"type":"Point","coordinates":[139.77208,35.69905]}},{"id":"334543","type":"Feature","properties":{"ident":"JP-0179","type":"heliport","name":"Akihabara UDX Building Helipad","continent":"AS","iso_country":"JP","iso_region":"JP-13","municipality":"Chiyoda, Tokyo","scheduled_service":"no","keywords":"akihabara udx, chiyoda, tokyo"},"geometry":{"type":"Point","coordinates":[139.77255,35.70006]}},{"id":"5611","type":"Feature","properties":{"ident":"RJSK","type":"medium_airport","name":"Akita Airport","elevation_ft":"313","continent":"AS","iso_country":"JP","iso_region":"JP-05","municipality":"Akita","scheduled_service":"yes","gps_code":"RJSK","iata_code":"AXT","wikipedia_link":"https://en.wikipedia.org/wiki/Akita_Airport"},"geometry":{"type":"Point","coordinates":[140.218994,39.615601]}},{"id":"344478","type":"Feature","properties":{"ident":"JP-2071","type":"heliport","name":"Akita Cerebrospinal and Cardiovascular Center Heliport","continent":"AS","iso_country":"JP","iso_region":"JP-05","municipality":"Akita","scheduled_service":"no"},"geometry":{"type":"Point","coordinates":[140.1272,39.72048]}},{"id":"344473","type":"Feature","properties":{"ident":"JP-2067","type":"heliport","name":"Akita Kosei Medical Center Heliport","continent":"AS","iso_country":"JP","iso_region":"JP-05","municipality":"Akita","scheduled_service":"no"},"geometry":{"type":"Point","coordinates":[140.09271,39.76654]}},{"id":"336749","type":"Feature","properties":{"ident":"JP-0481","type":"heliport","name":"Akita University Hospital Heliport","elevation_ft":"87","continent":"AS","iso_country":"JP","iso_region":"JP-05","municipality":"Akita","scheduled_service":"no"},"geometry":{"type":"Point","coordinates":[140.151075,39.729873]}},{"id":"338093","type":"Feature","properties":{"ident":"JP-0665","type":"heliport","name":"Akitakata Fire Heliport","continent":"AS","iso_country":"JP","iso_region":"JP-34","municipality":"Akitakata","scheduled_service":"no","home_link":"https://www.akitakata.jp/ja/shisei/section/119/shoubouchousha/u452/"},"geometry":{"type":"Point","coordinates":[132.69265,34.67033]}},{"id":"339345","type":"Feature","properties":{"ident":"JP-0990","type":"heliport","name":"Akiyama Heliport","continent":"AS","iso_country":"JP","iso_region":"JP-19","municipality":"Uenohara","scheduled_service":"no"},"geometry":{"type":"Point","coordinates":[139.1032,35.57755]}},{"id":"340099","type":"Feature","properties":{"ident":"JP-1136","type":"heliport","name":"Akusekijima Heliport","continent":"AS","iso_country":"JP","iso_region":"JP-46","municipality":"Toshima","scheduled_service":"no"},"geometry":{"type":"Point","coordinates":[129.60173,29.44813]}},{"id":"352468","type":"Feature","properties":{"ident":"JP-2959","type":"heliport","name":"Algrad Tower Shinsaibashi Heliport","continent":"AS","iso_country":"JP","iso_region":"JP-27","municipality":"Osaka","scheduled_service":"no"},"geometry":{"type":"Point","coordinates":[135.50504,34.67376]}},{"id":"341297","type":"Feature","properties":{"ident":"JP-1445","type":"heliport","name":"Aloft Osaka Dojima Helipad","continent":"AS","iso_country":"JP","iso_region":"JP-27","municipality":"Osaka","scheduled_service":"no"},"geometry":{"type":"Point","coordinates":[135.495148,34.695512]}},{"id":"349248","type":"Feature","properties":{"ident":"JP-2624","type":"heliport","name":"Alpen Marunouchi Tower Helipad","continent":"AS","iso_country":"JP","iso_region":"JP-23","municipality":"Nagoya","scheduled_service":"no"},"geometry":{"type":"Point","coordinates":[136.89715,35.176]}},{"id":"334766","type":"Feature","properties":{"ident":"JP-0326","type":"heliport","name":"Ama Municipal Heliport","continent":"AS","iso_country":"JP","iso_region":"JP-32","municipality":"Ama","scheduled_service":"no","keywords":"ama, amacho, oki"},"geometry":{"type":"Point","coordinates":[133.09593,36.10101]}},{"id":"347341","type":"Feature","properties":{"ident":"JP-2422","type":"heliport","name":"Amagasaki General Medical Center Heliport","continent":"AS","iso_country":"JP","iso_region":"JP-28","municipality":"Amagasaki","scheduled_service":"no"},"geometry":{"type":"Point","coordinates":[135.41373,34.73006]}},{"id":"564940","type":"Feature","properties":{"ident":"JP-3483","type":"heliport","name":"Amagi Highland Heliport","elevation_ft":"2241","continent":"AS","iso_country":"JP","iso_region":"JP-22","municipality":"Higashiizu","scheduled_service":"no"},"geometry":{"type":"Point","coordinates":[139.00446,34.83241]}},{"id":"5553","type":"Feature","properties":{"ident":"RJDA","type":"small_airport","name":"Amakusa Airport","elevation_ft":"340","continent":"AS","iso_country":"JP","iso_region":"JP-43","municipality":"Amakusa","scheduled_service":"yes","gps_code":"RJDA","iata_code":"AXJ","wikipedia_link":"https://en.wikipedia.org/wiki/Amakusa_Airfield"},"geometry":{"type":"Point","coordinates":[130.158997,32.482498]}},{"id":"5577","type":"Feature","properties":{"ident":"RJKA","type":"medium_airport","name":"Amami Airport","elevation_ft":"27","continent":"AS","iso_country":"JP","iso_region":"JP-46","municipality":"Amami","scheduled_service":"yes","gps_code":"RJKA","iata_code":"ASJ","wikipedia_link":"https://en.wikipedia.org/wiki/Amami_Airport"},"geometry":{"type":"Point","coordinates":[129.712997,28.430599]}},{"id":"338441","type":"Feature","properties":{"ident":"JP-0762","type":"heliport","name":"Amatsubo Heliport","continent":"AS","iso_country":"JP","iso_region":"JP-39","municipality":"Otoyo","scheduled_service":"no"},"geometry":{"type":"Point","coordinates":[133.6924,33.69229]}},{"id":"514697","type":"Feature","properties":{"ident":"JP-3283","type":"heliport","name":"Amaya Emergency Heliport","elevation_ft":"10","continent":"AS","iso_country":"JP","iso_region":"JP-38","municipality":"Matsuyama","scheduled_service":"no"},"geometry":{"type":"Point","coordinates":[132.5952,33.97577]}},{"id":"348190","type":"Feature","properties":{"ident":"JP-2519","type":"heliport","name":"Amehata Heliport","elevation_ft":"1493","continent":"AS","iso_country":"JP","iso_region":"JP-19","municipality":"Hayakawa","scheduled_service":"no"},"geometry":{"type":"Point","coordinates":[138.32924,35.40541]}},{"id":"347659","type":"Feature","properties":{"ident":"JP-2445","type":"heliport","name":"Amikake Tunnel East Entrance Helipad","continent":"AS","iso_country":"JP","iso_region":"JP-20","municipality":"Achi","scheduled_service":"no"},"geometry":{"type":"Point","coordinates":[137.71516,35.45093]}},{"id":"564929","type":"Feature","properties":{"ident":"JP-3480","type":"heliport","name":"ANA Crowne Plaza Hotel Grand Court Nagoya Heliport","continent":"AS","iso_country":"JP","iso_region":"JP-23","municipality":"Nagoya","scheduled_service":"no"},"geometry":{"type":"Point","coordinates":[136.89988,35.14271]}},{"id":"336777","type":"Feature","properties":{"ident":"JP-0508","type":"heliport","name":"Anjo Kosei Hospital Ground Helipad","continent":"AS","iso_country":"JP","iso_region":"JP-23","municipality":"Anjo","scheduled_service":"no"},"geometry":{"type":"Point","coordinates":[137.07729,34.94124]}},{"id":"336776","type":"Feature","properties":{"ident":"JP-0507","type":"heliport","name":"Anjo Kosei Hospital Rooftop Helipad","continent":"AS","iso_country":"JP","iso_region":"JP-23","municipality":"Anjo","scheduled_service":"no"},"geometry":{"type":"Point","coordinates":[137.07829,34.94]}},{"id":"347787","type":"Feature","properties":{"ident":"JP-2470","type":"heliport","name":"Anjo-misaki Community Park Emergency Heliport","elevation_ft":"33","continent":"AS","iso_country":"JP","iso_region":"JP-22","municipality":"Nishiizu","scheduled_service":"no"},"geometry":{"type":"Point","coordinates":[138.76963,34.77081]}},{"id":"349296","type":"Feature","properties":{"ident":"JP-2644","type":"heliport","name":"Anou Service Area Heliport","elevation_ft":"135","continent":"AS","iso_country":"JP","iso_region":"JP-24","municipality":"Tsu","scheduled_service":"no"},"geometry":{"type":"Point","coordinates":[136.47192,34.77747]}},{"id":"350336","type":"Feature","properties":{"ident":"JP-2722","type":"heliport","name":"Aoba-dori Plaza Helipad","continent":"AS","iso_country":"JP","iso_region":"JP-04","municipality":"Sendai","scheduled_service":"no"},"geometry":{"type":"Point","coordinates":[140.87782,38.26015]}},{"id":"343520","type":"Feature","properties":{"ident":"JP-1747","type":"heliport","name":"Aogashima Heliport","elevation_ft":"892","continent":"AS","iso_country":"JP","iso_region":"JP-13","municipality":"Aogashima","scheduled_service":"no"},"geometry":{"type":"Point","coordinates":[139.76037,32.46788]}},{"id":"334579","type":"Feature","properties":{"ident":"JP-0214","type":"heliport","name":"Aoi Tower Helipad","continent":"AS","iso_country":"JP","iso_region":"JP-22","municipality":"Shizuoka","scheduled_service":"no"},"geometry":{"type":"Point","coordinates":[138.386723,34.972384]}},{"id":"349303","type":"Feature","properties":{"ident":"JP-2651","type":"heliport","name":"Aokimura Furusato Park Heliport","elevation_ft":"1738","continent":"AS","iso_country":"JP","iso_region":"JP-20","municipality":"Aoki","scheduled_service":"no"},"geometry":{"type":"Point","coordinates":[138.14156,36.37173]}},{"id":"334595","type":"Feature","properties":{"ident":"JP-0230","type":"heliport","name":"Aomi Frontier Building Helipad","continent":"AS","iso_country":"JP","iso_region":"JP-13","municipality":"Koto, Tokyo","scheduled_service":"no"},"geometry":{"type":"Point","coordinates":[139.77838,35.61767]}},{"id":"5605","type":"Feature","properties":{"ident":"RJSA","type":"medium_airport","name":"Aomori Airport","elevation_ft":"664","continent":"AS","iso_country":"JP","iso_region":"JP-02","municipality":"Aomori","scheduled_service":"yes","gps_code":"RJSA","iata_code":"AOJ","wikipedia_link":"https://en.wikipedia.org/wiki/Aomori_Airport"},"geometry":{"type":"Point","coordinates":[140.690994,40.734699]}},{"id":"340512","type":"Feature","properties":{"ident":"JP-1169","type":"heliport","name":"Aomori Prefectural Central Hospital Heliport","continent":"AS","iso_country":"JP","iso_region":"JP-02","municipality":"Aomori","scheduled_service":"no"},"geometry":{"type":"Point","coordinates":[140.79493,40.83106]}},{"id":"344479","type":"Feature","properties":{"ident":"JP-2072","type":"heliport","name":"Aomori Prefectural Government Office Heliport","continent":"AS","iso_country":"JP","iso_region":"JP-02","municipality":"Aomori","scheduled_service":"no"},"geometry":{"type":"Point","coordinates":[140.74152,40.82537]}},{"id":"339704","type":"Feature","properties":{"ident":"JP-1066","type":"heliport","name":"Aomori Senior Hospital Heliport","continent":"AS","iso_country":"JP","iso_region":"JP-02","municipality":"Hachinohe","scheduled_service":"no"},"geometry":{"type":"Point","coordinates":[141.54492,40.51679]}},{"id":"334518","type":"Feature","properties":{"ident":"JP-0154","type":"heliport","name":"Aoyama Park Tower Helipad","continent":"AS","iso_country":"JP","iso_region":"JP-13","municipality":"Shibuya, Tokyo","scheduled_service":"no"},"geometry":{"type":"Point","coordinates":[139.70501,35.66215]}},{"id":"563537","type":"Feature","properties":{"ident":"JP-3466","type":"heliport","name":"APA Hotel & Resort Ryogoku Station Tower Heliport","continent":"AS","iso_country":"JP","iso_region":"JP-13","municipality":"Sumida, Tokyo","scheduled_service":"no"},"geometry":{"type":"Point","coordinates":[139.79436,35.69749]}},{"id":"515727","type":"Feature","properties":{"ident":"JP-3374","type":"heliport","name":"APA Hotel & Resort Yokohama Bay Tower Helipad","continent":"AS","iso_country":"JP","iso_region":"JP-14","municipality":"Yokohama","scheduled_service":"no"},"geometry":{"type":"Point","coordinates":[139.63808,35.45191]}},{"id":"343895","type":"Feature","properties":{"ident":"JP-1917","type":"heliport","name":"APA Hotel Osaka Higobashi Ekimae Helipad","continent":"AS","iso_country":"JP","iso_region":"JP-27","municipality":"Osaka","scheduled_service":"no"},"geometry":{"type":"Point","coordinates":[135.49534,34.69209]}},{"id":"352393","type":"Feature","properties":{"ident":"JP-2910","type":"heliport","name":"APA Hotel Resort Midosuji Honmachi Helipad","continent":"AS","iso_country":"JP","iso_region":"JP-27","municipality":"Osaka","scheduled_service":"no"},"geometry":{"type":"Point","coordinates":[135.49989,34.68245]}},{"id":"352171","type":"Feature","properties":{"ident":"JP-2863","type":"heliport","name":"APA Hotel Shin-Osaka Station Tower Helipad","continent":"AS","iso_country":"JP","iso_region":"JP-27","municipality":"Osaka","scheduled_service":"no"},"geometry":{"type":"Point","coordinates":[135.49771,34.73057]}},{"id":"352015","type":"Feature","properties":{"ident":"JP-2807","type":"heliport","name":"APA Villa Hotel Osaka Tanimachi Yonchome-Ekimae Helipad","continent":"AS","iso_country":"JP","iso_region":"JP-27","municipality":"Osaka","scheduled_service":"no"},"geometry":{"type":"Point","coordinates":[135.51657,34.68072]}},{"id":"341356","type":"Feature","properties":{"ident":"JP-1499","type":"heliport","name":"Applause Tower (Hankyu Chayamachi Building) Helipad","continent":"AS","iso_country":"JP","iso_region":"JP-27","municipality":"Osaka","scheduled_service":"no"},"geometry":{"type":"Point","coordinates":[135.49857,34.70849]}},{"id":"337527","type":"Feature","properties":{"ident":"JP-0567","type":"heliport","name":"Apple Tower Tokyo Canal Court Helipad","continent":"AS","iso_country":"JP","iso_region":"JP-13","municipality":"Koto, Tokyo","scheduled_service":"no"},"geometry":{"type":"Point","coordinates":[139.805122,35.64661]}},{"id":"341303","type":"Feature","properties":{"ident":"JP-1451","type":"heliport","name":"Aqua Dojima East Helipad","continent":"AS","iso_country":"JP","iso_region":"JP-27","municipality":"Osaka","scheduled_service":"no"},"geometry":{"type":"Point","coordinates":[135.49701,34.69526]}},{"id":"341302","type":"Feature","properties":{"ident":"JP-1450","type":"heliport","name":"Aqua Dojima West Helipad","continent":"AS","iso_country":"JP","iso_region":"JP-27","municipality":"Osaka","scheduled_service":"no"},"geometry":{"type":"Point","coordinates":[135.49623,34.69514]}},{"id":"349239","type":"Feature","properties":{"ident":"JP-2615","type":"heliport","name":"Aqua Town Nayabashi Office Building Helipad","continent":"AS","iso_country":"JP","iso_region":"JP-23","municipality":"Nagoya","scheduled_service":"no"},"geometry":{"type":"Point","coordinates":[136.89111,35.16887]}},{"id":"515709","type":"Feature","properties":{"ident":"JP-3365","type":"heliport","name":"Aquaria Tower Yokohama Helipad","continent":"AS","iso_country":"JP","iso_region":"JP-14","municipality":"Yokohama","scheduled_service":"no"},"geometry":{"type":"Point","coordinates":[139.64424,35.47956]}},{"id":"340119","type":"Feature","properties":{"ident":"JP-1156","type":"heliport","name":"Aragusuku Heliport","continent":"AS","iso_country":"JP","iso_region":"JP-47","municipality":"Taketomi","scheduled_service":"no"},"geometry":{"type":"Point","coordinates":[123.94066,24.23367]}},{"id":"337608","type":"Feature","properties":{"ident":"JP-0602","type":"small_airport","name":"Arakawa Airstrip","continent":"AS","iso_country":"JP","iso_region":"JP-05","municipality":"Kosaka","scheduled_service":"no","keywords":"Kosaka Airstrip"},"geometry":{"type":"Point","coordinates":[140.735114,40.370013]}},{"id":"345960","type":"Feature","properties":{"ident":"JP-2319","type":"heliport","name":"Araki Heliport","elevation_ft":"593","continent":"AS","iso_country":"JP","iso_region":"JP-24","municipality":"Iga","scheduled_service":"no"},"geometry":{"type":"Point","coordinates":[136.16478,34.75983]}},{"id":"542343","type":"Feature","properties":{"ident":"JP-3409","type":"heliport","name":"Arca Central Helipad","continent":"AS","iso_country":"JP","iso_region":"JP-13","municipality":"Sumida, Tokyo","scheduled_service":"no"},"geometry":{"type":"Point","coordinates":[139.811397,35.69731]}},{"id":"542347","type":"Feature","properties":{"ident":"JP-3411","type":"heliport","name":"Arca East Helipad","continent":"AS","iso_country":"JP","iso_region":"JP-13","municipality":"Sumida","scheduled_service":"no"},"geometry":{"type":"Point","coordinates":[139.814404,35.697462]}},{"id":"542344","type":"Feature","properties":{"ident":"JP-3410","type":"heliport","name":"Arca Kit Helipad","continent":"AS","iso_country":"JP","iso_region":"JP-13","municipality":"Sumida, Tokyo","scheduled_service":"no"},"geometry":{"type":"Point","coordinates":[139.812108,35.697423]}},{"id":"542340","type":"Feature","properties":{"ident":"JP-3406","type":"heliport","name":"Arca West Helipad","continent":"AS","iso_country":"JP","iso_region":"JP-13","municipality":"Sumida, Tokyo","scheduled_service":"no"},"geometry":{"type":"Point","coordinates":[139.809568,35.697212]}},{"id":"338880","type":"Feature","properties":{"ident":"JP-0917","type":"heliport","name":"AReA Shinagawa Helipad","continent":"AS","iso_country":"JP","iso_region":"JP-13","municipality":"Minato, Tokyo","scheduled_service":"no"},"geometry":{"type":"Point","coordinates":[139.74116,35.63001]}},{"id":"338352","type":"Feature","properties":{"ident":"JP-0758","type":"heliport","name":"Arena Tower Helipad","continent":"AS","iso_country":"JP","iso_region":"JP-14","municipality":"Yokohama","scheduled_service":"no"},"geometry":{"type":"Point","coordinates":[139.62196,35.51165]}},{"id":"569178","type":"Feature","properties":{"ident":"JP-3541","type":"heliport","name":"ARIAir Iida City Temporary Heliport","elevation_ft":"1348","continent":"AS","iso_country":"JP","iso_region":"JP-20","municipality":"Iida","scheduled_service":"no"},"geometry":{"type":"Point","coordinates":[137.87107,35.52558]}},{"id":"569175","type":"Feature","properties":{"ident":"JP-3538","type":"heliport","name":"ARIAir Marina City Wakayama Heliport","elevation_ft":"7","continent":"AS","iso_country":"JP","iso_region":"JP-30","municipality":"Wakayama","scheduled_service":"no"},"geometry":{"type":"Point","coordinates":[135.18303,34.15332]}},{"id":"565358","type":"Feature","properties":{"ident":"JP-3503","type":"heliport","name":"ARIAir Mount Fuji-Oshino Heliport","elevation_ft":"3081","continent":"AS","iso_country":"JP","iso_region":"JP-35","municipality":"Oshino","scheduled_service":"no"},"geometry":{"type":"Point","coordinates":[138.85038,35.45771]}},{"id":"337537","type":"Feature","properties":{"ident":"JP-0577","type":"heliport","name":"Ariake Central Tower Helipad","continent":"AS","iso_country":"JP","iso_region":"JP-13","municipality":"Koto, Tokyo","scheduled_service":"no"},"geometry":{"type":"Point","coordinates":[139.793573,35.632129]}},{"id":"508961","type":"Feature","properties":{"ident":"JP-3257","type":"heliport","name":"Ariake Heliport","elevation_ft":"4528","continent":"AS","iso_country":"JP","iso_region":"JP-20","municipality":"Azumino","scheduled_service":"no"},"geometry":{"type":"Point","coordinates":[137.75077,36.38757]}},{"id":"337538","type":"Feature","properties":{"ident":"JP-0578","type":"heliport","name":"Ariake Park Building Helipad","continent":"AS","iso_country":"JP","iso_region":"JP-13","municipality":"Koto, Tokyo","scheduled_service":"no"},"geometry":{"type":"Point","coordinates":[139.792805,35.632353]}},{"id":"336682","type":"Feature","properties":{"ident":"JP-0415","type":"heliport","name":"Aridagawa Emergency Station Helipad","continent":"AS","iso_country":"JP","iso_region":"JP-30","municipality":"Aridagawa","scheduled_service":"no"},"geometry":{"type":"Point","coordinates":[135.19766,34.07057]}},{"id":"349016","type":"Feature","properties":{"ident":"JP-2561","type":"heliport","name":"Aridagawa Fire Department Heliport","elevation_ft":"205","continent":"AS","iso_country":"JP","iso_region":"JP-30","municipality":"Aridagawa","scheduled_service":"no"},"geometry":{"type":"Point","coordinates":[135.23945,34.05362]}},{"id":"536133","type":"Feature","properties":{"ident":"JP-3396","type":"heliport","name":"Arikawa Heliport","elevation_ft":"88","continent":"AS","iso_country":"JP","iso_region":"JP-42","municipality":"Shinkamigoto","scheduled_service":"no"},"geometry":{"type":"Point","coordinates":[129.12297,32.98627]}},{"id":"508713","type":"Feature","properties":{"ident":"JP-3228","type":"heliport","name":"Arila Amakusa Heliport (MetaPort)","elevation_ft":"13","continent":"AS","iso_country":"JP","iso_region":"JP-43","municipality":"Amakusa","scheduled_service":"no"},"geometry":{"type":"Point","coordinates":[130.201119,32.450372]}},{"id":"508712","type":"Feature","properties":{"ident":"JP-3227","type":"heliport","name":"Arila Amanemu Heliport (MetaPort)","elevation_ft":"92","continent":"AS","iso_country":"JP","iso_region":"JP-24","municipality":"Shima","scheduled_service":"no"},"geometry":{"type":"Point","coordinates":[136.79202,34.29876]}},{"id":"508714","type":"Feature","properties":{"ident":"JP-3229","type":"heliport","name":"Arila Kongoboji Heliport (MetaPort)","elevation_ft":"3133","continent":"AS","iso_country":"JP","iso_region":"JP-44","municipality":"Kokonoe","scheduled_service":"no"},"geometry":{"type":"Point","coordinates":[131.185408,33.074621]}},{"id":"508709","type":"Feature","properties":{"ident":"JP-3226","type":"heliport","name":"Arila Wakayama Iwade Heliport (MetaPort)","elevation_ft":"85","continent":"AS","iso_country":"JP","iso_region":"JP-30","municipality":"Iwade","scheduled_service":"no"},"geometry":{"type":"Point","coordinates":[135.30908,34.267264]}},{"id":"348194","type":"Feature","properties":{"ident":"JP-2523","type":"heliport","name":"Arima Heliport","elevation_ft":"23","continent":"AS","iso_country":"JP","iso_region":"JP-24","municipality":"Kumano","scheduled_service":"no"},"geometry":{"type":"Point","coordinates":[136.07781,33.86963]}},{"id":"340889","type":"Feature","properties":{"ident":"JP-1353","type":"heliport","name":"Arimine Dam Heliport","continent":"AS","iso_country":"JP","iso_region":"JP-16","municipality":"Toyama","scheduled_service":"no"},"geometry":{"type":"Point","coordinates":[137.456337,36.490516]}},{"id":"334549","type":"Feature","properties":{"ident":"JP-0185","type":"heliport","name":"Ark Hills Heliport","continent":"AS","iso_country":"JP","iso_region":"JP-13","municipality":"Minato, Tokyo","scheduled_service":"no"},"geometry":{"type":"Point","coordinates":[139.74001,35.66713]}},{"id":"343505","type":"Feature","properties":{"ident":"JP-1738","type":"heliport","name":"Ark Hills Sengokuyama Mori Tower Helipad","elevation_ft":"793","continent":"AS","iso_country":"JP","iso_region":"JP-13","municipality":"Minato, Tokyo","scheduled_service":"no"},"geometry":{"type":"Point","coordinates":[139.7418,35.66355]}},{"id":"334491","type":"Feature","properties":{"ident":"JP-0127","type":"heliport","name":"Art Village Osaki Central Tower Helipad","continent":"AS","iso_country":"JP","iso_region":"JP-13","municipality":"Shinagawa, Tokyo","scheduled_service":"no"},"geometry":{"type":"Point","coordinates":[139.727334,35.622389]}},{"id":"336935","type":"Feature","properties":{"ident":"JP-0542","type":"heliport","name":"Arte Yokohama Helipad","continent":"AS","iso_country":"JP","iso_region":"JP-14","municipality":"Yokohama","scheduled_service":"no"},"geometry":{"type":"Point","coordinates":[139.631928,35.468063]}},{"id":"341293","type":"Feature","properties":{"ident":"JP-1441","type":"heliport","name":"Asahi Broadcasting Helipad","continent":"AS","iso_country":"JP","iso_region":"JP-27","municipality":"Osaka","scheduled_service":"no"},"geometry":{"type":"Point","coordinates":[135.48812,34.69387]}},{"id":"338000","type":"Feature","properties":{"ident":"JP-0658","type":"heliport","name":"Asahi Central General Hospital Ground Helipad","continent":"AS","iso_country":"JP","iso_region":"JP-12","municipality":"Asahi","scheduled_service":"no"},"geometry":{"type":"Point","coordinates":[140.66621,35.71825]}},{"id":"338001","type":"Feature","properties":{"ident":"JP-0659","type":"heliport","name":"Asahi Central General Hospital Rooftop Helipad","continent":"AS","iso_country":"JP","iso_region":"JP-12","municipality":"Asahi","scheduled_service":"no"},"geometry":{"type":"Point","coordinates":[140.663559,35.717746]}},{"id":"341455","type":"Feature","properties":{"ident":"JP-1537","type":"heliport","name":"Asahi Kawagoe Heliport","continent":"AS","iso_country":"JP","iso_region":"JP-11","municipality":"Kawagoe","scheduled_service":"no"},"geometry":{"type":"Point","coordinates":[139.46721,35.95838]}},{"id":"337998","type":"Feature","properties":{"ident":"JP-0656","type":"heliport","name":"Asahi Shinbun Helipad","elevation_ft":"1","continent":"AS","iso_country":"JP","iso_region":"JP-13","municipality":"Chuo, Tokyo","scheduled_service":"no"},"geometry":{"type":"Point","coordinates":[139.76658,35.66411]}},{"id":"5558","type":"Feature","properties":{"ident":"RJEC","type":"medium_airport","name":"Asahikawa Airport","elevation_ft":"721","continent":"AS","iso_country":"JP","iso_region":"JP-01","municipality":"Higashikagura","scheduled_service":"yes","gps_code":"RJEC","iata_code":"AKJ","wikipedia_link":"https://en.wikipedia.org/wiki/Asahikawa_Airport"},"geometry":{"type":"Point","coordinates":[142.447006,43.670799]}},{"id":"340599","type":"Feature","properties":{"ident":"JP-1176","type":"heliport","name":"Asahikawa Emergency Heliport","continent":"AS","iso_country":"JP","iso_region":"JP-01","municipality":"Asahikawa","scheduled_service":"no"},"geometry":{"type":"Point","coordinates":[142.41347,43.728398]}},{"id":"323780","type":"Feature","properties":{"ident":"JP-0012","type":"heliport","name":"Asahikawa Medical University Hospital Helipad","continent":"AS","iso_country":"JP","iso_region":"JP-01","municipality":"Asahikawa","scheduled_service":"no"},"geometry":{"type":"Point","coordinates":[142.38374,43.72755]}},{"id":"341847","type":"Feature","properties":{"ident":"JP-1584","type":"heliport","name":"Asaka Parking Area Southbound Helipad","elevation_ft":"830","continent":"AS","iso_country":"JP","iso_region":"JP-07","municipality":"Koriyama","scheduled_service":"no"},"geometry":{"type":"Point","coordinates":[140.322309,37.354659]}},{"id":"343590","type":"Feature","properties":{"ident":"JP-1773","type":"heliport","name":"Asakusa Post Office Helipad","continent":"AS","iso_country":"JP","iso_region":"JP-13","municipality":"Taito, Tokyo","scheduled_service":"no"},"geometry":{"type":"Point","coordinates":[139.79104,35.70997]}},{"id":"347824","type":"Feature","properties":{"ident":"JP-2503","type":"heliport","name":"Asano Park Heliport","elevation_ft":"443","continent":"AS","iso_country":"JP","iso_region":"JP-21","municipality":"Toki","scheduled_service":"no"},"geometry":{"type":"Point","coordinates":[137.19388,35.363]}},{"id":"336611","type":"Feature","properties":{"ident":"JP-0370","type":"heliport","name":"Ashidagawa Heliport","elevation_ft":"13","continent":"AS","iso_country":"JP","iso_region":"JP-34","municipality":"Fukuyama","scheduled_service":"no","keywords":""},"geometry":{"type":"Point","coordinates":[133.383878,34.455213]}},{"id":"505164","type":"Feature","properties":{"ident":"JP-3155","type":"heliport","name":"Ashigarakami Hospital Heliport","continent":"AS","iso_country":"JP","iso_region":"JP-14","municipality":"Matsuda","scheduled_service":"no"},"geometry":{"type":"Point","coordinates":[139.14289,35.34552]}},{"id":"334645","type":"Feature","properties":{"ident":"JP-0280","type":"heliport","name":"Ashinoko Heliport","continent":"AS","iso_country":"JP","iso_region":"JP-14","municipality":"Hakone","scheduled_service":"no"},"geometry":{"type":"Point","coordinates":[138.99521,35.19584]}},{"id":"348218","type":"Feature","properties":{"ident":"JP-2530","type":"heliport","name":"Ashiyasuashikura Helipad","elevation_ft":"4439","continent":"AS","iso_country":"JP","iso_region":"JP-19","municipality":"Minami-Alps","scheduled_service":"no"},"geometry":{"type":"Point","coordinates":[138.35149,35.63621]}},{"id":"339677","type":"Feature","properties":{"ident":"JP-1041","type":"heliport","name":"Ashoro Heliport","continent":"AS","iso_country":"JP","iso_region":"JP-01","municipality":"Ashoro","scheduled_service":"no"},"geometry":{"type":"Point","coordinates":[143.5037,43.24034]}},{"id":"343476","type":"Feature","properties":{"ident":"JP-1712","type":"small_airport","name":"Ashoro Meto Airfield","elevation_ft":"797","continent":"AS","iso_country":"JP","iso_region":"JP-01","municipality":"Ashoro","scheduled_service":"no"},"geometry":{"type":"Point","coordinates":[143.43245,43.31811]}},{"id":"352739","type":"Feature","properties":{"ident":"JP-3008","type":"heliport","name":"Asia-Pacific Trade Center Heliport","continent":"AS","iso_country":"JP","iso_region":"JP-27","municipality":"Osaka","scheduled_service":"no"},"geometry":{"type":"Point","coordinates":[135.41142,34.63863]}},{"id":"350159","type":"Feature","properties":{"ident":"JP-2687","type":"heliport","name":"Asics Japan Headquarters Heliport","continent":"AS","iso_country":"JP","iso_region":"JP-13","municipality":"Koto, Tokyo","scheduled_service":"no"},"geometry":{"type":"Point","coordinates":[139.82953,35.66859]}},{"id":"336736","type":"Feature","properties":{"ident":"JP-0468","type":"small_airport","name":"Aso Auxiliary Airfield","continent":"AS","iso_country":"JP","iso_region":"JP-43","municipality":"Aso","scheduled_service":"no"},"geometry":{"type":"Point","coordinates":[131.10005,33.00891]}},{"id":"340690","type":"Feature","properties":{"ident":"JP-1244","type":"heliport","name":"Aso Heliport","continent":"AS","iso_country":"JP","iso_region":"JP-43","municipality":"Aso","scheduled_service":"no"},"geometry":{"type":"Point","coordinates":[131.098983,33.012216]}},{"id":"344600","type":"Feature","properties":{"ident":"JP-2180","type":"heliport","name":"Asterio Kitahorie Building Helipad","continent":"AS","iso_country":"JP","iso_region":"JP-27","municipality":"Osaka","scheduled_service":"no"},"geometry":{"type":"Point","coordinates":[135.49701,34.67304]}},{"id":"351413","type":"Feature","properties":{"ident":"JP-2757","type":"heliport","name":"Asuta Plaza West Helipad","continent":"AS","iso_country":"JP","iso_region":"JP-28","municipality":"Kobe","scheduled_service":"no"},"geometry":{"type":"Point","coordinates":[135.14488,34.65482]}},{"id":"351411","type":"Feature","properties":{"ident":"JP-2755","type":"heliport","name":"Asuta Shinnagata Towers Helipad","continent":"AS","iso_country":"JP","iso_region":"JP-28","municipality":"Kobe","scheduled_service":"no"},"geometry":{"type":"Point","coordinates":[135.1475,34.6536]}},{"id":"353140","type":"Feature","properties":{"ident":"JP-3019","type":"heliport","name":"ATLA Niijima Heliport","elevation_ft":"174","continent":"AS","iso_country":"JP","iso_region":"JP-13","municipality":"Niijima","scheduled_service":"no"},"geometry":{"type":"Point","coordinates":[139.25507,34.36336]}},{"id":"338274","type":"Feature","properties":{"ident":"JP-0734","type":"heliport","name":"Atlas Branz Tower Mikawashima Helipad","continent":"AS","iso_country":"JP","iso_region":"JP-13","municipality":"Arakawa, Tokyo","scheduled_service":"no"},"geometry":{"type":"Point","coordinates":[139.778302,35.732644]}},{"id":"347792","type":"Feature","properties":{"ident":"JP-2474","type":"heliport","name":"Atlas Tower Koishikawa Helipad","continent":"AS","iso_country":"JP","iso_region":"JP-13","municipality":"Bunkyo, Tokyo","scheduled_service":"no"},"geometry":{"type":"Point","coordinates":[139.75206,35.71145]}},{"id":"337505","type":"Feature","properties":{"ident":"JP-0553","type":"heliport","name":"Atre Kawasaki Helipad","continent":"AS","iso_country":"JP","iso_region":"JP-14","municipality":"Kawasaki","scheduled_service":"no"},"geometry":{"type":"Point","coordinates":[139.69781,35.53148]}},{"id":"344442","type":"Feature","properties":{"ident":"JP-2057","type":"heliport","name":"Atre Takeshiba Tower Helipad","continent":"AS","iso_country":"JP","iso_region":"JP-13","municipality":"Minato, Tokyo","scheduled_service":"no"},"geometry":{"type":"Point","coordinates":[139.76289,35.65598]}},{"id":"336036","type":"Feature","properties":{"ident":"JP-0348","type":"heliport","name":"Atr Meguro 2 Helipad","continent":"AS","iso_country":"JP","iso_region":"JP-13","municipality":"Shinagawa, Tokyo","scheduled_service":"no"},"geometry":{"type":"Point","coordinates":[139.7154,35.63349]}},{"id":"343480","type":"Feature","properties":{"ident":"JP-1716","type":"small_airport","name":"Atsuma Sky Park","elevation_ft":"3","continent":"AS","iso_country":"JP","iso_region":"JP-01","municipality":"Atsuma","scheduled_service":"no"},"geometry":{"type":"Point","coordinates":[141.87865,42.64362]}},{"id":"338350","type":"Feature","properties":{"ident":"JP-0756","type":"heliport","name":"Attend on Tower Helipad","continent":"AS","iso_country":"JP","iso_region":"JP-14","municipality":"Yokohama","scheduled_service":"no"},"geometry":{"type":"Point","coordinates":[139.611987,35.506904]}},{"id":"508720","type":"Feature","properties":{"ident":"JP-3235","type":"heliport","name":"Autopolis Heliport","elevation_ft":"2708","continent":"AS","iso_country":"JP","iso_region":"JP-44","municipality":"Hita","scheduled_service":"no"},"geometry":{"type":"Point","coordinates":[130.9728,33.03959]}},{"id":"344185","type":"Feature","properties":{"ident":"JP-1976","type":"heliport","name":"Aviation Equipment Research Institute Heliport","elevation_ft":"10","continent":"AS","iso_country":"JP","iso_region":"JP-08","municipality":"Ami","scheduled_service":"no"},"geometry":{"type":"Point","coordinates":[140.2513,36.03839]}},{"id":"355621","type":"Feature","properties":{"ident":"JP-3065","type":"heliport","name":"Awa City Hall Heliport","elevation_ft":"231","continent":"AS","iso_country":"JP","iso_region":"JP-36","municipality":"Awa","scheduled_service":"no"},"geometry":{"type":"Point","coordinates":[134.29601,34.10247]}},{"id":"339932","type":"Feature","properties":{"ident":"JP-1121","type":"heliport","name":"Awa Regional Medical Center Helipad","continent":"AS","iso_country":"JP","iso_region":"JP-12","municipality":"Tateyama","scheduled_service":"no"},"geometry":{"type":"Point","coordinates":[139.89275,35.00078]}},{"id":"508649","type":"Feature","properties":{"ident":"JP-3175","type":"heliport","name":"Awabara Weir Riverbed Kuji River Left Bank Heliport","elevation_ft":"28","continent":"AS","iso_country":"JP","iso_region":"JP-08","municipality":"Hitachiota","scheduled_service":"no"},"geometry":{"type":"Point","coordinates":[140.50242,36.49568]}},{"id":"339720","type":"Feature","properties":{"ident":"JP-1080","type":"heliport","name":"Awashima Heliport","elevation_ft":"3","continent":"AS","iso_country":"JP","iso_region":"JP-15","municipality":"Awashimaura","scheduled_service":"no"},"geometry":{"type":"Point","coordinates":[139.255402,38.468643]}},{"id":"343910","type":"Feature","properties":{"ident":"JP-1927","type":"heliport","name":"Awaza Rise Towers Flag 46 Helipad","continent":"AS","iso_country":"JP","iso_region":"JP-27","municipality":"Osaka","scheduled_service":"no"},"geometry":{"type":"Point","coordinates":[135.48389,34.68167]}},{"id":"343909","type":"Feature","properties":{"ident":"JP-1926","type":"heliport","name":"Awaza Rise Towers Mark 20 Helipad","continent":"AS","iso_country":"JP","iso_region":"JP-27","municipality":"Osaka","scheduled_service":"no"},"geometry":{"type":"Point","coordinates":[135.48447,34.68134]}},{"id":"342993","type":"Feature","properties":{"ident":"JP-1662","type":"heliport","name":"Ayabe Heliport","elevation_ft":"377","continent":"AS","iso_country":"JP","iso_region":"JP-26","municipality":"Ayabe","scheduled_service":"no"},"geometry":{"type":"Point","coordinates":[135.28504,35.3281]}},{"id":"346349","type":"Feature","properties":{"ident":"JP-2398","type":"heliport","name":"Babajima Heliport","elevation_ft":"2507","continent":"AS","iso_country":"JP","iso_region":"JP-16","municipality":"Kamiichi","scheduled_service":"no"},"geometry":{"type":"Point","coordinates":[137.5572,36.6471]}},{"id":"564941","type":"Feature","properties":{"ident":"JP-3484","type":"heliport","name":"Bagatelle Park Large Parking Lot Helipad","elevation_ft":"289","continent":"AS","iso_country":"JP","iso_region":"JP-22","municipality":"Kawazu","scheduled_service":"no"},"geometry":{"type":"Point","coordinates":[138.97969,34.75327]}},{"id":"344610","type":"Feature","properties":{"ident":"JP-2189","type":"heliport","name":"Banchu Shinkin Bank Sannomiya Branch Helipad","continent":"AS","iso_country":"JP","iso_region":"JP-28","municipality":"Kobe","scheduled_service":"no"},"geometry":{"type":"Point","coordinates":[135.19411,34.69079]}},{"id":"339696","type":"Feature","properties":{"ident":"JP-1059","type":"heliport","name":"Bandaisan 3D World Heliport","continent":"AS","iso_country":"JP","iso_region":"JP-07","municipality":"Kitashiobara","scheduled_service":"no"},"geometry":{"type":"Point","coordinates":[140.07845,37.65875]}},{"id":"334421","type":"Feature","properties":{"ident":"JP-0096","type":"small_airport","name":"Bando Auxiliary Airfield","continent":"AS","iso_country":"JP","iso_region":"JP-08","municipality":"Bando","scheduled_service":"no"},"geometry":{"type":"Point","coordinates":[139.873595,36.015713]}},{"id":"338243","type":"Feature","properties":{"ident":"JP-0703","type":"heliport","name":"Barque Helipad","continent":"AS","iso_country":"JP","iso_region":"JP-13","municipality":"Minato, Tokyo","scheduled_service":"no"},"geometry":{"type":"Point","coordinates":[139.758786,35.645361]}},{"id":"340997","type":"Feature","properties":{"ident":"JP-1382","type":"heliport","name":"Bay City Harumi Sky Link Tower Helipad","continent":"AS","iso_country":"JP","iso_region":"JP-13","municipality":"Chuo, Tokyo","scheduled_service":"no"},"geometry":{"type":"Point","coordinates":[139.778815,35.655803]}},{"id":"342560","type":"Feature","properties":{"ident":"JP-1639","type":"heliport","name":"Bay Crest Tower Helipad","elevation_ft":"487","continent":"AS","iso_country":"JP","iso_region":"JP-13","municipality":"Minato, Tokyo","scheduled_service":"no"},"geometry":{"type":"Point","coordinates":[139.75153,35.6317]}},{"id":"575360","type":"Feature","properties":{"ident":"JP-3554","type":"heliport","name":"Bay Mark Square City Court Tower Heliport","continent":"AS","iso_country":"JP","iso_region":"JP-12","municipality":"Chiba","scheduled_service":"no"},"geometry":{"type":"Point","coordinates":[140.0739,35.62742]}},{"id":"575361","type":"Feature","properties":{"ident":"JP-3555","type":"heliport","name":"Bay Mark Square Marina Court Tower Heliport","continent":"AS","iso_country":"JP","iso_region":"JP-12","municipality":"Chiba","scheduled_service":"no"},"geometry":{"type":"Point","coordinates":[140.07201,35.62646]}},{"id":"340994","type":"Feature","properties":{"ident":"JP-1379","type":"heliport","name":"Bayside Tower Harumi Helipad","continent":"AS","iso_country":"JP","iso_region":"JP-13","municipality":"Chuo, Tokyo","scheduled_service":"no"},"geometry":{"type":"Point","coordinates":[139.77788,35.65399]}},{"id":"341009","type":"Feature","properties":{"ident":"JP-1393","type":"heliport","name":"Bayz Tower & Garden Helipad","continent":"AS","iso_country":"JP","iso_region":"JP-13","municipality":"Koto, Tokyo","scheduled_service":"no"},"geometry":{"type":"Point","coordinates":[139.79412,35.64839]}},{"id":"351923","type":"Feature","properties":{"ident":"JP-2764","type":"heliport","name":"Be All Osaka Otemae Tower Heliport","continent":"AS","iso_country":"JP","iso_region":"JP-27","municipality":"Osaka","scheduled_service":"no"},"geometry":{"type":"Point","coordinates":[135.5164,34.68518]}},{"id":"337525","type":"Feature","properties":{"ident":"JP-0565","type":"heliport","name":"Beacon Tower Residence Helipad","continent":"AS","iso_country":"JP","iso_region":"JP-13","municipality":"Koto, Tokyo","scheduled_service":"no"},"geometry":{"type":"Point","coordinates":[139.804743,35.648523]}},{"id":"338445","type":"Feature","properties":{"ident":"JP-0766","type":"heliport","name":"Befu Heliport","continent":"AS","iso_country":"JP","iso_region":"JP-39","municipality":"Kami","scheduled_service":"no"},"geometry":{"type":"Point","coordinates":[134.03313,33.76151]}},{"id":"342898","type":"Feature","properties":{"ident":"JP-1652","type":"small_airport","name":"Bekanbe Airfield","elevation_ft":"390","continent":"AS","iso_country":"JP","iso_region":"JP-01","municipality":"Akkeshi","scheduled_service":"no","keywords":"Bekanbeushi"},"geometry":{"type":"Point","coordinates":[144.7079,43.32851]}},{"id":"343699","type":"Feature","properties":{"ident":"JP-1875","type":"heliport","name":"Belista Tower Fukushima Helipad","continent":"AS","iso_country":"JP","iso_region":"JP-27","municipality":"Osaka","scheduled_service":"no"},"geometry":{"type":"Point","coordinates":[135.48267,34.69356]}},{"id":"338343","type":"Feature","properties":{"ident":"JP-0750","type":"heliport","name":"Benex S-3 Helipad","continent":"AS","iso_country":"JP","iso_region":"JP-14","municipality":"Yokohama","scheduled_service":"no"},"geometry":{"type":"Point","coordinates":[139.616375,35.511598]}},{"id":"336719","type":"Feature","properties":{"ident":"JP-0451","type":"heliport","name":"Bentenshita Helipad","continent":"AS","iso_country":"JP","iso_region":"JP-12","municipality":"Kashiwa","scheduled_service":"no"},"geometry":{"type":"Point","coordinates":[140.02655,35.89993]}},{"id":"336771","type":"Feature","properties":{"ident":"JP-0503","type":"heliport","name":"Beppu Medical Center Heliport","continent":"AS","iso_country":"JP","iso_region":"JP-44","municipality":"Beppu","scheduled_service":"no"},"geometry":{"type":"Point","coordinates":[131.48596,33.33267]}},{"id":"336734","type":"Feature","properties":{"ident":"JP-0466","type":"small_airport","name":"Betsukai Flight Park","elevation_ft":"407","continent":"AS","iso_country":"JP","iso_region":"JP-01","municipality":"Betsukai","scheduled_service":"no","keywords":"Kenebetsu Airfield Number 1"},"geometry":{"type":"Point","coordinates":[144.78309,43.47484]}},{"id":"336742","type":"Feature","properties":{"ident":"JP-0474","type":"small_airport","name":"Biei Gliderport","continent":"AS","iso_country":"JP","iso_region":"JP-01","municipality":"Biei","scheduled_service":"no"},"geometry":{"type":"Point","coordinates":[142.56389,43.53125]}},{"id":"540868","type":"Feature","properties":{"ident":"JP-3403","type":"heliport","name":"Bifuka Heliport","elevation_ft":"236","continent":"AS","iso_country":"JP","iso_region":"JP-01","municipality":"Bifuka","scheduled_service":"no"},"geometry":{"type":"Point","coordinates":[142.336,44.49652]}},{"id":"343681","type":"Feature","properties":{"ident":"JP-1858","type":"heliport","name":"Bihoku Heliport","continent":"AS","iso_country":"JP","iso_region":"JP-34","municipality":"Shobara","scheduled_service":"no"},"geometry":{"type":"Point","coordinates":[133.00205,34.8428]}},{"id":"337772","type":"Feature","properties":{"ident":"JP-0626","type":"small_airport","name":"Bihoro Air Park","continent":"AS","iso_country":"JP","iso_region":"JP-01","municipality":"Bihoro","scheduled_service":"no"},"geometry":{"type":"Point","coordinates":[144.07879,43.81589]}},{"id":"575365","type":"Feature","properties":{"ident":"JP-3559","type":"heliport","name":"Bitchu-no-Uji Irodori-no-Yamazato Central Highlands Heliport","elevation_ft":"1086","continent":"AS","iso_country":"JP","iso_region":"JP-33","municipality":"Takahashi","scheduled_service":"no"},"geometry":{"type":"Point","coordinates":[133.49137,34.82735]}},{"id":"339123","type":"Feature","properties":{"ident":"JP-0956","type":"heliport","name":"Blue Harbor Tower Minatomirai Helipad","continent":"AS","iso_country":"JP","iso_region":"JP-14","municipality":"Yokohama","scheduled_service":"no"},"geometry":{"type":"Point","coordinates":[139.632787,35.463322]}},{"id":"343981","type":"Feature","properties":{"ident":"JP-1942","type":"heliport","name":"Bosai-no-Oka Park Heliport","elevation_ft":"179","continent":"AS","iso_country":"JP","iso_region":"JP-14","municipality":"Atsugi","scheduled_service":"no"},"geometry":{"type":"Point","coordinates":[139.3432,35.43493]}},{"id":"344767","type":"Feature","properties":{"ident":"JP-2231","type":"heliport","name":"Bozejima Heliport","continent":"AS","iso_country":"JP","iso_region":"JP-28","municipality":"Himeji","scheduled_service":"no"},"geometry":{"type":"Point","coordinates":[134.51549,34.64919]}},{"id":"352669","type":"Feature","properties":{"ident":"JP-3001","type":"heliport","name":"Branz Tennoji Yuhigaoka Helipad","continent":"AS","iso_country":"JP","iso_region":"JP-27","municipality":"Osaka","scheduled_service":"no"},"geometry":{"type":"Point","coordinates":[135.51327,34.65715]}},{"id":"352395","type":"Feature","properties":{"ident":"JP-2912","type":"heliport","name":"Branz Tower Midosuji Honmachi Heliport","continent":"AS","iso_country":"JP","iso_region":"JP-27","municipality":"Osaka","scheduled_service":"no"},"geometry":{"type":"Point","coordinates":[135.49939,34.68246]}},{"id":"341894","type":"Feature","properties":{"ident":"JP-1596","type":"heliport","name":"Branz Tower Minamihorie Helipad","continent":"AS","iso_country":"JP","iso_region":"JP-27","municipality":"Osaka","scheduled_service":"no"},"geometry":{"type":"Point","coordinates":[135.496728,34.670566]}},{"id":"339108","type":"Feature","properties":{"ident":"JP-0941","type":"heliport","name":"Branz Tower Minatomirai Helipad","continent":"AS","iso_country":"JP","iso_region":"JP-14","municipality":"Yokohama","scheduled_service":"no"},"geometry":{"type":"Point","coordinates":[139.634144,35.458643]}},{"id":"515183","type":"Feature","properties":{"ident":"JP-3334","type":"heliport","name":"Branz Tower Ofuna Helipad","continent":"AS","iso_country":"JP","iso_region":"JP-14","municipality":"Yokohama","scheduled_service":"no"},"geometry":{"type":"Point","coordinates":[139.53392,35.35572]}},{"id":"352405","type":"Feature","properties":{"ident":"JP-2920","type":"heliport","name":"Branz Tower Osaka Bingomachi Helipad","continent":"AS","iso_country":"JP","iso_region":"JP-27","municipality":"Osaka","scheduled_service":"no"},"geometry":{"type":"Point","coordinates":[135.50915,34.68533]}},{"id":"352464","type":"Feature","properties":{"ident":"JP-2956","type":"heliport","name":"Branz Tower Wellith Shinsaibashi North Heliport","continent":"AS","iso_country":"JP","iso_region":"JP-27","municipality":"Osaka","scheduled_service":"no"},"geometry":{"type":"Point","coordinates":[135.50599,34.67454]}},{"id":"352465","type":"Feature","properties":{"ident":"JP-2957","type":"heliport","name":"Branz Tower Wellith Shinsaibashi South Helipad","continent":"AS","iso_country":"JP","iso_region":"JP-27","municipality":"Osaka","scheduled_service":"no"},"geometry":{"type":"Point","coordinates":[135.505997,34.674096]}},{"id":"341316","type":"Feature","properties":{"ident":"JP-1464","type":"heliport","name":"Breeze Tower Heliport","continent":"AS","iso_country":"JP","iso_region":"JP-27","municipality":"Osaka","scheduled_service":"no"},"geometry":{"type":"Point","coordinates":[135.49386,34.69875]}},{"id":"338535","type":"Feature","properties":{"ident":"JP-0830","type":"heliport","name":"Bridgestone Helipad","continent":"AS","iso_country":"JP","iso_region":"JP-26","municipality":"Fukuchiyama","scheduled_service":"no"},"geometry":{"type":"Point","coordinates":[135.15921,35.28393]}},{"id":"344891","type":"Feature","properties":{"ident":"JP-2255","type":"heliport","name":"Brillia 1st Tower Helipad","continent":"AS","iso_country":"JP","iso_region":"JP-13","municipality":"Chuo, Tokyo","scheduled_service":"no"},"geometry":{"type":"Point","coordinates":[139.77694,35.66075]}},{"id":"334611","type":"Feature","properties":{"ident":"JP-0246","type":"heliport","name":"Brillia Ariake City Tower Helipad","continent":"AS","iso_country":"JP","iso_region":"JP-13","municipality":"Koto, Tokyo","scheduled_service":"no"},"geometry":{"type":"Point","coordinates":[139.78266,35.63591]}},{"id":"337519","type":"Feature","properties":{"ident":"JP-0559","type":"heliport","name":"Brillia Ariake Sky Tower Helipad","continent":"AS","iso_country":"JP","iso_region":"JP-13","municipality":"Koto, Tokyo","scheduled_service":"no"},"geometry":{"type":"Point","coordinates":[139.78635,35.63656]}},{"id":"339119","type":"Feature","properties":{"ident":"JP-0952","type":"heliport","name":"Brillia Grande Minatomirai Ocean Front Tower Helipad","continent":"AS","iso_country":"JP","iso_region":"JP-14","municipality":"Yokohama","scheduled_service":"no"},"geometry":{"type":"Point","coordinates":[139.63235,35.46174]}},{"id":"339120","type":"Feature","properties":{"ident":"JP-0953","type":"heliport","name":"Brillia Grande Minatomirai Park Front Tower Helipad","continent":"AS","iso_country":"JP","iso_region":"JP-14","municipality":"Yokohama","scheduled_service":"no"},"geometry":{"type":"Point","coordinates":[139.631633,35.46174]}},{"id":"337520","type":"Feature","properties":{"ident":"JP-0560","type":"heliport","name":"Brillia Mare Ariake Tower and Garden Helipad","continent":"AS","iso_country":"JP","iso_region":"JP-13","municipality":"Koto, Tokyo","scheduled_service":"no"},"geometry":{"type":"Point","coordinates":[139.787677,35.637209]}},{"id":"338513","type":"Feature","properties":{"ident":"JP-0808","type":"heliport","name":"Brillia Musashikosugi Helipad","continent":"AS","iso_country":"JP","iso_region":"JP-14","municipality":"Kawasaki","scheduled_service":"no"},"geometry":{"type":"Point","coordinates":[139.66187,35.57631]}},{"id":"344915","type":"Feature","properties":{"ident":"JP-2272","type":"heliport","name":"Brillia Tower Ikebukuro Helipad","continent":"AS","iso_country":"JP","iso_region":"JP-13","municipality":"Toshima, Tokyo","scheduled_service":"no"},"geometry":{"type":"Point","coordinates":[139.71667,35.72604]}},{"id":"336806","type":"Feature","properties":{"ident":"JP-0518","type":"heliport","name":"Brillia Tower Kawasaki Helipad","continent":"AS","iso_country":"JP","iso_region":"JP-14","municipality":"Kawasaki","scheduled_service":"no"},"geometry":{"type":"Point","coordinates":[139.693115,35.529022]}},{"id":"344404","type":"Feature","properties":{"ident":"JP-2026","type":"heliport","name":"Brillia Tower Kobe Motomachi Helipad","continent":"AS","iso_country":"JP","iso_region":"JP-28","municipality":"Kobe","scheduled_service":"no"},"geometry":{"type":"Point","coordinates":[135.18252,34.68988]}},{"id":"555118","type":"Feature","properties":{"ident":"JP-3442","type":"heliport","name":"Brillia Tower Seisekisakuragaoka Helipad","continent":"AS","iso_country":"JP","iso_region":"JP-13","municipality":"Tama","scheduled_service":"no"},"geometry":{"type":"Point","coordinates":[139.44928,35.65262]}},{"id":"347806","type":"Feature","properties":{"ident":"JP-2487","type":"heliport","name":"Brillia Tower Shinagawa Seaside Helipad","continent":"AS","iso_country":"JP","iso_region":"JP-13","municipality":"Shinagawa, Tokyo","scheduled_service":"no"},"geometry":{"type":"Point","coordinates":[139.75022,35.60989]}},{"id":"563533","type":"Feature","properties":{"ident":"JP-3465","type":"heliport","name":"Brillia Tower Tokyo Heliport","continent":"AS","iso_country":"JP","iso_region":"JP-13","municipality":"Sumida, Tokyo","scheduled_service":"no"},"geometry":{"type":"Point","coordinates":[139.816169,35.700579]}},{"id":"515181","type":"Feature","properties":{"ident":"JP-3333","type":"heliport","name":"Brillia Tower Yokohama Higashikanagawa Helipad","continent":"AS","iso_country":"JP","iso_region":"JP-14","municipality":"Yokohama","scheduled_service":"no"},"geometry":{"type":"Point","coordinates":[139.63372,35.47706]}},{"id":"334504","type":"Feature","properties":{"ident":"JP-0140","type":"heliport","name":"Brillia Towers Meguro North Residence Helipad","continent":"AS","iso_country":"JP","iso_region":"JP-13","municipality":"Shinagawa, Tokyo","scheduled_service":"no"},"geometry":{"type":"Point","coordinates":[139.71672,35.63315]}},{"id":"334503","type":"Feature","properties":{"ident":"JP-0139","type":"heliport","name":"Brillia Towers Meguro South Residence Helipad","continent":"AS","iso_country":"JP","iso_region":"JP-13","municipality":"Shinagawa, Tokyo","scheduled_service":"no"},"geometry":{"type":"Point","coordinates":[139.71688,35.63221]}},{"id":"336772","type":"Feature","properties":{"ident":"JP-0504","type":"heliport","name":"Buai-so Heliport","elevation_ft":"2267","continent":"AS","iso_country":"JP","iso_region":"JP-44","municipality":"Yufu","scheduled_service":"no"},"geometry":{"type":"Point","coordinates":[131.410875,33.315342]}},{"id":"342568","type":"Feature","properties":{"ident":"JP-1642","type":"heliport","name":"Bunkyo Green Court Helipad","elevation_ft":"472","continent":"AS","iso_country":"JP","iso_region":"JP-13","municipality":"Bunkyo, Tokyo","scheduled_service":"no","keywords":"Center Office"},"geometry":{"type":"Point","coordinates":[139.74737,35.72975]}},{"id":"352409","type":"Feature","properties":{"ident":"JP-2924","type":"heliport","name":"Business Innovation Center Osaka Helipad","continent":"AS","iso_country":"JP","iso_region":"JP-27","municipality":"Osaka","scheduled_service":"no"},"geometry":{"type":"Point","coordinates":[135.50927,34.68411]}},{"id":"349200","type":"Feature","properties":{"ident":"JP-2592","type":"heliport","name":"Camp Hansen Heliport","elevation_ft":"177","continent":"AS","iso_country":"JP","iso_region":"JP-47","municipality":"Kin","scheduled_service":"no"},"geometry":{"type":"Point","coordinates":[127.91607,26.46194]}},{"id":"5626","type":"Feature","properties":{"ident":"RJTR","type":"heliport","name":"Camp Zama Kastner Army Heliport","elevation_ft":"360","continent":"AS","iso_country":"JP","iso_region":"JP-14","municipality":"Sagamihara / Zama","scheduled_service":"no","gps_code":"RJTR","wikipedia_link":"https://en.wikipedia.org/wiki/Camp_Zama"},"geometry":{"type":"Point","coordinates":[139.393437,35.512771]}},{"id":"337526","type":"Feature","properties":{"ident":"JP-0566","type":"heliport","name":"Canal First Tower Helipad","continent":"AS","iso_country":"JP","iso_region":"JP-13","municipality":"Koto, Tokyo","scheduled_service":"no"},"geometry":{"type":"Point","coordinates":[139.805163,35.647351]}},{"id":"351408","type":"Feature","properties":{"ident":"JP-2754","type":"heliport","name":"Canal Town Center Helipad","continent":"AS","iso_country":"JP","iso_region":"JP-28","municipality":"Kobe","scheduled_service":"no"},"geometry":{"type":"Point","coordinates":[135.16383,34.66713]}},{"id":"351406","type":"Feature","properties":{"ident":"JP-2752","type":"heliport","name":"Canal Town East Helipad","continent":"AS","iso_country":"JP","iso_region":"JP-28","municipality":"Kobe","scheduled_service":"no"},"geometry":{"type":"Point","coordinates":[135.16557,34.66803]}},{"id":"351407","type":"Feature","properties":{"ident":"JP-2753","type":"heliport","name":"Canal Town West Helipad","continent":"AS","iso_country":"JP","iso_region":"JP-28","municipality":"Kobe","scheduled_service":"no"},"geometry":{"type":"Point","coordinates":[135.16129,34.66538]}},{"id":"341012","type":"Feature","properties":{"ident":"JP-1396","type":"heliport","name":"Canal Wharf Towers East Helipad","continent":"AS","iso_country":"JP","iso_region":"JP-13","municipality":"Koto, Tokyo","scheduled_service":"no"},"geometry":{"type":"Point","coordinates":[139.79442,35.6618]}},{"id":"341011","type":"Feature","properties":{"ident":"JP-1395","type":"heliport","name":"Canal Wharf Towers West Helipad","continent":"AS","iso_country":"JP","iso_region":"JP-13","municipality":"Koto, Tokyo","scheduled_service":"no"},"geometry":{"type":"Point","coordinates":[139.79342,35.66252]}},{"id":"352467","type":"Feature","properties":{"ident":"JP-2958","type":"heliport","name":"Candeo Hotels Osaka Nanba Helipad","continent":"AS","iso_country":"JP","iso_region":"JP-27","municipality":"Osaka","scheduled_service":"no"},"geometry":{"type":"Point","coordinates":[135.50558,34.6707]}},{"id":"343708","type":"Feature","properties":{"ident":"JP-1884","type":"heliport","name":"Canon Headquarters Building Helipad","continent":"AS","iso_country":"JP","iso_region":"JP-13","municipality":"Ota, Tokyo","scheduled_service":"no"},"geometry":{"type":"Point","coordinates":[139.68201,35.56629]}},{"id":"350155","type":"Feature","properties":{"ident":"JP-2685","type":"heliport","name":"Canon Marketing Japan Building Helipad","continent":"AS","iso_country":"JP","iso_region":"JP-12","municipality":"Chiba","scheduled_service":"no"},"geometry":{"type":"Point","coordinates":[140.040924,35.65452]}},{"id":"343707","type":"Feature","properties":{"ident":"JP-1883","type":"heliport","name":"Canon Research Building Helipad","continent":"AS","iso_country":"JP","iso_region":"JP-13","municipality":"Ota, Tokyo","scheduled_service":"no"},"geometry":{"type":"Point","coordinates":[139.68118,35.56536]}},{"id":"338869","type":"Feature","properties":{"ident":"JP-0907","type":"heliport","name":"Canon S Tower Helipad","continent":"AS","iso_country":"JP","iso_region":"JP-13","municipality":"Minato, Tokyo","scheduled_service":"no"},"geometry":{"type":"Point","coordinates":[139.740145,35.625598]}},{"id":"352407","type":"Feature","properties":{"ident":"JP-2922","type":"heliport","name":"Capcom Research and Development Building 2 Helipad","continent":"AS","iso_country":"JP","iso_region":"JP-27","municipality":"Osaka","scheduled_service":"no"},"geometry":{"type":"Point","coordinates":[135.51075,34.68768]}},{"id":"352406","type":"Feature","properties":{"ident":"JP-2921","type":"heliport","name":"Capcom Research and Development Building Helipad","continent":"AS","iso_country":"JP","iso_region":"JP-27","municipality":"Osaka","scheduled_service":"no"},"geometry":{"type":"Point","coordinates":[135.51079,34.68715]}},{"id":"323831","type":"Feature","properties":{"ident":"JP-0017","type":"heliport","name":"Cape Inaho Lighthouse Helipad","continent":"AS","iso_country":"JP","iso_region":"JP-01","municipality":"Okushiri","scheduled_service":"no","keywords":"Inaho-misaki Lighthouse, Okushiri"},"geometry":{"type":"Point","coordinates":[139.557239,42.247163]}},{"id":"344895","type":"Feature","properties":{"ident":"JP-2259","type":"heliport","name":"Capital Gate Place Tower Helipad","continent":"AS","iso_country":"JP","iso_region":"JP-13","municipality":"Chuo, Tokyo","scheduled_service":"no"},"geometry":{"type":"Point","coordinates":[139.78383,35.66425]}},{"id":"339035","type":"Feature","properties":{"ident":"JP-0934","type":"heliport","name":"Capital Mark Tower","continent":"AS","iso_country":"JP","iso_region":"JP-13","municipality":"Minato, Tokyo","scheduled_service":"no"},"geometry":{"type":"Point","coordinates":[139.74654,35.64122]}},{"id":"341400","type":"Feature","properties":{"ident":"JP-1513","type":"heliport","name":"Capitol Hotel Tokyu Helipad","continent":"AS","iso_country":"JP","iso_region":"JP-13","municipality":"Chiyoda, Tokyo","scheduled_service":"no"},"geometry":{"type":"Point","coordinates":[139.74101,35.67403]}},{"id":"338522","type":"Feature","properties":{"ident":"JP-0817","type":"heliport","name":"Carrot Tower Helipad","continent":"AS","iso_country":"JP","iso_region":"JP-13","municipality":"Setagaya, Tokyo","scheduled_service":"no"},"geometry":{"type":"Point","coordinates":[139.66926,35.64355]}},{"id":"343894","type":"Feature","properties":{"ident":"JP-1916","type":"heliport","name":"Castalia Tower Higobashi Helipad","continent":"AS","iso_country":"JP","iso_region":"JP-27","municipality":"Osaka","scheduled_service":"no"},"geometry":{"type":"Point","coordinates":[135.4946,34.69177]}},{"id":"343562","type":"Feature","properties":{"ident":"JP-1752","type":"heliport","name":"Catherina Mita Tower Helipad","elevation_ft":"532","continent":"AS","iso_country":"JP","iso_region":"JP-13","municipality":"Minato, Tokyo","scheduled_service":"no"},"geometry":{"type":"Point","coordinates":[139.75103,35.64766]}},{"id":"352158","type":"Feature","properties":{"ident":"JP-2850","type":"heliport","name":"Celestine Shiba Mitsui Building Helipad","continent":"AS","iso_country":"JP","iso_region":"JP-13","municipality":"Minato, Tokyo","scheduled_service":"no"},"geometry":{"type":"Point","coordinates":[139.7488,35.65081]}},{"id":"347652","type":"Feature","properties":{"ident":"JP-2438","type":"heliport","name":"Centirise Sakae Helipad","continent":"AS","iso_country":"JP","iso_region":"JP-23","municipality":"Nagoya","scheduled_service":"no"},"geometry":{"type":"Point","coordinates":[136.90547,35.16805]}},{"id":"340474","type":"Feature","properties":{"ident":"JP-1157","type":"heliport","name":"Central Administration Main Building Helipad","continent":"AS","iso_country":"JP","iso_region":"JP-23","municipality":"Nagoya","scheduled_service":"no"},"geometry":{"type":"Point","coordinates":[136.89417,35.13643]}},{"id":"344617","type":"Feature","properties":{"ident":"JP-2196","type":"heliport","name":"Central Fire Station Heliport","continent":"AS","iso_country":"JP","iso_region":"JP-28","municipality":"Kobe","scheduled_service":"no"},"geometry":{"type":"Point","coordinates":[135.20105,34.69556]}},{"id":"334592","type":"Feature","properties":{"ident":"JP-0227","type":"heliport","name":"Central Government Building 2 Heliport","continent":"AS","iso_country":"JP","iso_region":"JP-13","municipality":"Chiyoda, Tokyo","scheduled_service":"no"},"geometry":{"type":"Point","coordinates":[139.7511,35.67523]}},{"id":"343571","type":"Feature","properties":{"ident":"JP-1761","type":"heliport","name":"Central Government Building 6A Heliport","elevation_ft":"471","continent":"AS","iso_country":"JP","iso_region":"JP-13","municipality":"Chiyoda, Tokyo","scheduled_service":"no"},"geometry":{"type":"Point","coordinates":[139.7546,35.67571]}},{"id":"341438","type":"Feature","properties":{"ident":"JP-1528","type":"heliport","name":"Central Government Building 8 Heliport","continent":"AS","iso_country":"JP","iso_region":"JP-13","municipality":"Chiyoda, Tokyo","scheduled_service":"no"},"geometry":{"type":"Point","coordinates":[139.74545,35.67262]}},{"id":"343663","type":"Feature","properties":{"ident":"JP-1840","type":"heliport","name":"Central Mark Tower Helipad","continent":"AS","iso_country":"JP","iso_region":"JP-27","municipality":"Osaka","scheduled_service":"no"},"geometry":{"type":"Point","coordinates":[135.49613,34.7107]}},{"id":"344210","type":"Feature","properties":{"ident":"JP-1999","type":"heliport","name":"Central Park Tower La Tour Shinjuku Helipad","continent":"AS","iso_country":"JP","iso_region":"JP-13","municipality":"Shinjuku, Tokyo","scheduled_service":"no"},"geometry":{"type":"Point","coordinates":[139.68856,35.69222]}},{"id":"515168","type":"Feature","properties":{"ident":"JP-3322","type":"heliport","name":"Century Toyota Building Helipad","continent":"AS","iso_country":"JP","iso_region":"JP-23","municipality":"Nagoya","scheduled_service":"no"},"geometry":{"type":"Point","coordinates":[136.88646,35.16904]}},{"id":"334511","type":"Feature","properties":{"ident":"JP-0147","type":"heliport","name":"Cerulean Tower Helipad","continent":"AS","iso_country":"JP","iso_region":"JP-13","municipality":"Shibuya, Tokyo","scheduled_service":"no"},"geometry":{"type":"Point","coordinates":[139.69964,35.65639]}},{"id":"347672","type":"Feature","properties":{"ident":"JP-2457","type":"heliport","name":"Chevron Japan Omaezaki Plant Heliport","continent":"AS","iso_country":"JP","iso_region":"JP-22","municipality":"Omaezaki","scheduled_service":"no"},"geometry":{"type":"Point","coordinates":[138.21144,34.61591]}},{"id":"515735","type":"Feature","properties":{"ident":"JP-3379","type":"heliport","name":"Chiba City Fire Department Heliport","continent":"AS","iso_country":"JP","iso_region":"JP-12","municipality":"Chiba","scheduled_service":"no"},"geometry":{"type":"Point","coordinates":[140.12117,35.60389]}},{"id":"337952","type":"Feature","properties":{"ident":"JP-0643","type":"heliport","name":"Chiba City Fire Department Heliport","continent":"AS","iso_country":"JP","iso_region":"JP-12","municipality":"Chiba","scheduled_service":"no"},"geometry":{"type":"Point","coordinates":[140.24283,35.54649]}},{"id":"575347","type":"Feature","properties":{"ident":"JP-3552","type":"heliport","name":"Chiba Emergency and Psychiatric Medical Center Heliport","continent":"AS","iso_country":"JP","iso_region":"JP-12","municipality":"Chiba","scheduled_service":"no"},"geometry":{"type":"Point","coordinates":[140.02489,35.65055]}},{"id":"336853","type":"Feature","properties":{"ident":"JP-0534","type":"heliport","name":"Chiba Prefectural Government Office Heliport","continent":"AS","iso_country":"JP","iso_region":"JP-12","municipality":"Chiba","scheduled_service":"no"},"geometry":{"type":"Point","coordinates":[140.123282,35.604979]}},{"id":"344794","type":"Feature","properties":{"ident":"JP-2241","type":"heliport","name":"Chiba Prefectural Police Academy Heliport","elevation_ft":"36","continent":"AS","iso_country":"JP","iso_region":"JP-12","municipality":"Togane","scheduled_service":"no"},"geometry":{"type":"Point","coordinates":[140.41291,35.57543]}},{"id":"339779","type":"Feature","properties":{"ident":"JP-1106","type":"heliport","name":"Chiba Prefectural Police Heliport","continent":"AS","iso_country":"JP","iso_region":"JP-12","municipality":"Chiba","scheduled_service":"no"},"geometry":{"type":"Point","coordinates":[140.123136,35.60284]}},{"id":"334480","type":"Feature","properties":{"ident":"JP-0116","type":"heliport","name":"Chiba Prefectural Sewage Plant Helipad","continent":"AS","iso_country":"JP","iso_region":"JP-12","municipality":"Chiba","scheduled_service":"no"},"geometry":{"type":"Point","coordinates":[140.048502,35.629684]}},{"id":"339778","type":"Feature","properties":{"ident":"JP-1105","type":"heliport","name":"Chiba University Hospital Heliport","continent":"AS","iso_country":"JP","iso_region":"JP-12","municipality":"Chiba","scheduled_service":"no"},"geometry":{"type":"Point","coordinates":[140.136688,35.605188]}},{"id":"575315","type":"Feature","properties":{"ident":"JP-3551","type":"heliport","name":"Chiba Wangan Heliport","elevation_ft":"10","continent":"AS","iso_country":"JP","iso_region":"JP-12","municipality":"Chiba","scheduled_service":"no"},"geometry":{"type":"Point","coordinates":[140.07032,35.61078]}},{"id":"337954","type":"Feature","properties":{"ident":"JP-0645","type":"heliport","name":"Chiba West General Hospital Helipad","continent":"AS","iso_country":"JP","iso_region":"JP-12","municipality":"Matsudo","scheduled_service":"no"},"geometry":{"type":"Point","coordinates":[139.944717,35.803522]}},{"id":"334765","type":"Feature","properties":{"ident":"JP-0325","type":"heliport","name":"Chiburijima Heliport","elevation_ft":"213","continent":"AS","iso_country":"JP","iso_region":"JP-32","municipality":"Chibu","scheduled_service":"no"},"geometry":{"type":"Point","coordinates":[133.061321,36.007972]}},{"id":"349215","type":"Feature","properties":{"ident":"JP-2603","type":"heliport","name":"Chichibu Heliport","elevation_ft":"1325","continent":"AS","iso_country":"JP","iso_region":"JP-11","municipality":"Chichibu","scheduled_service":"no"},"geometry":{"type":"Point","coordinates":[139.04281,35.98105]}},{"id":"349222","type":"Feature","properties":{"ident":"JP-2605","type":"heliport","name":"Chichibu Hospital Heliport","elevation_ft":"794","continent":"AS","iso_country":"JP","iso_region":"JP-11","municipality":"Chichibu","scheduled_service":"no"},"geometry":{"type":"Point","coordinates":[139.06418,35.98271]}},{"id":"337710","type":"Feature","properties":{"ident":"JP-0613","type":"heliport","name":"Chichibu Seichi Park Helipad","continent":"AS","iso_country":"JP","iso_region":"JP-11","municipality":"Chichibu","scheduled_service":"no"},"geometry":{"type":"Point","coordinates":[139.0984,36.0075]}},{"id":"571837","type":"Feature","properties":{"ident":"JP-3547","type":"heliport","name":"Chichibu Takizawa Cycle Park Heliport","elevation_ft":"2087","continent":"AS","iso_country":"JP","iso_region":"JP-11","municipality":"Chichibu","scheduled_service":"no"},"geometry":{"type":"Point","coordinates":[138.89203,35.960196]}},{"id":"350255","type":"Feature","properties":{"ident":"JP-2706","type":"heliport","name":"Chigasaki City Hall Heliport","continent":"AS","iso_country":"JP","iso_region":"JP-14","municipality":"Chigasaki","scheduled_service":"no"},"geometry":{"type":"Point","coordinates":[139.40355,35.33394]}},{"id":"350258","type":"Feature","properties":{"ident":"JP-2709","type":"heliport","name":"Chigasaki Municipal Hospital Heliport","continent":"AS","iso_country":"JP","iso_region":"JP-14","municipality":"Chigasaki","scheduled_service":"no"},"geometry":{"type":"Point","coordinates":[139.41528,35.3398]}},{"id":"348772","type":"Feature","properties":{"ident":"JP-2539","type":"heliport","name":"Chikamori Hospital Heliport","continent":"AS","iso_country":"JP","iso_region":"JP-39","municipality":"Kochi","scheduled_service":"no"},"geometry":{"type":"Point","coordinates":[133.54162,33.56456]}},{"id":"338496","type":"Feature","properties":{"ident":"JP-0792","type":"heliport","name":"Chikazawa Heliport","continent":"AS","iso_country":"JP","iso_region":"JP-39","municipality":"Ino","scheduled_service":"no"},"geometry":{"type":"Point","coordinates":[133.40951,33.52788]}},{"id":"340713","type":"Feature","properties":{"ident":"JP-1267","type":"small_airport","name":"Chiyoda Auxiliary Airstrip","elevation_ft":"59","continent":"AS","iso_country":"JP","iso_region":"JP-08","municipality":"Kasumigaura","scheduled_service":"no","keywords":"Chiyoda Flying Club"},"geometry":{"type":"Point","coordinates":[140.253211,36.142082]}},{"id":"505190","type":"Feature","properties":{"ident":"JP-3158","type":"heliport","name":"Chizu Hospital Heliport","elevation_ft":"594","continent":"AS","iso_country":"JP","iso_region":"JP-31","municipality":"Chizu","scheduled_service":"no"},"geometry":{"type":"Point","coordinates":[134.22341,35.26335]}},{"id":"29783","type":"Feature","properties":{"ident":"RJTF","type":"medium_airport","name":"Chofu Airport","elevation_ft":"141","continent":"AS","iso_country":"JP","iso_region":"JP-13","municipality":"Chofu","scheduled_service":"yes","gps_code":"RJTF","wikipedia_link":"https://en.wikipedia.org/wiki/Chofu_Airport"},"geometry":{"type":"Point","coordinates":[139.528,35.6717]}},{"id":"339672","type":"Feature","properties":{"ident":"JP-1036","type":"heliport","name":"Chubetsu Dam Heliport","elevation_ft":"1393","continent":"AS","iso_country":"JP","iso_region":"JP-01","municipality":"Biei","scheduled_service":"no"},"geometry":{"type":"Point","coordinates":[142.67807,43.626]}},{"id":"5576","type":"Feature","properties":{"ident":"RJGG","type":"large_airport","name":"Chubu Centrair International Airport","elevation_ft":"15","continent":"AS","iso_country":"JP","iso_region":"JP-23","municipality":"Tokoname","scheduled_service":"yes","gps_code":"RJGG","iata_code":"NGO","home_link":"https://www.centrair.jp/en/index.html","wikipedia_link":"https://en.wikipedia.org/wiki/Ch%C5%ABbu_Centrair_International_Airport"},"geometry":{"type":"Point","coordinates":[136.804993,34.858398]}},{"id":"347667","type":"Feature","properties":{"ident":"JP-2452","type":"heliport","name":"Chubu Electric Power Kawanehon Power Center Heliport","continent":"AS","iso_country":"JP","iso_region":"JP-22","municipality":"Kawanehon","scheduled_service":"no"},"geometry":{"type":"Point","coordinates":[138.13989,35.1133]}},{"id":"334670","type":"Feature","properties":{"ident":"JP-0305","type":"heliport","name":"Chudenko Helipad","continent":"AS","iso_country":"JP","iso_region":"JP-34","municipality":"Hiroshima","scheduled_service":"no"},"geometry":{"type":"Point","coordinates":[132.444826,34.392958]}},{"id":"343623","type":"Feature","properties":{"ident":"JP-1805","type":"heliport","name":"Chugoku Senior Hospital Heliport","continent":"AS","iso_country":"JP","iso_region":"JP-34","municipality":"Kure","scheduled_service":"no"},"geometry":{"type":"Point","coordinates":[132.61305,34.23027]}},{"id":"343353","type":"Feature","properties":{"ident":"JP-1684","type":"heliport","name":"Chukyo Hospital Heliport","continent":"AS","iso_country":"JP","iso_region":"JP-23","municipality":"Nagoya","scheduled_service":"no"},"geometry":{"type":"Point","coordinates":[136.90171,35.10991]}},{"id":"343608","type":"Feature","properties":{"ident":"JP-1791","type":"heliport","name":"Chukyo TV Broadcasting Headquarters Helipad","continent":"AS","iso_country":"JP","iso_region":"JP-23","municipality":"Nagoya","scheduled_service":"no"},"geometry":{"type":"Point","coordinates":[136.88272,35.16066]}},{"id":"351924","type":"Feature","properties":{"ident":"JP-2765","type":"heliport","name":"Chuo Odori FN Building Helipad","continent":"AS","iso_country":"JP","iso_region":"JP-27","municipality":"Osaka","scheduled_service":"no"},"geometry":{"type":"Point","coordinates":[135.51544,34.68199]}},{"id":"350362","type":"Feature","properties":{"ident":"JP-2723","type":"heliport","name":"Chutoen General Medical Center Heliport","elevation_ft":"210","continent":"AS","iso_country":"JP","iso_region":"JP-22","municipality":"Kakegawa","scheduled_service":"no"},"geometry":{"type":"Point","coordinates":[137.99723,34.75731]}},{"id":"508632","type":"Feature","properties":{"ident":"JP-3164","type":"heliport","name":"CIAL Yokohama Helipad","continent":"AS","iso_country":"JP","iso_region":"JP-14","municipality":"Yokohama","scheduled_service":"no"},"geometry":{"type":"Point","coordinates":[139.62236,35.46693]}},{"id":"343710","type":"Feature","properties":{"ident":"JP-1886","type":"heliport","name":"Ciels Garden Riviere Tower Helipad","continent":"AS","iso_country":"JP","iso_region":"JP-13","municipality":"Ota, Tokyo","scheduled_service":"no"},"geometry":{"type":"Point","coordinates":[139.68255,35.56393]}},{"id":"343709","type":"Feature","properties":{"ident":"JP-1885","type":"heliport","name":"Ciels Garden Soleil Tower Helipad","continent":"AS","iso_country":"JP","iso_region":"JP-13","municipality":"Ota, Tokyo","scheduled_service":"no"},"geometry":{"type":"Point","coordinates":[139.68197,35.56434]}},{"id":"338234","type":"Feature","properties":{"ident":"JP-0694","type":"heliport","name":"City Front Tower Helipad","continent":"AS","iso_country":"JP","iso_region":"JP-13","municipality":"Chuo, Tokyo","scheduled_service":"no"},"geometry":{"type":"Point","coordinates":[139.784326,35.669352]}},{"id":"334642","type":"Feature","properties":{"ident":"JP-0277","type":"heliport","name":"City Heights Shiba Helipad","elevation_ft":"410","continent":"AS","iso_country":"JP","iso_region":"JP-13","municipality":"Minato, Tokyo","scheduled_service":"no","keywords":"Human Plaza"},"geometry":{"type":"Point","coordinates":[139.75563,35.65161]}},{"id":"504936","type":"Feature","properties":{"ident":"JP-3133","type":"heliport","name":"City House Musashikosugi Helipad","continent":"AS","iso_country":"JP","iso_region":"JP-14","municipality":"Kawasaki","scheduled_service":"no"},"geometry":{"type":"Point","coordinates":[139.66337,35.57296]}},{"id":"352404","type":"Feature","properties":{"ident":"JP-2919","type":"heliport","name":"City Plaza Osaka Heliport","continent":"AS","iso_country":"JP","iso_region":"JP-27","municipality":"Osaka","scheduled_service":"no"},"geometry":{"type":"Point","coordinates":[135.5107,34.68438]}},{"id":"337523","type":"Feature","properties":{"ident":"JP-0563","type":"heliport","name":"City Tower Ariake Helipad","continent":"AS","iso_country":"JP","iso_region":"JP-13","municipality":"Koto, Tokyo","scheduled_service":"no"},"geometry":{"type":"Point","coordinates":[139.796012,35.64236]}},{"id":"341363","type":"Feature","properties":{"ident":"JP-1505","type":"heliport","name":"City Tower Grand Tennoji Helipad","continent":"AS","iso_country":"JP","iso_region":"JP-27","municipality":"Osaka","scheduled_service":"no"},"geometry":{"type":"Point","coordinates":[135.51749,34.64382]}},{"id":"351985","type":"Feature","properties":{"ident":"JP-2788","type":"heliport","name":"City Tower Higashi Umeda Park Front Helipad","continent":"AS","iso_country":"JP","iso_region":"JP-27","municipality":"Osaka","scheduled_service":"no"},"geometry":{"type":"Point","coordinates":[135.508,34.70107]}},{"id":"338175","type":"Feature","properties":{"ident":"JP-0670","type":"heliport","name":"City Tower Hiroshima Helipad","continent":"AS","iso_country":"JP","iso_region":"JP-34","municipality":"Hiroshima","scheduled_service":"no"},"geometry":{"type":"Point","coordinates":[132.475097,34.395875]}},{"id":"352735","type":"Feature","properties":{"ident":"JP-3004","type":"heliport","name":"City Tower Horie Helipad","continent":"AS","iso_country":"JP","iso_region":"JP-27","municipality":"Osaka","scheduled_service":"no"},"geometry":{"type":"Point","coordinates":[135.4937,34.67324]}},