{"type":"FeatureCollection","features":[{"id":"35247","type":"Feature","properties":{"ident":"KP-0037","type":"small_airport","name":"Ayang Ni Highway Strip","elevation_ft":"387","continent":"AS","iso_country":"KP","iso_region":"KP-06","scheduled_service":"no"},"geometry":{"type":"Point","coordinates":[125.964067,38.251763]}},{"id":"35248","type":"Feature","properties":{"ident":"KP-0099","type":"small_airport","name":"Ch'o do Airport","continent":"AS","iso_country":"KP","iso_region":"KP-05","municipality":"Ch'o do","scheduled_service":"no","wikipedia_link":"https://en.wikipedia.org/wiki/Chodo_Airport"},"geometry":{"type":"Point","coordinates":[124.83261,38.551953]}},{"id":"35246","type":"Feature","properties":{"ident":"KP-0036","type":"medium_airport","name":"Changjin Air Force Base","elevation_ft":"3457","continent":"AS","iso_country":"KP","iso_region":"KP-08","municipality":"Changjin","scheduled_service":"no","wikipedia_link":"https://en.wikipedia.org/wiki/Changjin_Air_Force_Base"},"geometry":{"type":"Point","coordinates":[127.264252,40.364375]}},{"id":"35273","type":"Feature","properties":{"ident":"KP-0063","type":"small_airport","name":"Changyon Highway Strip Airstrip","elevation_ft":"62","continent":"AS","iso_country":"KP","iso_region":"KP-05","municipality":"Changyon","scheduled_service":"no","wikipedia_link":"https://en.wikipedia.org/wiki/List_of_highway_airstrips_in_North_Korea"},"geometry":{"type":"Point","coordinates":[125.136251,38.22773]}},{"id":"35272","type":"Feature","properties":{"ident":"KP-0062","type":"small_airport","name":"Chik-Tong Airstrip","elevation_ft":"791","continent":"AS","iso_country":"KP","iso_region":"KP-06","municipality":"Koksan","scheduled_service":"no","wikipedia_link":"https://en.wikipedia.org/wiki/Chiktong_Airport"},"geometry":{"type":"Point","coordinates":[126.680287,38.726405]}},{"id":"35212","type":"Feature","properties":{"ident":"KP-0002","type":"medium_airport","name":"Haeju Airfield","elevation_ft":"131","continent":"AS","iso_country":"KP","iso_region":"KP-05","municipality":"Haeju","scheduled_service":"no","wikipedia_link":"https://en.wikipedia.org/wiki/Haeju_Airport"},"geometry":{"type":"Point","coordinates":[125.777321,38.00739]}},{"id":"35271","type":"Feature","properties":{"ident":"KP-0061","type":"small_airport","name":"Hoeyang Southeast Airfield","elevation_ft":"1093","continent":"AS","iso_country":"KP","iso_region":"KP-07","municipality":"Hoeyang","scheduled_service":"no","wikipedia_link":"https://en.wikipedia.org/wiki/Hoeyang_Southeast_Airport"},"geometry":{"type":"Point","coordinates":[127.650039,38.658035]}},{"id":"35230","type":"Feature","properties":{"ident":"KP-0020","type":"medium_airport","name":"Hwangju Airbase","elevation_ft":"26","continent":"AS","iso_country":"KP","iso_region":"KP-06","municipality":"Hwangju","scheduled_service":"no","wikipedia_link":"https://en.wikipedia.org/wiki/Hwangju_Airport"},"geometry":{"type":"Point","coordinates":[125.790453,38.652807]}},{"id":"35245","type":"Feature","properties":{"ident":"KP-0035","type":"medium_airport","name":"Hwangsuwon Airbase","elevation_ft":"4050","continent":"AS","iso_country":"KP","iso_region":"KP-10","municipality":"Kimhyonggwon","scheduled_service":"no","wikipedia_link":"https://en.wikipedia.org/wiki/Hwangsuwon_Airport","keywords":"황수원비행장, 黃水院飛行場"},"geometry":{"type":"Point","coordinates":[128.151001,40.6814]}},{"id":"323038","type":"Feature","properties":{"ident":"KP-0072","type":"small_airport","name":"Hwangsuwon Highway Strip Airstrip","elevation_ft":"4494","continent":"AS","iso_country":"KP","iso_region":"KP-10","municipality":"Hwangsuwon","scheduled_service":"no"},"geometry":{"type":"Point","coordinates":[128.141098,40.672013]}},{"id":"315833","type":"Feature","properties":{"ident":"KP-0067","type":"small_airport","name":"Hyangsan Airport","continent":"AS","iso_country":"KP","iso_region":"KP-03","municipality":"Hyangsan","scheduled_service":"no"},"geometry":{"type":"Point","coordinates":[126.192741,40.028699]}},{"id":"315832","type":"Feature","properties":{"ident":"KP-0066","type":"heliport","name":"Hyangsan Heliport","continent":"AS","iso_country":"KP","iso_region":"KP-03","municipality":"Hyangsan","scheduled_service":"no"},"geometry":{"type":"Point","coordinates":[126.175337,40.026228]}},{"id":"35270","type":"Feature","properties":{"ident":"KP-0060","type":"small_airport","name":"Hyesan Airport","elevation_ft":"2343","continent":"AS","iso_country":"KP","iso_region":"KP-10","municipality":"Hyesan","scheduled_service":"no","wikipedia_link":"https://en.wikipedia.org/wiki/Hyesan_Airfield"},"geometry":{"type":"Point","coordinates":[128.203583,41.377581]}},{"id":"35229","type":"Feature","properties":{"ident":"KP-0019","type":"small_airport","name":"Hyon-ni Airport","elevation_ft":"1913","continent":"AS","iso_country":"KP","iso_region":"KP-07","municipality":"Hoeyang","scheduled_service":"no","wikipedia_link":"https://en.wikipedia.org/wiki/Hyon_Ni_Airport"},"geometry":{"type":"Point","coordinates":[127.452393,38.613517]}},{"id":"35244","type":"Feature","properties":{"ident":"KP-0034","type":"small_airport","name":"Ichon Airport","elevation_ft":"430","continent":"AS","iso_country":"KP","iso_region":"KP-07","municipality":"Ichon","scheduled_service":"no","wikipedia_link":"https://en.wikipedia.org/wiki/Ichon_Airport"},"geometry":{"type":"Point","coordinates":[126.858788,38.48225]}},{"id":"35268","type":"Feature","properties":{"ident":"KP-0058","type":"small_airport","name":"Ichon Northeast Airport","elevation_ft":"561","continent":"AS","iso_country":"KP","iso_region":"KP-07","municipality":"Ichon","scheduled_service":"no"},"geometry":{"type":"Point","coordinates":[126.923718,38.673885]}},{"id":"35269","type":"Feature","properties":{"ident":"KP-0059","type":"small_airport","name":"Ihyon Airstrip","elevation_ft":"600","continent":"AS","iso_country":"KP","iso_region":"KP-05","municipality":"Sinwon","scheduled_service":"no","wikipedia_link":"https://en.wikipedia.org/wiki/Rihyon_Airport"},"geometry":{"type":"Point","coordinates":[125.849204,38.130269]}},{"id":"323097","type":"Feature","properties":{"ident":"KP-0084","type":"small_airport","name":"Ihyon Ni Highway Strip Airfield","elevation_ft":"200","continent":"AS","iso_country":"KP","iso_region":"KP-05","municipality":"Ihyon Ni","scheduled_service":"no"},"geometry":{"type":"Point","coordinates":[125.86843,38.061253]}},{"id":"35228","type":"Feature","properties":{"ident":"KP-0018","type":"small_airport","name":"Kaechon Airport","elevation_ft":"33","continent":"AS","iso_country":"KP","iso_region":"KP-02","municipality":"Kaechon","scheduled_service":"no","wikipedia_link":"https://en.wikipedia.org/wiki/Kaechon_Airport"},"geometry":{"type":"Point","coordinates":[125.902119,39.753657]}},{"id":"35243","type":"Feature","properties":{"ident":"KP-0033","type":"small_airport","name":"Kang Da Ri Airport","elevation_ft":"56","continent":"AS","iso_country":"KP","iso_region":"KP-07","municipality":"Wonsan","scheduled_service":"no","wikipedia_link":"https://en.wikipedia.org/wiki/Kang_Da_Ri_Airport"},"geometry":{"type":"Point","coordinates":[127.415331,39.098389]}},{"id":"322946","type":"Feature","properties":{"ident":"KP-0070","type":"small_airport","name":"Kang Da Ri Highway Strip","elevation_ft":"541","continent":"AS","iso_country":"KP","iso_region":"KP-07","municipality":"Wonsan","scheduled_service":"no","wikipedia_link":"https://en.wikipedia.org/wiki/List_of_highway_airstrips_in_North_Korea; https://en.wikipedia.org/wiki/Kang_Da_Ri_Airport"},"geometry":{"type":"Point","coordinates":[127.406194,39.015216]}},{"id":"35227","type":"Feature","properties":{"ident":"KP-0017","type":"small_airport","name":"Kangdong Airport","elevation_ft":"75","continent":"AS","iso_country":"KP","iso_region":"KP-01","municipality":"Kangdong","scheduled_service":"no","wikipedia_link":"https://en.wikipedia.org/wiki/Kangdong_Airport"},"geometry":{"type":"Point","coordinates":[126.042452,39.16088]}},{"id":"326409","type":"Feature","properties":{"ident":"KP-0087","type":"heliport","name":"Kanjin (Rajin) Heliport","continent":"AS","iso_country":"KP","iso_region":"KP-13","municipality":"Kanjin (Rajin)","scheduled_service":"no","keywords":"Kanjin, Rajin, Rason"},"geometry":{"type":"Point","coordinates":[130.316927,42.21942]}},{"id":"35226","type":"Feature","properties":{"ident":"KP-0016","type":"small_airport","name":"Kilchu Highway Airport","continent":"AS","iso_country":"KP","iso_region":"KP-09","scheduled_service":"no"},"geometry":{"type":"Point","coordinates":[129.307999,40.912601]}},{"id":"35267","type":"Feature","properties":{"ident":"KP-0057","type":"small_airport","name":"Kojo Highway Strip Airfield","elevation_ft":"272","continent":"AS","iso_country":"KP","iso_region":"KP-07","municipality":"Kojo","scheduled_service":"no","wikipedia_link":"https://en.wikipedia.org/wiki/List_of_highway_airstrips_in_North_Korea"},"geometry":{"type":"Point","coordinates":[127.861977,38.836632]}},{"id":"322922","type":"Feature","properties":{"ident":"KP-0068","type":"medium_airport","name":"Koksan 2 Highway Strip","elevation_ft":"807","continent":"AS","iso_country":"KP","iso_region":"KP-06","municipality":"Koksan","scheduled_service":"no","wikipedia_link":"https://en.wikipedia.org/wiki/List_of_highway_airstrips_in_North_Korea"},"geometry":{"type":"Point","coordinates":[126.586618,38.663481]}},{"id":"35225","type":"Feature","properties":{"ident":"KP-0015","type":"medium_airport","name":"Koksan Air Base","elevation_ft":"840","continent":"AS","iso_country":"KP","iso_region":"KP-06","municipality":"Koksan","scheduled_service":"no","wikipedia_link":"https://en.wikipedia.org/wiki/Koksan_Airport","keywords":"곡산비행장, 谷山飛行場"},"geometry":{"type":"Point","coordinates":[126.606003,38.690201]}},{"id":"35224","type":"Feature","properties":{"ident":"KP-0014","type":"small_airport","name":"Koksan Highway Airport","continent":"AS","iso_country":"KP","iso_region":"KP-06","municipality":"Koksan","scheduled_service":"no","wikipedia_link":"https://en.wikipedia.org/wiki/List_of_highway_airstrips_in_North_Korea; https://en.wikipedia.org/wiki/Koksan_South_Highway_Strip"},"geometry":{"type":"Point","coordinates":[126.659875,38.732703]}},{"id":"35266","type":"Feature","properties":{"ident":"KP-0056","type":"small_airport","name":"Kuktong Airport","elevation_ft":"125","continent":"AS","iso_country":"KP","iso_region":"KP-09","municipality":"Myonggan","scheduled_service":"no","wikipedia_link":"https://en.wikipedia.org/wiki/Kuktong_Airport","keywords":"극동비행장, 極洞飛行場"},"geometry":{"type":"Point","coordinates":[129.563699,41.249741]}},{"id":"323040","type":"Feature","properties":{"ident":"KP-0073","type":"small_airport","name":"Kumgang Airfield","elevation_ft":"1325","continent":"AS","iso_country":"KP","iso_region":"KP-07","municipality":"Kumgang","scheduled_service":"no","wikipedia_link":"https://en.wikipedia.org/wiki/Kumgang_Airport"},"geometry":{"type":"Point","coordinates":[128.004155,38.564295]}},{"id":"35223","type":"Feature","properties":{"ident":"KP-0013","type":"small_airport","name":"Kuum-ni Airport","elevation_ft":"66","continent":"AS","iso_country":"KP","iso_region":"KP-07","municipality":"Tongchon","scheduled_service":"no","wikipedia_link":"https://en.wikipedia.org/wiki/Kuum_Ni_Airport"},"geometry":{"type":"Point","coordinates":[127.904034,38.864707]}},{"id":"35249","type":"Feature","properties":{"ident":"KP-0039","type":"medium_airport","name":"Kwail Air Base","elevation_ft":"89","continent":"AS","iso_country":"KP","iso_region":"KP-05","municipality":"Kwail","scheduled_service":"no","wikipedia_link":"https://en.wikipedia.org/wiki/Kwail_Airport"},"geometry":{"type":"Point","coordinates":[125.019093,38.425487]}},{"id":"35222","type":"Feature","properties":{"ident":"KP-0012","type":"medium_airport","name":"Kwaksan Air Base","elevation_ft":"62","continent":"AS","iso_country":"KP","iso_region":"KP-03","municipality":"Kwaksan","scheduled_service":"no","wikipedia_link":"https://en.wikipedia.org/wiki/Kwaksan_Airport"},"geometry":{"type":"Point","coordinates":[125.110159,39.731218]}},{"id":"35265","type":"Feature","properties":{"ident":"KP-0055","type":"small_airport","name":"Kyongsong-Chuul Airport","elevation_ft":"3","continent":"AS","iso_country":"KP","iso_region":"KP-09","municipality":"Kyongsong","scheduled_service":"no","wikipedia_link":"https://en.wikipedia.org/wiki/Kyongsong_Chuul_Airport"},"geometry":{"type":"Point","coordinates":[129.630411,41.560539]}},{"id":"35264","type":"Feature","properties":{"ident":"KP-0054","type":"small_airport","name":"Maengsan Airport","elevation_ft":"2087","continent":"AS","iso_country":"KP","iso_region":"KP-02","municipality":"Maengsan","scheduled_service":"no","wikipedia_link":"https://en.wikipedia.org/wiki/Maengsan_Airport"},"geometry":{"type":"Point","coordinates":[126.670218,39.652888]}},{"id":"35263","type":"Feature","properties":{"ident":"KP-0053","type":"small_airport","name":"Manpo Airport","elevation_ft":"837","continent":"AS","iso_country":"KP","iso_region":"KP-04","municipality":"Manpo","scheduled_service":"no","wikipedia_link":"https://en.wikipedia.org/wiki/Manpo_Airport"},"geometry":{"type":"Point","coordinates":[126.356764,41.139365]}},{"id":"322960","type":"Feature","properties":{"ident":"KP-0071","type":"heliport","name":"Masikryong Ski Resort Heliport","continent":"AS","iso_country":"KP","iso_region":"KP-07","municipality":"Masikryong","scheduled_service":"no"},"geometry":{"type":"Point","coordinates":[127.249958,39.062549]}},{"id":"323042","type":"Feature","properties":{"ident":"KP-0074","type":"small_airport","name":"Mirim Aviation Club","elevation_ft":"30","continent":"AS","iso_country":"KP","iso_region":"KP-01","municipality":"Pyongyang (Sadong)","scheduled_service":"no","wikipedia_link":"https://en.wikipedia.org/wiki/Mirim_Airport"},"geometry":{"type":"Point","coordinates":[125.847493,39.009618]}},{"id":"323050","type":"Feature","properties":{"ident":"KP-0075","type":"small_airport","name":"Nuchon Ni Airfield","elevation_ft":"293","continent":"AS","iso_country":"KP","iso_region":"KP-06","municipality":"Nuchon Ni","scheduled_service":"no","wikipedia_link":"https://en.wikipedia.org/wiki/List_of_airports_in_North_Korea"},"geometry":{"type":"Point","coordinates":[126.1203,38.23791]}},{"id":"35262","type":"Feature","properties":{"ident":"KP-0052","type":"small_airport","name":"Nuchon Ni Highway Strip","continent":"AS","iso_country":"KP","iso_region":"KP-05","municipality":"Nuchon Ni","scheduled_service":"no","wikipedia_link":"https://en.wikipedia.org/wiki/List_of_highway_airstrips_in_North_Korea"},"geometry":{"type":"Point","coordinates":[126.264153,38.232045]}},{"id":"35261","type":"Feature","properties":{"ident":"KP-0051","type":"small_airport","name":"Okpyong ni Highway Strip Airstrip","elevation_ft":"49","continent":"AS","iso_country":"KP","iso_region":"KP-07","municipality":"Okpyong-ni","scheduled_service":"no","wikipedia_link":"https://en.wikipedia.org/wiki/List_of_highway_airstrips_in_North_Korea"},"geometry":{"type":"Point","coordinates":[127.320728,39.271002]}},{"id":"327432","type":"Feature","properties":{"ident":"KP-0089","type":"heliport","name":"Okryu Childrens’ Hospital Heliport","continent":"AS","iso_country":"KP","iso_region":"KP-01","municipality":"Pyongyang","scheduled_service":"no","keywords":"Okryu Childrens’ Hospital"},"geometry":{"type":"Point","coordinates":[125.783168,39.023826]}},{"id":"35233","type":"Feature","properties":{"ident":"KP-0023","type":"small_airport","name":"Onchon Air Base","elevation_ft":"23","continent":"AS","iso_country":"KP","iso_region":"KP-02","municipality":"Onchon","scheduled_service":"no","wikipedia_link":"https://en.wikipedia.org/wiki/Onchon_Airport"},"geometry":{"type":"Point","coordinates":[125.232553,38.909402]}},{"id":"323067","type":"Feature","properties":{"ident":"KP-0076","type":"small_airport","name":"Onchon Underground Fighter Base","continent":"AS","iso_country":"KP","iso_region":"KP-02","municipality":"Onchon","scheduled_service":"no","wikipedia_link":"https://en.wikipedia.org/wiki/Onchon_air_base"},"geometry":{"type":"Point","coordinates":[125.280361,38.885955]}},{"id":"35260","type":"Feature","properties":{"ident":"KP-0050","type":"small_airport","name":"Ongjin Airport","elevation_ft":"167","continent":"AS","iso_country":"KP","iso_region":"KP-05","municipality":"Ongjin","scheduled_service":"no","wikipedia_link":"https://en.wikipedia.org/wiki/Ongjin_Airport"},"geometry":{"type":"Point","coordinates":[125.419664,37.93225]}},{"id":"35242","type":"Feature","properties":{"ident":"KP-0032","type":"medium_airport","name":"Orang (Chongjin) Airport","elevation_ft":"12","continent":"AS","iso_country":"KP","iso_region":"KP-09","municipality":"Hoemun-ri","scheduled_service":"yes","gps_code":"ZKHM","iata_code":"RGO","wikipedia_link":"https://en.wikipedia.org/wiki/Chongjin_Airport","keywords":"K-33, Hoemun Airfield"},"geometry":{"type":"Point","coordinates":[129.647555,41.428538]}},{"id":"35259","type":"Feature","properties":{"ident":"KP-0049","type":"small_airport","name":"Paegam Airstrip","elevation_ft":"3248","continent":"AS","iso_country":"KP","iso_region":"KP-10","municipality":"Paegam","scheduled_service":"no","wikipedia_link":"https://en.wikipedia.org/wiki/Paegam_Airport"},"geometry":{"type":"Point","coordinates":[128.851111,41.943835]}},{"id":"35241","type":"Feature","properties":{"ident":"KP-0031","type":"small_airport","name":"Panghyon Airport","elevation_ft":"293","continent":"AS","iso_country":"KP","iso_region":"KP-03","municipality":"Kusong","scheduled_service":"no","wikipedia_link":"https://en.wikipedia.org/wiki/Panghyon_Airport"},"geometry":{"type":"Point","coordinates":[125.207748,39.927444]}},{"id":"323068","type":"Feature","properties":{"ident":"KP-0077","type":"small_airport","name":"Panghyon Highway Strip 2","elevation_ft":"604","continent":"AS","iso_country":"KP","iso_region":"KP-02","municipality":"Panghyon","scheduled_service":"no","wikipedia_link":"https://en.wikipedia.org/wiki/List_of_highway_airstrips_in_North_Korea"},"geometry":{"type":"Point","coordinates":[125.149727,39.813662]}},{"id":"35240","type":"Feature","properties":{"ident":"KP-0030","type":"small_airport","name":"Panghyon South Highway Strip","elevation_ft":"359","continent":"AS","iso_country":"KP","iso_region":"KP-03","municipality":"Panghyon","scheduled_service":"no","wikipedia_link":"https://en.wikipedia.org/wiki/List_of_highway_airstrips_in_North_Korea"},"geometry":{"type":"Point","coordinates":[125.158621,39.882894]}},{"id":"35232","type":"Feature","properties":{"ident":"KP-0022","type":"medium_airport","name":"Pukchang Air Base","elevation_ft":"217","continent":"AS","iso_country":"KP","iso_region":"KP-02","municipality":"Sunchon","scheduled_service":"no","gps_code":"ZKPN","wikipedia_link":"https://en.wikipedia.org/wiki/Pukchang_Airport"},"geometry":{"type":"Point","coordinates":[125.963997,39.505001]}},{"id":"322934","type":"Feature","properties":{"ident":"KP-0069","type":"heliport","name":"Pukch’ang Airbase East Heliport","continent":"AS","iso_country":"KP","iso_region":"KP-03","municipality":"Pukch’ang","scheduled_service":"no","wikipedia_link":"https://en.wikipedia.org/wiki/Pukchang_Airport"},"geometry":{"type":"Point","coordinates":[125.995417,39.49]}},{"id":"35220","type":"Feature","properties":{"ident":"KP-0010","type":"small_airport","name":"Pyong Ni South Highway Strip","elevation_ft":"105","continent":"AS","iso_country":"KP","iso_region":"KP-02","municipality":"Pyong Ni","scheduled_service":"no","wikipedia_link":"https://en.wikipedia.org/wiki/List_of_highway_airstrips_in_North_Korea"},"geometry":{"type":"Point","coordinates":[125.897913,39.321085]}},{"id":"323070","type":"Feature","properties":{"ident":"KP-0078","type":"small_airport","name":"Pyong Ni West Highway Strip Airstrip","elevation_ft":"95","continent":"AS","iso_country":"KP","iso_region":"KP-02","municipality":"Pyong Ni","scheduled_service":"no"},"geometry":{"type":"Point","coordinates":[125.670376,39.410004]}},{"id":"35258","type":"Feature","properties":{"ident":"KP-0048","type":"small_airport","name":"Pyongsul Li Airstrip","elevation_ft":"715","continent":"AS","iso_country":"KP","iso_region":"KP-06","municipality":"Pyongsul Li","scheduled_service":"no","wikipedia_link":"https://en.wikipedia.org/wiki/Pyongsul_Li_Airport"},"geometry":{"type":"Point","coordinates":[126.721072,38.719369]}},{"id":"323073","type":"Feature","properties":{"ident":"KP-0080","type":"heliport","name":"Pyongyang City Heliport (K-24)","continent":"AS","iso_country":"KP","iso_region":"KP-01","municipality":"Pyongyang","scheduled_service":"no"},"geometry":{"type":"Point","coordinates":[125.809958,39.04152]}},{"id":"27203","type":"Feature","properties":{"ident":"ZKPY","type":"medium_airport","name":"Pyongyang Sunan International Airport","elevation_ft":"117","continent":"AS","iso_country":"KP","iso_region":"KP-01","municipality":"Pyongyang","scheduled_service":"yes","gps_code":"ZKPY","iata_code":"FNJ","wikipedia_link":"https://en.wikipedia.org/wiki/Pyongyang_Sunan_International_Airport"},"geometry":{"type":"Point","coordinates":[125.669998,39.224098]}},{"id":"323072","type":"Feature","properties":{"ident":"KP-0079","type":"heliport","name":"P’yongnyung-Ni Helicopter Base","elevation_ft":"714","continent":"AS","iso_country":"KP","iso_region":"KP-08","municipality":"Cheagun-dong","scheduled_service":"no"},"geometry":{"type":"Point","coordinates":[129.248378,40.969416]}},{"id":"313681","type":"Feature","properties":{"ident":"KP-0038","type":"medium_airport","name":"Riwon Airbase","elevation_ft":"85","continent":"AS","iso_country":"KP","iso_region":"KP-08","municipality":"Riwon-gun","scheduled_service":"no","wikipedia_link":"https://en.wikipedia.org/wiki/Riwon_Airport","keywords":"Iwon Airport"},"geometry":{"type":"Point","coordinates":[128.720584,40.359822]}},{"id":"35239","type":"Feature","properties":{"ident":"KP-0029","type":"small_airport","name":"Samjiyŏn Airport","elevation_ft":"4547","continent":"AS","iso_country":"KP","iso_region":"KP-10","municipality":"Samjiyŏn","scheduled_service":"yes","gps_code":"ZKSE","iata_code":"YJS","wikipedia_link":"https://en.wikipedia.org/wiki/Samjiy%C5%8Fn_Airport"},"geometry":{"type":"Point","coordinates":[128.409834,41.907132]}},{"id":"323102","type":"Feature","properties":{"ident":"KP-0085","type":"small_airport","name":"Sangwon 2 Highway Strip Airfield","elevation_ft":"620","continent":"AS","iso_country":"KP","iso_region":"KP-03","municipality":"Sangwon","scheduled_service":"no"},"geometry":{"type":"Point","coordinates":[126.080089,38.760509]}},{"id":"35238","type":"Feature","properties":{"ident":"KP-0028","type":"small_airport","name":"Sangwon Highway Strip","elevation_ft":"620","continent":"AS","iso_country":"KP","iso_region":"KP-01","municipality":"Sangwon","scheduled_service":"no","wikipedia_link":"https://en.wikipedia.org/wiki/List_of_highway_airstrips_in_North_Korea"},"geometry":{"type":"Point","coordinates":[126.066828,38.844721]}},{"id":"313682","type":"Feature","properties":{"ident":"KP-0065","type":"small_airport","name":"Sangwon Ni Highway Strip","elevation_ft":"531","continent":"AS","iso_country":"KP","iso_region":"KP-03","municipality":"Sangwon Ni","scheduled_service":"no","wikipedia_link":"https://en.wikipedia.org/wiki/List_of_highway_airstrips_in_North_Korea"},"geometry":{"type":"Point","coordinates":[125.87122,40.122978]}},{"id":"322889","type":"Feature","properties":{"ident":"KP-0047","type":"small_airport","name":"Sinanju Highway Strip","continent":"AS","iso_country":"KP","iso_region":"KP-03","municipality":"Anju","scheduled_service":"no"},"geometry":{"type":"Point","coordinates":[125.682735,39.675749]}},{"id":"35237","type":"Feature","properties":{"ident":"KP-0027","type":"small_airport","name":"Sinhung Highway Strip","elevation_ft":"220","continent":"AS","iso_country":"KP","iso_region":"KP-08","municipality":"Sinhung","scheduled_service":"no","wikipedia_link":"https://en.wikipedia.org/wiki/List_of_highway_airstrips_in_North_Korea"},"geometry":{"type":"Point","coordinates":[127.539425,40.180709]}},{"id":"35219","type":"Feature","properties":{"ident":"KP-0009","type":"small_airport","name":"Sinuiju Airport","elevation_ft":"23","continent":"AS","iso_country":"KP","iso_region":"KP-03","municipality":"Sinuiju","scheduled_service":"no","wikipedia_link":"https://en.wikipedia.org/wiki/Sinuiju_Airport"},"geometry":{"type":"Point","coordinates":[124.407721,40.087216]}},{"id":"318168","type":"Feature","properties":{"ident":"KP-0021","type":"heliport","name":"Sinuiju Elite Area Heliport","continent":"AS","iso_country":"KP","iso_region":"KP-03","municipality":"Sinuiju","scheduled_service":"no"},"geometry":{"type":"Point","coordinates":[124.498079,40.0795]}},{"id":"323104","type":"Feature","properties":{"ident":"KP-0086","type":"small_airport","name":"Sohung Highway Strip Airfield","elevation_ft":"787","continent":"AS","iso_country":"KP","iso_region":"KP-06","municipality":"Sohung","scheduled_service":"no"},"geometry":{"type":"Point","coordinates":[126.234723,38.283486]}},{"id":"35256","type":"Feature","properties":{"ident":"KP-0046","type":"small_airport","name":"Sohung South Airport","elevation_ft":"522","continent":"AS","iso_country":"KP","iso_region":"KP-06","municipality":"Sohung","scheduled_service":"no","wikipedia_link":"https://en.wikipedia.org/wiki/Sohung_South_Airport"},"geometry":{"type":"Point","coordinates":[126.219242,38.356398]}},{"id":"35255","type":"Feature","properties":{"ident":"KP-0045","type":"small_airport","name":"Sonchon Airport","elevation_ft":"198","continent":"AS","iso_country":"KP","iso_region":"KP-03","municipality":"Sonchon","scheduled_service":"no","wikipedia_link":"https://en.wikipedia.org/wiki/Sonchon_Airport"},"geometry":{"type":"Point","coordinates":[124.840339,39.91855]}},{"id":"35218","type":"Feature","properties":{"ident":"ZKSD","type":"medium_airport","name":"Sondok Airport","elevation_ft":"12","continent":"AS","iso_country":"KP","iso_region":"KP-08","municipality":"Sŏndŏng-ni","scheduled_service":"yes","gps_code":"ZKSD","iata_code":"DSO","wikipedia_link":"https://en.wikipedia.org/wiki/Sondok_Airport"},"geometry":{"type":"Point","coordinates":[127.473999,39.745201]}},{"id":"323074","type":"Feature","properties":{"ident":"KP-0081","type":"small_airport","name":"Sunan-Up North Highway Strip Airfield","elevation_ft":"207","continent":"AS","iso_country":"KP","iso_region":"KP-02","municipality":"Sunan-Up","scheduled_service":"no","wikipedia_link":"https://en.wikipedia.org/wiki/List_of_highway_airstrips_in_North_Korea"},"geometry":{"type":"Point","coordinates":[125.705674,39.255643]}},{"id":"35231","type":"Feature","properties":{"ident":"ZKSC","type":"medium_airport","name":"Sunchon Air Base","elevation_ft":"141","continent":"AS","iso_country":"KP","iso_region":"KP-02","municipality":"Sunchon","scheduled_service":"no","gps_code":"ZKSC","wikipedia_link":"https://en.wikipedia.org/wiki/Sunchon_Airport"},"geometry":{"type":"Point","coordinates":[125.890273,39.412463]}},{"id":"35254","type":"Feature","properties":{"ident":"KP-0044","type":"small_airport","name":"Sungam ni Airport","elevation_ft":"92","continent":"AS","iso_country":"KP","iso_region":"KP-09","municipality":"Chongjin","scheduled_service":"no","wikipedia_link":"https://en.wikipedia.org/wiki/Sungam_Ni_Airport"},"geometry":{"type":"Point","coordinates":[129.676437,41.674386]}},{"id":"35215","type":"Feature","properties":{"ident":"KP-0005","type":"small_airport","name":"T'aet'an-pihaengjang Airport","elevation_ft":"246","continent":"AS","iso_country":"KP","iso_region":"KP-05","municipality":"Taetan","scheduled_service":"no","wikipedia_link":"https://en.wikipedia.org/wiki/Taetan_Airport"},"geometry":{"type":"Point","coordinates":[125.233154,38.131113]}},{"id":"35217","type":"Feature","properties":{"ident":"KP-0007","type":"small_airport","name":"Taebukpo Ri Airport","elevation_ft":"223","continent":"AS","iso_country":"KP","iso_region":"KP-06","scheduled_service":"no","wikipedia_link":"https://en.wikipedia.org/wiki/Taebukpo_Ri_Airport"},"geometry":{"type":"Point","coordinates":[126.869003,38.333801]}},{"id":"35216","type":"Feature","properties":{"ident":"KP-0006","type":"small_airport","name":"Taechon Airport","elevation_ft":"118","continent":"AS","iso_country":"KP","iso_region":"KP-03","municipality":"Taechon","scheduled_service":"no","wikipedia_link":"https://en.wikipedia.org/wiki/Taechon_Airport"},"geometry":{"type":"Point","coordinates":[125.491997,39.9039]}},{"id":"35253","type":"Feature","properties":{"ident":"KP-0043","type":"small_airport","name":"Taechon Northwest Airport","elevation_ft":"293","continent":"AS","iso_country":"KP","iso_region":"KP-03","municipality":"Taechon","scheduled_service":"no","wikipedia_link":"https://en.wikipedia.org/wiki/Taechon_Northwest_Airport"},"geometry":{"type":"Point","coordinates":[125.365505,39.99343]}},{"id":"323088","type":"Feature","properties":{"ident":"KP-0082","type":"small_airport","name":"Tanchon South Airstrip","elevation_ft":"128","continent":"AS","iso_country":"KP","iso_region":"KP-08","municipality":"Tanchon","scheduled_service":"no","wikipedia_link":"https://en.wikipedia.org/wiki/Tanchon_South_Airport"},"geometry":{"type":"Point","coordinates":[128.855596,40.400523]}},{"id":"35252","type":"Feature","properties":{"ident":"KP-0042","type":"small_airport","name":"Toha Ri North Airport","elevation_ft":"840","continent":"AS","iso_country":"KP","iso_region":"KP-06","municipality":"Toha Ri","scheduled_service":"no","wikipedia_link":"https://en.wikipedia.org/wiki/Toha_Ri_North_Airport"},"geometry":{"type":"Point","coordinates":[126.284709,38.70271]}},{"id":"35235","type":"Feature","properties":{"ident":"KP-0025","type":"medium_airport","name":"Toksan Air Base","elevation_ft":"210","continent":"AS","iso_country":"KP","iso_region":"KP-08","municipality":"Tŏksan-dong","scheduled_service":"no","wikipedia_link":"https://en.wikipedia.org/wiki/Toksan_Airport"},"geometry":{"type":"Point","coordinates":[127.611694,39.996257]}},{"id":"35214","type":"Feature","properties":{"ident":"KP-0004","type":"small_airport","name":"Uiju Airport","elevation_ft":"32","continent":"AS","iso_country":"KP","iso_region":"KP-03","municipality":"Uiju","scheduled_service":"no","gps_code":"ZKUJ","wikipedia_link":"https://en.wikipedia.org/wiki/Uiju_Airfield","keywords":"의주비행장, 義州飛行場"},"geometry":{"type":"Point","coordinates":[124.501104,40.150013]}},{"id":"35274","type":"Feature","properties":{"ident":"KP-0064","type":"small_airport","name":"Unchon Up Airport","elevation_ft":"482","continent":"AS","iso_country":"KP","iso_region":"KP-05","municipality":"Unchon Up","scheduled_service":"no","wikipedia_link":"https://en.wikipedia.org/wiki/Unchon_Up_Airport"},"geometry":{"type":"Point","coordinates":[125.337203,38.548316]}},{"id":"35251","type":"Feature","properties":{"ident":"KP-0041","type":"medium_airport","name":"Uthachi Highway Strip Airport","continent":"AS","iso_country":"KP","iso_region":"KP-01","municipality":"Pyongyang (Ryokpo)","scheduled_service":"no"},"geometry":{"type":"Point","coordinates":[125.821309,38.913877]}},{"id":"35234","type":"Feature","properties":{"ident":"KP-0024","type":"small_airport","name":"Wong Yo Ri Highway Strip","continent":"AS","iso_country":"KP","iso_region":"KP-06","municipality":"Hwasong-ni","scheduled_service":"no","wikipedia_link":"https://en.wikipedia.org/wiki/List_of_highway_airstrips_in_North_Korea"},"geometry":{"type":"Point","coordinates":[126.526558,38.59404]}},{"id":"35213","type":"Feature","properties":{"ident":"ZKWS","type":"medium_airport","name":"Wonsan Kalma International Airport","elevation_ft":"7","continent":"AS","iso_country":"KP","iso_region":"KP-07","municipality":"Wonsan","scheduled_service":"yes","gps_code":"ZKWS","iata_code":"WOS","wikipedia_link":"https://en.wikipedia.org/wiki/Wonsan_Kalma_International_Airport"},"geometry":{"type":"Point","coordinates":[127.486,39.166801]}},{"id":"326560","type":"Feature","properties":{"ident":"KP-0088","type":"small_airport","name":"Yo-do Airstrip","continent":"AS","iso_country":"KP","iso_region":"KP-07","municipality":"Yo-do Island","scheduled_service":"no","keywords":"Yo-do"},"geometry":{"type":"Point","coordinates":[127.62385,39.233059]}},{"id":"35250","type":"Feature","properties":{"ident":"KP-0040","type":"small_airport","name":"Yong Hung Highway Airstrip","elevation_ft":"54","continent":"AS","iso_country":"KP","iso_region":"KP-08","municipality":"Phungsong-ri","scheduled_service":"no","wikipedia_link":"https://en.wikipedia.org/wiki/List_of_highway_airstrips_in_North_Korea"},"geometry":{"type":"Point","coordinates":[127.322102,39.482282]}},{"id":"323090","type":"Feature","properties":{"ident":"KP-0083","type":"small_airport","name":"Yong Hung Highway Reserve Strip Airfield","elevation_ft":"54","continent":"AS","iso_country":"KP","iso_region":"KP-05","municipality":"Yong Hung","scheduled_service":"no"},"geometry":{"type":"Point","coordinates":[127.288499,39.538767]}},{"id":"317103","type":"Feature","properties":{"ident":"KP-0003","type":"small_airport","name":"Yonpo Air Base","elevation_ft":"6","continent":"AS","iso_country":"KP","iso_region":"KP-08","municipality":"Hamhung","scheduled_service":"no","wikipedia_link":"https://en.wikipedia.org/wiki/Yonpo_Airfield","keywords":"K-27 Air Base"},"geometry":{"type":"Point","coordinates":[127.535906,39.792215]}}]}