{"type":"FeatureCollection","features":[{"id":"338060","type":"Feature","properties":{"ident":"KY-0005","type":"heliport","name":"Camana Bay Heliport","continent":"NA","iso_country":"KY","iso_region":"KY-GC","municipality":"George Town","scheduled_service":"no"},"geometry":{"type":"Point","coordinates":[-81.37537,19.32148]}},{"id":"338059","type":"Feature","properties":{"ident":"KY-0004","type":"heliport","name":"Cayman Helicopters Heliport","continent":"NA","iso_country":"KY","iso_region":"KY-GC","municipality":"George Town","scheduled_service":"no"},"geometry":{"type":"Point","coordinates":[-81.38311,19.30294]}},{"id":"4861","type":"Feature","properties":{"ident":"MWCB","type":"medium_airport","name":"Charles Kirkconnell International Airport","elevation_ft":"8","continent":"NA","iso_country":"KY","iso_region":"KY-CB","municipality":"West End","scheduled_service":"yes","gps_code":"MWCB","iata_code":"CYB","wikipedia_link":"https://en.wikipedia.org/wiki/Gerrard_Smith_International_Airport"},"geometry":{"type":"Point","coordinates":[-79.882797,19.687]}},{"id":"31977","type":"Feature","properties":{"ident":"MWCL","type":"medium_airport","name":"Edward Bodden Little Cayman Airfield","elevation_ft":"3","continent":"NA","iso_country":"KY","iso_region":"KY-LC","municipality":"Blossom Village","scheduled_service":"no","gps_code":"MWCL","iata_code":"LYB","wikipedia_link":"https://en.wikipedia.org/wiki/Edward_Bodden_Airfield","keywords":"Little Cayman Airport"},"geometry":{"type":"Point","coordinates":[-80.088826,19.660161]}},{"id":"338061","type":"Feature","properties":{"ident":"KY-0006","type":"heliport","name":"Faith Hospital Heliport","continent":"NA","iso_country":"KY","iso_region":"KY-CB","municipality":"Stake Bay","scheduled_service":"no"},"geometry":{"type":"Point","coordinates":[-79.82739,19.71587]}},{"id":"4862","type":"Feature","properties":{"ident":"MWCR","type":"large_airport","name":"Owen Roberts International Airport","elevation_ft":"8","continent":"NA","iso_country":"KY","iso_region":"KY-GC","municipality":"George Town","scheduled_service":"yes","gps_code":"MWCR","iata_code":"GCM","wikipedia_link":"https://en.wikipedia.org/wiki/Owen_Roberts_International_Airport","keywords":"Grand Cayman, George Town"},"geometry":{"type":"Point","coordinates":[-81.357697,19.292801]}},{"id":"338058","type":"Feature","properties":{"ident":"KY-0003","type":"heliport","name":"Ritz-Carlton Grand Cayman Heliport","continent":"NA","iso_country":"KY","iso_region":"KY-GC","municipality":"George Town","scheduled_service":"no"},"geometry":{"type":"Point","coordinates":[-81.37688,19.33586]}},{"id":"338062","type":"Feature","properties":{"ident":"KY-0007","type":"heliport","name":"Royal Vista Estate Private Helipad","continent":"NA","iso_country":"KY","iso_region":"KY-GC","municipality":"Old Man Bay","scheduled_service":"no"},"geometry":{"type":"Point","coordinates":[-81.14654,19.34872]}}]}