{"type":"FeatureCollection","features":[{"id":"340569","type":"Feature","properties":{"ident":"LB-0003","type":"heliport","name":"Al Sahel Hospital Helipad","continent":"AS","iso_country":"LB","iso_region":"LB-JL","municipality":"Ghobeiry","scheduled_service":"no"},"geometry":{"type":"Point","coordinates":[35.503514,33.858218]}},{"id":"340571","type":"Feature","properties":{"ident":"LB-0004","type":"small_airport","name":"Baadarâne Airport","elevation_ft":"3501","continent":"AS","iso_country":"LB","iso_region":"LB-JL","municipality":"Baadarâne","scheduled_service":"no"},"geometry":{"type":"Point","coordinates":[35.614209,33.636065]}},{"id":"5222","type":"Feature","properties":{"ident":"OLBA","type":"large_airport","name":"Beirut Rafic Hariri International Airport","elevation_ft":"87","continent":"AS","iso_country":"LB","iso_region":"LB-JL","municipality":"Beirut","scheduled_service":"yes","gps_code":"OLBA","iata_code":"BEY","home_link":"http://www.beirutairport.gov.lb/","wikipedia_link":"https://en.wikipedia.org/wiki/Beirut_Rafic_Hariri_International_Airport","keywords":"Chaldea, Beirut Air Base, مطار بيروت رفيق الحريري الدولي"},"geometry":{"type":"Point","coordinates":[35.4884,33.8209]}},{"id":"512006","type":"Feature","properties":{"ident":"SY-0028","type":"small_airport","name":"Jabbour Airfield","continent":"AS","iso_country":"LB","iso_region":"LB-JA","municipality":"Dahr El-Darjeh","scheduled_service":"no"},"geometry":{"type":"Point","coordinates":[35.608798,33.473974]}},{"id":"340568","type":"Feature","properties":{"ident":"LB-0002","type":"heliport","name":"LAU Medical Center Rizk Hospital Helipad","continent":"AS","iso_country":"LB","iso_region":"LB-BA","municipality":"Beirut","scheduled_service":"no"},"geometry":{"type":"Point","coordinates":[35.515414,33.885044]}},{"id":"340573","type":"Feature","properties":{"ident":"LB-0006","type":"small_airport","name":"Marjayoun Airfield","continent":"AS","iso_country":"LB","iso_region":"LB-NA","municipality":"Kafr Kila","scheduled_service":"no"},"geometry":{"type":"Point","coordinates":[35.578101,33.294663]}},{"id":"5224","type":"Feature","properties":{"ident":"OLRA","type":"medium_airport","name":"Rayak Air Base","elevation_ft":"3018","continent":"AS","iso_country":"LB","iso_region":"LB-BI","municipality":"Rayak","scheduled_service":"no","gps_code":"OLRA","wikipedia_link":"https://en.wikipedia.org/wiki/Rayak_Air_Base"},"geometry":{"type":"Point","coordinates":[35.987701,33.8508]}},{"id":"5223","type":"Feature","properties":{"ident":"OLKA","type":"medium_airport","name":"Rene Mouawad Air Base / Kleyate Airport","elevation_ft":"75","continent":"AS","iso_country":"LB","iso_region":"LB-AS","municipality":"Tripoli","scheduled_service":"no","gps_code":"OLKA","iata_code":"KYE","wikipedia_link":"https://en.wikipedia.org/wiki/Rene_Mouawad_Air_Base","keywords":"Kleyate Airport, Al Qulay'at, Qulayaat, El Qlaïaat, Ṭarābulus, مطار الرئيس الشهيد رينيه"},"geometry":{"type":"Point","coordinates":[36.011299,34.589298]}},{"id":"340567","type":"Feature","properties":{"ident":"LB-0001","type":"heliport","name":"St George Hospital Helipad","continent":"AS","iso_country":"LB","iso_region":"LB-BA","municipality":"Beirut","scheduled_service":"no"},"geometry":{"type":"Point","coordinates":[35.52346,33.893873]}},{"id":"340574","type":"Feature","properties":{"ident":"LB-0007","type":"small_airport","name":"Tel al Zaatar Airfield","continent":"AS","iso_country":"LB","iso_region":"LB-JL","municipality":"Dekwaneh","scheduled_service":"no"},"geometry":{"type":"Point","coordinates":[35.55294,33.86781]}},{"id":"526633","type":"Feature","properties":{"ident":"LB-0021","type":"heliport","name":"Unifil HQ Naqoura Central Helipad","continent":"AS","iso_country":"LB","iso_region":"LB-JA","municipality":"Naqoura","scheduled_service":"no"},"geometry":{"type":"Point","coordinates":[35.135338,33.122924]}},{"id":"526635","type":"Feature","properties":{"ident":"LB-0022","type":"heliport","name":"Unifil HQ Naqoura Hospital Helipad","continent":"AS","iso_country":"LB","iso_region":"LB-JA","municipality":"Naqoura","scheduled_service":"no"},"geometry":{"type":"Point","coordinates":[35.140346,33.125588]}},{"id":"526632","type":"Feature","properties":{"ident":"LB-0020","type":"heliport","name":"Unifil HQ Naqoura OP12/OP13 Heliport","continent":"AS","iso_country":"LB","iso_region":"LB-JA","municipality":"Naqoura","scheduled_service":"no"},"geometry":{"type":"Point","coordinates":[35.127812,33.107964]}},{"id":"526636","type":"Feature","properties":{"ident":"LB-0023","type":"heliport","name":"Unifil UNP 1-0A Helipad","continent":"AS","iso_country":"LB","iso_region":"LB-JA","municipality":"Jejim","scheduled_service":"no"},"geometry":{"type":"Point","coordinates":[35.209009,33.106409]}},{"id":"526640","type":"Feature","properties":{"ident":"LB-0024","type":"heliport","name":"Unifil UNP 1-21 Helipad","continent":"AS","iso_country":"LB","iso_region":"LB-JA","municipality":"Salhaneh","scheduled_service":"no"},"geometry":{"type":"Point","coordinates":[35.279975,33.104224]}},{"id":"526724","type":"Feature","properties":{"ident":"LB-0029","type":"heliport","name":"Unifil UNP 2-1 Helipad","continent":"AS","iso_country":"LB","iso_region":"LB-JA","municipality":"Yanouh","scheduled_service":"no"},"geometry":{"type":"Point","coordinates":[35.312778,33.257651]}},{"id":"526595","type":"Feature","properties":{"ident":"LB-0018","type":"heliport","name":"Unifil UNP 2-45 (Camp Shamrock) Helipad","continent":"AS","iso_country":"LB","iso_region":"LB-NA","municipality":"Debel","scheduled_service":"no"},"geometry":{"type":"Point","coordinates":[35.388557,33.126977]}},{"id":"526617","type":"Feature","properties":{"ident":"LB-0019","type":"heliport","name":"Unifil UNP 2-46 (alternatively: 2-45A) Helipad","continent":"AS","iso_country":"LB","iso_region":"LB-NA","municipality":"Debel","scheduled_service":"no"},"geometry":{"type":"Point","coordinates":[35.398614,33.131011]}},{"id":"526476","type":"Feature","properties":{"ident":"LB-0013","type":"heliport","name":"Unifil UNP 4-28 Helipad","continent":"AS","iso_country":"LB","iso_region":"LB-NA","municipality":"Wazzani","scheduled_service":"no"},"geometry":{"type":"Point","coordinates":[35.635942,33.279925]}},{"id":"526479","type":"Feature","properties":{"ident":"LB-0015","type":"heliport","name":"Unifil UNP 4-31 Helipad","continent":"AS","iso_country":"LB","iso_region":"LB-NA","municipality":"Nkhayleh","scheduled_service":"no"},"geometry":{"type":"Point","coordinates":[35.705374,33.31187]}},{"id":"526478","type":"Feature","properties":{"ident":"LB-0014","type":"heliport","name":"Unifil UNP 4-34 Helipad","continent":"AS","iso_country":"LB","iso_region":"LB-NA","municipality":"Majidieh-Mari","scheduled_service":"no"},"geometry":{"type":"Point","coordinates":[35.692382,33.297091]}},{"id":"526721","type":"Feature","properties":{"ident":"LB-0028","type":"heliport","name":"Unifil UNP 5-66 Helipad","continent":"AS","iso_country":"LB","iso_region":"LB-NA","municipality":"Qouzah","scheduled_service":"no"},"geometry":{"type":"Point","coordinates":[35.350285,33.129735]}},{"id":"526641","type":"Feature","properties":{"ident":"LB-0025","type":"heliport","name":"Unifil UNP 6-50 Helipad","continent":"AS","iso_country":"LB","iso_region":"LB-NA","municipality":"Yaroun","scheduled_service":"no"},"geometry":{"type":"Point","coordinates":[35.402343,33.062557]}},{"id":"526490","type":"Feature","properties":{"ident":"LB-0017","type":"heliport","name":"Unifil UNP 7-1 Helipad","continent":"AS","iso_country":"LB","iso_region":"LB-NA","municipality":"Aadchit el Qsair","scheduled_service":"no"},"geometry":{"type":"Point","coordinates":[35.492857,33.272853]}},{"id":"526483","type":"Feature","properties":{"ident":"LB-0016","type":"heliport","name":"Unifil UNP 7-2 Helipad","continent":"AS","iso_country":"LB","iso_region":"LB-NA","municipality":"Blat","scheduled_service":"no"},"geometry":{"type":"Point","coordinates":[35.615993,33.377444]}},{"id":"526457","type":"Feature","properties":{"ident":"LB-0012","type":"heliport","name":"Unifil UNP 8-30 Helipad","continent":"AS","iso_country":"LB","iso_region":"LB-NA","municipality":"Meiss el Jabal","scheduled_service":"no"},"geometry":{"type":"Point","coordinates":[35.507252,33.18651]}},{"id":"526642","type":"Feature","properties":{"ident":"LB-0026","type":"heliport","name":"Unifil UNP 8-34 Helipad","continent":"AS","iso_country":"LB","iso_region":"LB-NA","municipality":"Meiss el Jabal","scheduled_service":"no"},"geometry":{"type":"Point","coordinates":[35.527208,33.161725]}},{"id":"526643","type":"Feature","properties":{"ident":"LB-0027","type":"heliport","name":"Unifil UNP 9-1 Helipad","continent":"AS","iso_country":"LB","iso_region":"LB-JA","municipality":"Deir Kifa","scheduled_service":"no"},"geometry":{"type":"Point","coordinates":[35.412106,33.263088]}},{"id":"526456","type":"Feature","properties":{"ident":"LB-0011","type":"heliport","name":"Unifil UNP 9-15 Helipad","continent":"AS","iso_country":"LB","iso_region":"LB-NA","municipality":"Kafr Kila","scheduled_service":"no"},"geometry":{"type":"Point","coordinates":[35.548145,33.278784]}},{"id":"526452","type":"Feature","properties":{"ident":"LB-0010","type":"heliport","name":"Unifil UNP 9-66 Helipad","continent":"AS","iso_country":"LB","iso_region":"LB-NA","scheduled_service":"no"},"geometry":{"type":"Point","coordinates":[35.565352,33.301671]}},{"id":"44936","type":"Feature","properties":{"ident":"Z19O","type":"medium_airport","name":"Wujah Al Hajar Air Base","elevation_ft":"840","continent":"AS","iso_country":"LB","iso_region":"LB-AS","municipality":"Hamat","scheduled_service":"no","local_code":"Z19O","wikipedia_link":"https://en.wikipedia.org/wiki/Wujah_Al_Hajar_Air_Base"},"geometry":{"type":"Point","coordinates":[35.680096,34.281226]}},{"id":"524024","type":"Feature","properties":{"ident":"LB-0009","type":"small_airport","name":"Zboud Airstrip","elevation_ft":"2775","continent":"AS","iso_country":"LB","iso_region":"LB-BH","scheduled_service":"no"},"geometry":{"type":"Point","coordinates":[36.351591,34.305368]}}]}