{"type":"FeatureCollection","features":[{"id":"340569","type":"Feature","properties":{"ident":"LB-0003","type":"heliport","name":"Al Sahel Hospital Helipad","continent":"AS","iso_country":"LB","iso_region":"LB-JL","municipality":"Ghobeiry","scheduled_service":"no"},"geometry":{"type":"Point","coordinates":[35.503514,33.858218]}},{"id":"340571","type":"Feature","properties":{"ident":"LB-0004","type":"small_airport","name":"Baadarâne Airport","elevation_ft":"3501","continent":"AS","iso_country":"LB","iso_region":"LB-JL","municipality":"Baadarâne","scheduled_service":"no"},"geometry":{"type":"Point","coordinates":[35.614209,33.636065]}},{"id":"5222","type":"Feature","properties":{"ident":"OLBA","type":"large_airport","name":"Beirut Rafic Hariri International Airport","elevation_ft":"87","continent":"AS","iso_country":"LB","iso_region":"LB-JL","municipality":"Beirut","scheduled_service":"yes","gps_code":"OLBA","iata_code":"BEY","home_link":"http://www.beirutairport.gov.lb/","wikipedia_link":"https://en.wikipedia.org/wiki/Beirut_Rafic_Hariri_International_Airport","keywords":"Chaldea, Beirut Air Base, مطار بيروت رفيق الحريري الدولي"},"geometry":{"type":"Point","coordinates":[35.4884,33.8209]}},{"id":"512006","type":"Feature","properties":{"ident":"SY-0028","type":"small_airport","name":"Jabbour Airfield","continent":"AS","iso_country":"LB","iso_region":"LB-JA","municipality":"Dahr El-Darjeh","scheduled_service":"no"},"geometry":{"type":"Point","coordinates":[35.608798,33.473974]}},{"id":"340568","type":"Feature","properties":{"ident":"LB-0002","type":"heliport","name":"LAU Medical Center Rizk Hospital Helipad","continent":"AS","iso_country":"LB","iso_region":"LB-BA","municipality":"Beirut","scheduled_service":"no"},"geometry":{"type":"Point","coordinates":[35.515414,33.885044]}},{"id":"340573","type":"Feature","properties":{"ident":"LB-0006","type":"small_airport","name":"Marjayoun Airfield","continent":"AS","iso_country":"LB","iso_region":"LB-NA","municipality":"Kafr Kila","scheduled_service":"no"},"geometry":{"type":"Point","coordinates":[35.578101,33.294663]}},{"id":"5224","type":"Feature","properties":{"ident":"OLRA","type":"medium_airport","name":"Rayak Air Base","elevation_ft":"3018","continent":"AS","iso_country":"LB","iso_region":"LB-BI","municipality":"Rayak","scheduled_service":"no","gps_code":"OLRA","wikipedia_link":"https://en.wikipedia.org/wiki/Rayak_Air_Base"},"geometry":{"type":"Point","coordinates":[35.987701,33.8508]}},{"id":"5223","type":"Feature","properties":{"ident":"OLKA","type":"medium_airport","name":"Rene Mouawad Air Base / Kleyate Airport","elevation_ft":"75","continent":"AS","iso_country":"LB","iso_region":"LB-AS","municipality":"Tripoli","scheduled_service":"no","gps_code":"OLKA","iata_code":"KYE","wikipedia_link":"https://en.wikipedia.org/wiki/Rene_Mouawad_Air_Base","keywords":"Kleyate Airport, Al Qulay`at, Qulayaat, El Qlaïaat, Ṭarābulus, مطار الرئيس الشهيد رينيه"},"geometry":{"type":"Point","coordinates":[36.011299,34.589298]}},{"id":"340567","type":"Feature","properties":{"ident":"LB-0001","type":"heliport","name":"St George Hospital Helipad","continent":"AS","iso_country":"LB","iso_region":"LB-BA","municipality":"Beirut","scheduled_service":"no"},"geometry":{"type":"Point","coordinates":[35.52346,33.893873]}},{"id":"340574","type":"Feature","properties":{"ident":"LB-0007","type":"small_airport","name":"Tel al Zaatar Airfield","continent":"AS","iso_country":"LB","iso_region":"LB-JL","municipality":"Dekwaneh","scheduled_service":"no"},"geometry":{"type":"Point","coordinates":[35.55294,33.86781]}},{"id":"44936","type":"Feature","properties":{"ident":"Z19O","type":"medium_airport","name":"Wujah Al Hajar Air Base","elevation_ft":"840","continent":"AS","iso_country":"LB","iso_region":"LB-AS","municipality":"Hamat","scheduled_service":"no","local_code":"Z19O","wikipedia_link":"https://en.wikipedia.org/wiki/Wujah_Al_Hajar_Air_Base"},"geometry":{"type":"Point","coordinates":[35.680096,34.281226]}}]}