{"type":"FeatureCollection","features":[{"id":"31283","type":"Feature","properties":{"ident":"FXBB","type":"small_airport","name":"Bobete Airport","elevation_ft":"7100","continent":"AF","iso_country":"LS","iso_region":"LS-K","municipality":"Bobete","scheduled_service":"no","gps_code":"FXBB"},"geometry":{"type":"Point","coordinates":[28.667,-29.424999]}},{"id":"30017","type":"Feature","properties":{"ident":"FXKA","type":"small_airport","name":"Katse Airport","elevation_ft":"7000","continent":"AF","iso_country":"LS","iso_region":"LS-K","municipality":"Katse","scheduled_service":"no","gps_code":"FXKA"},"geometry":{"type":"Point","coordinates":[28.5273,-29.363701]}},{"id":"31284","type":"Feature","properties":{"ident":"FXKB","type":"small_airport","name":"Kolberg Airport","elevation_ft":"7000","continent":"AF","iso_country":"LS","iso_region":"LS-K","municipality":"Kolberg","scheduled_service":"no","gps_code":"FXKB"},"geometry":{"type":"Point","coordinates":[28.4907,-29.380301]}},{"id":"525285","type":"Feature","properties":{"ident":"FXKY","type":"small_airport","name":"Kuebunyane Airstrip","elevation_ft":"7495","continent":"AF","iso_country":"LS","iso_region":"LS-F","scheduled_service":"no","gps_code":"FXKY"},"geometry":{"type":"Point","coordinates":[28.361411,-29.884519]}},{"id":"31806","type":"Feature","properties":{"ident":"FXLK","type":"small_airport","name":"Lebakeng Airport","elevation_ft":"6000","continent":"AF","iso_country":"LS","iso_region":"LS-H","municipality":"Lebakeng","scheduled_service":"no","gps_code":"FXLK","iata_code":"LEF","wikipedia_link":"https://en.wikipedia.org/wiki/Lebakeng_Airport"},"geometry":{"type":"Point","coordinates":[28.6556,-29.8908]}},{"id":"30070","type":"Feature","properties":{"ident":"FXLR","type":"small_airport","name":"Leribe Airport","elevation_ft":"5350","continent":"AF","iso_country":"LS","iso_region":"LS-C","municipality":"Leribe","scheduled_service":"no","gps_code":"FXLR","iata_code":"LRB","wikipedia_link":"https://en.wikipedia.org/wiki/Leribe_Airport"},"geometry":{"type":"Point","coordinates":[28.052799,-28.8556]}},{"id":"31808","type":"Feature","properties":{"ident":"FXLS","type":"small_airport","name":"Lesobeng Airport","elevation_ft":"7130","continent":"AF","iso_country":"LS","iso_region":"LS-F","municipality":"Lesobeng","scheduled_service":"no","gps_code":"FXLS","iata_code":"LES"},"geometry":{"type":"Point","coordinates":[28.357054,-29.755583]}},{"id":"30075","type":"Feature","properties":{"ident":"FXLT","type":"small_airport","name":"Letseng Airport","elevation_ft":"10400","continent":"AF","iso_country":"LS","iso_region":"LS-J","municipality":"Letseng","scheduled_service":"no","gps_code":"FXLT"},"geometry":{"type":"Point","coordinates":[28.8547,-29.0093]}},{"id":"30097","type":"Feature","properties":{"ident":"FXMF","type":"small_airport","name":"Mafeteng Airport","elevation_ft":"5350","continent":"AF","iso_country":"LS","iso_region":"LS-E","municipality":"Mafeteng","scheduled_service":"no","gps_code":"FXMF","iata_code":"MFC","wikipedia_link":"https://en.wikipedia.org/wiki/Mafeteng_Airport"},"geometry":{"type":"Point","coordinates":[27.243601,-29.8011]}},{"id":"31287","type":"Feature","properties":{"ident":"FXML","type":"small_airport","name":"Malefiloane Airstrip","elevation_ft":"8267","continent":"AF","iso_country":"LS","iso_region":"LS-J","municipality":"Malefiloane","scheduled_service":"no","gps_code":"FXML"},"geometry":{"type":"Point","coordinates":[29.185301,-29.335501]}},{"id":"31288","type":"Feature","properties":{"ident":"FXMN","type":"small_airport","name":"Mantsonyane Airport","elevation_ft":"7100","continent":"AF","iso_country":"LS","iso_region":"LS-K","municipality":"Mantsonyane","scheduled_service":"no","gps_code":"FXMN"},"geometry":{"type":"Point","coordinates":[28.270569,-29.54515]}},{"id":"31290","type":"Feature","properties":{"ident":"FXMS","type":"small_airport","name":"Mashai Store Airport","elevation_ft":"7300","continent":"AF","iso_country":"LS","iso_region":"LS-K","municipality":"Mashai Store","scheduled_service":"no","gps_code":"FXMS"},"geometry":{"type":"Point","coordinates":[28.805082,-29.678025]}},{"id":"31291","type":"Feature","properties":{"ident":"FXMT","type":"small_airport","name":"Matabeng Store Airport","elevation_ft":"6300","continent":"AF","iso_country":"LS","iso_region":"LS-K","municipality":"Matabeng Store","scheduled_service":"no","gps_code":"FXMT"},"geometry":{"type":"Point","coordinates":[28.767,-29.783001]}},{"id":"31292","type":"Feature","properties":{"ident":"FXMV","type":"small_airport","name":"Matabeng Village Airport","elevation_ft":"6150","continent":"AF","iso_country":"LS","iso_region":"LS-K","municipality":"Matabeng Village","scheduled_service":"no","gps_code":"FXMV"},"geometry":{"type":"Point","coordinates":[28.808201,-29.814699]}},{"id":"31285","type":"Feature","properties":{"ident":"FXMA","type":"small_airport","name":"Matsaile Airport","elevation_ft":"6200","continent":"AF","iso_country":"LS","iso_region":"LS-K","municipality":"Matsaile","scheduled_service":"no","gps_code":"FXMA","iata_code":"MSG","local_code":"MSG","wikipedia_link":"https://en.wikipedia.org/wiki/Matsaile_Airport"},"geometry":{"type":"Point","coordinates":[28.77668,-29.840562]}},{"id":"3023","type":"Feature","properties":{"ident":"FXMU","type":"small_airport","name":"Mejametalana Airbase","elevation_ft":"5105","continent":"AF","iso_country":"LS","iso_region":"LS-A","municipality":"Maseru","scheduled_service":"no","gps_code":"FXMU"},"geometry":{"type":"Point","coordinates":[27.5035,-29.3041]}},{"id":"31286","type":"Feature","properties":{"ident":"FXMH","type":"small_airport","name":"Mohale's Hoek Airport","elevation_ft":"5146","continent":"AF","iso_country":"LS","iso_region":"LS-F","municipality":"Mohale's Hoek","scheduled_service":"no","gps_code":"FXMH"},"geometry":{"type":"Point","coordinates":[27.4708,-30.144501]}},{"id":"31289","type":"Feature","properties":{"ident":"FXMP","type":"small_airport","name":"Mohlanapeng Airport","elevation_ft":"7294","continent":"AF","iso_country":"LS","iso_region":"LS-K","municipality":"Mohlanapeng","scheduled_service":"no","gps_code":"FXMP"},"geometry":{"type":"Point","coordinates":[28.683001,-29.583]}},{"id":"30149","type":"Feature","properties":{"ident":"FXMK","type":"small_airport","name":"Mokhotlong Airport","elevation_ft":"7200","continent":"AF","iso_country":"LS","iso_region":"LS-J","municipality":"Mokhotlong","scheduled_service":"no","gps_code":"FXMK","iata_code":"MKH","wikipedia_link":"https://en.wikipedia.org/wiki/Mokhotlong_Airport"},"geometry":{"type":"Point","coordinates":[29.0728,-29.281799]}},{"id":"3022","type":"Feature","properties":{"ident":"FXMM","type":"medium_airport","name":"Moshoeshoe I International Airport","elevation_ft":"5348","continent":"AF","iso_country":"LS","iso_region":"LS-A","municipality":"Maseru","scheduled_service":"yes","gps_code":"FXMM","iata_code":"MSU","wikipedia_link":"https://en.wikipedia.org/wiki/Moshoeshoe_I_International_Airport"},"geometry":{"type":"Point","coordinates":[27.5525,-29.462299]}},{"id":"32035","type":"Feature","properties":{"ident":"FXNK","type":"small_airport","name":"Nkaus Airport","elevation_ft":"5621","continent":"AF","iso_country":"LS","iso_region":"LS-F","municipality":"Nkaus","scheduled_service":"no","gps_code":"FXNK","iata_code":"NKU","wikipedia_link":"https://en.wikipedia.org/wiki/Nkaus_Airport","keywords":"Nkau"},"geometry":{"type":"Point","coordinates":[28.196899,-30.0217]}},{"id":"31293","type":"Feature","properties":{"ident":"FXNH","type":"small_airport","name":"Nohanas Airport","elevation_ft":"5400","continent":"AF","iso_country":"LS","iso_region":"LS-F","municipality":"Nohanas","scheduled_service":"no","gps_code":"FXNH"},"geometry":{"type":"Point","coordinates":[27.867001,-30.066999]}},{"id":"32151","type":"Feature","properties":{"ident":"FXPG","type":"small_airport","name":"Pelaneng Airport","elevation_ft":"7200","continent":"AF","iso_country":"LS","iso_region":"LS-C","municipality":"Pelaneng","scheduled_service":"no","gps_code":"FXPG","iata_code":"PEL","wikipedia_link":"https://en.wikipedia.org/wiki/Pelaneng_Airport"},"geometry":{"type":"Point","coordinates":[28.497222,-29.088056]}},{"id":"30309","type":"Feature","properties":{"ident":"FXQN","type":"small_airport","name":"Qacha's Nek Airport","elevation_ft":"6100","continent":"AF","iso_country":"LS","iso_region":"LS-H","municipality":"Qacha's Nek","scheduled_service":"no","gps_code":"FXQN","iata_code":"UNE","wikipedia_link":"https://en.wikipedia.org/wiki/Qacha%27s_Nek_Airport"},"geometry":{"type":"Point","coordinates":[28.6719,-30.1117]}},{"id":"32557","type":"Feature","properties":{"ident":"FXQG","type":"small_airport","name":"Quthing Airport","elevation_ft":"5350","continent":"AF","iso_country":"LS","iso_region":"LS-G","municipality":"Quthing","scheduled_service":"no","gps_code":"FXQG","iata_code":"UTG","wikipedia_link":"https://en.wikipedia.org/wiki/Quthing_Airport"},"geometry":{"type":"Point","coordinates":[27.6933,-30.407499]}},{"id":"31294","type":"Feature","properties":{"ident":"FXSE","type":"small_airport","name":"Sehlabathebe Airport","elevation_ft":"7300","continent":"AF","iso_country":"LS","iso_region":"LS-H","municipality":"Sehlabathebe","scheduled_service":"no","gps_code":"FXSE"},"geometry":{"type":"Point","coordinates":[29.038799,-29.9158]}},{"id":"30404","type":"Feature","properties":{"ident":"FXSH","type":"small_airport","name":"Sehonghong Airport","elevation_ft":"6500","continent":"AF","iso_country":"LS","iso_region":"LS-K","municipality":"Sehonghong","scheduled_service":"no","gps_code":"FXSH","iata_code":"SHK","wikipedia_link":"https://en.wikipedia.org/wiki/Sehonghong_Airport"},"geometry":{"type":"Point","coordinates":[28.767945,-29.731088]}},{"id":"32317","type":"Feature","properties":{"ident":"FXSK","type":"small_airport","name":"Sekakes Airport","elevation_ft":"5700","continent":"AF","iso_country":"LS","iso_region":"LS-H","municipality":"Sekakes","scheduled_service":"no","gps_code":"FXSK","iata_code":"SKQ","wikipedia_link":"https://en.wikipedia.org/wiki/Sekake_Airport"},"geometry":{"type":"Point","coordinates":[28.3703,-30.0389]}},{"id":"30405","type":"Feature","properties":{"ident":"FXSM","type":"small_airport","name":"Semonkong Airport","elevation_ft":"7200","continent":"AF","iso_country":"LS","iso_region":"LS-A","municipality":"Semonkong","scheduled_service":"no","gps_code":"FXSM","iata_code":"SOK","wikipedia_link":"https://en.wikipedia.org/wiki/Semonkong_Airport"},"geometry":{"type":"Point","coordinates":[28.059999,-29.8386]}},{"id":"32298","type":"Feature","properties":{"ident":"FXSS","type":"small_airport","name":"Seshutes Airport","elevation_ft":"7000","continent":"AF","iso_country":"LS","iso_region":"LS-C","municipality":"Seshutes","scheduled_service":"no","gps_code":"FXSS","iata_code":"SHZ","wikipedia_link":"https://en.wikipedia.org/wiki/Seshutes_Airport"},"geometry":{"type":"Point","coordinates":[28.552299,-29.267599]}},{"id":"31295","type":"Feature","properties":{"ident":"FXST","type":"small_airport","name":"St. Theresa Airport","elevation_ft":"6800","continent":"AF","iso_country":"LS","iso_region":"LS-K","municipality":"St. Theresa","scheduled_service":"no","gps_code":"FXST"},"geometry":{"type":"Point","coordinates":[28.783001,-29.617001]}},{"id":"31296","type":"Feature","properties":{"ident":"FXTB","type":"small_airport","name":"Tebellong Airport","elevation_ft":"5600","continent":"AF","iso_country":"LS","iso_region":"LS-H","municipality":"Tebellong","scheduled_service":"no","gps_code":"FXTB"},"geometry":{"type":"Point","coordinates":[28.433001,-30.049999]}},{"id":"32442","type":"Feature","properties":{"ident":"FXTA","type":"small_airport","name":"Thaba-Tseka Airport","elevation_ft":"7500","continent":"AF","iso_country":"LS","iso_region":"LS-K","municipality":"Thaba-Tseka","scheduled_service":"no","gps_code":"FXTA","iata_code":"THB","wikipedia_link":"https://en.wikipedia.org/wiki/Thaba_Tseka_Airport"},"geometry":{"type":"Point","coordinates":[28.615801,-29.5228]}},{"id":"32453","type":"Feature","properties":{"ident":"FXTK","type":"small_airport","name":"Tlokoeng Airport","elevation_ft":"7000","continent":"AF","iso_country":"LS","iso_region":"LS-J","municipality":"Tlokoeng","scheduled_service":"no","gps_code":"FXTK","iata_code":"TKO","wikipedia_link":"https://en.wikipedia.org/wiki/Tlokoeng_Airport"},"geometry":{"type":"Point","coordinates":[28.882999,-29.233]}}]}