{"type":"FeatureCollection","features":[{"id":"299328","type":"Feature","properties":{"ident":"AIP","type":"small_airport","name":"Ailinglaplap Airok Airport","elevation_ft":"16","continent":"OC","iso_country":"MH","iso_region":"MH-ALL","municipality":"Bigatyelang Island","scheduled_service":"no","iata_code":"AIC","wikipedia_link":"https://en.wikipedia.org/wiki/Ailinglaplap_Airok_Airport"},"geometry":{"type":"Point","coordinates":[168.8257,7.279422]}},{"id":"35201","type":"Feature","properties":{"ident":"MH-AIM","type":"small_airport","name":"Ailuk Airport","continent":"OC","iso_country":"MH","iso_region":"MH-ALK","municipality":"Ailuk Island","scheduled_service":"no","iata_code":"AIM","wikipedia_link":"https://en.wikipedia.org/wiki/Ailuk_Airport"},"geometry":{"type":"Point","coordinates":[169.983002,10.2168]}},{"id":"30661","type":"Feature","properties":{"ident":"MH-AUL","type":"small_airport","name":"Aur Island Airport","continent":"OC","iso_country":"MH","iso_region":"MH-AUR","municipality":"Aur Atoll","scheduled_service":"yes","iata_code":"AUL","wikipedia_link":"https://en.wikipedia.org/wiki/Aur_Airport"},"geometry":{"type":"Point","coordinates":[171.173004,8.14528]}},{"id":"5490","type":"Feature","properties":{"ident":"PKWA","type":"medium_airport","name":"Bucholz Army Air Field","elevation_ft":"9","continent":"OC","iso_country":"MH","iso_region":"MH-KWA","municipality":"Kwajalein","scheduled_service":"yes","icao_code":"PKWA","iata_code":"KWA","gps_code":"PKWA","local_code":"KWA","wikipedia_link":"https://en.wikipedia.org/wiki/Bucholz_Army_Airfield"},"geometry":{"type":"Point","coordinates":[167.731995,8.72012]}},{"id":"5489","type":"Feature","properties":{"ident":"PKRO","type":"small_airport","name":"Dyess Army Air Field","elevation_ft":"9","continent":"OC","iso_country":"MH","iso_region":"MH-KWA","municipality":"Roi-Namur","scheduled_service":"no","gps_code":"PKRO","local_code":"ROI","wikipedia_link":"https://en.wikipedia.org/wiki/Dyess_Army_Airfield","keywords":"FreeFlight"},"geometry":{"type":"Point","coordinates":[167.470993,9.39689]}},{"id":"30976","type":"Feature","properties":{"ident":"MH-EBN","type":"small_airport","name":"Ebadon Airport","continent":"OC","iso_country":"MH","iso_region":"MH-KWA","municipality":"Ebadon Island","scheduled_service":"no","iata_code":"EBN"},"geometry":{"type":"Point","coordinates":[166.820007,9.33056]}},{"id":"312833","type":"Feature","properties":{"ident":"EBO","type":"small_airport","name":"Ebon Airport","elevation_ft":"8","continent":"OC","iso_country":"MH","iso_region":"MH-EBO","municipality":"Ebon Atoll","scheduled_service":"no","iata_code":"EBO","wikipedia_link":"https://en.wikipedia.org/wiki/Ebon_Airport"},"geometry":{"type":"Point","coordinates":[168.752,4.5982]}},{"id":"302489","type":"Feature","properties":{"ident":"EAL","type":"small_airport","name":"Elenak Airport","elevation_ft":"16","continent":"OC","iso_country":"MH","iso_region":"MH-KWA","municipality":"Mejato Island","scheduled_service":"no","iata_code":"EAL","wikipedia_link":"https://en.wikipedia.org/wiki/Elenak_Airport"},"geometry":{"type":"Point","coordinates":[166.847778,9.319306]}},{"id":"317874","type":"Feature","properties":{"ident":"EJT","type":"small_airport","name":"Enejit Airport","elevation_ft":"30","continent":"OC","iso_country":"MH","iso_region":"MH-MIL","municipality":"Enejit Island","scheduled_service":"yes","iata_code":"EJT","wikipedia_link":"https://en.wikipedia.org/wiki/Enejit_Airport","keywords":"Enajet"},"geometry":{"type":"Point","coordinates":[171.9846,6.0404]}},{"id":"5487","type":"Feature","properties":{"ident":"PKMA","type":"small_airport","name":"Eniwetok Airport","elevation_ft":"13","continent":"OC","iso_country":"MH","iso_region":"MH-ENI","municipality":"Eniwetok Atoll","scheduled_service":"yes","icao_code":"PKMA","iata_code":"ENT","gps_code":"PKMA","wikipedia_link":"https://en.wikipedia.org/wiki/Enewetak_Airport"},"geometry":{"type":"Point","coordinates":[162.328003,11.3407]}},{"id":"30730","type":"Feature","properties":{"ident":"MH-BII","type":"small_airport","name":"Enyu Airfield","continent":"OC","iso_country":"MH","iso_region":"MH-BIK","municipality":"Bikini Atoll","scheduled_service":"yes","iata_code":"BII","wikipedia_link":"https://en.wikipedia.org/wiki/Bikini_Atoll_Airport","keywords":"Bikini Atoll Airport"},"geometry":{"type":"Point","coordinates":[165.565002,11.5225]}},{"id":"4655","type":"Feature","properties":{"ident":"N20","type":"small_airport","name":"Ine Airport","elevation_ft":"4","continent":"OC","iso_country":"MH","iso_region":"MH-ARN","municipality":"Arno Atoll","scheduled_service":"no","iata_code":"IMI","gps_code":"N20","local_code":"N20","wikipedia_link":"https://en.wikipedia.org/wiki/Ine_Airport"},"geometry":{"type":"Point","coordinates":[171.656959,7.005553]}},{"id":"35202","type":"Feature","properties":{"ident":"MH-JAT","type":"small_airport","name":"Jabot Airport","elevation_ft":"20","continent":"OC","iso_country":"MH","iso_region":"MH-JAB","municipality":"Ailinglapalap Atoll","scheduled_service":"no","iata_code":"JAT","wikipedia_link":"https://en.wikipedia.org/wiki/Jabot_Airport"},"geometry":{"type":"Point","coordinates":[168.977838,7.749775]}},{"id":"32527","type":"Feature","properties":{"ident":"MH-UIT","type":"small_airport","name":"Jaluit Airport","elevation_ft":"4","continent":"OC","iso_country":"MH","iso_region":"MH-JAL","municipality":"Jabor Jaluit Atoll","scheduled_service":"yes","iata_code":"UIT","gps_code":"N55","local_code":"N55","wikipedia_link":"https://en.wikipedia.org/wiki/Jaluit_Airport"},"geometry":{"type":"Point","coordinates":[169.637256,5.909213]}},{"id":"35203","type":"Feature","properties":{"ident":"MH-JEJ","type":"small_airport","name":"Jeh Airport","elevation_ft":"10","continent":"OC","iso_country":"MH","iso_region":"MH-ALL","municipality":"Ailinglapalap Atoll","scheduled_service":"yes","iata_code":"JEJ","local_code":"JEJ","wikipedia_link":"https://en.wikipedia.org/wiki/Jeh_Airport"},"geometry":{"type":"Point","coordinates":[168.962006,7.56535]}},{"id":"31729","type":"Feature","properties":{"ident":"KBT","type":"small_airport","name":"Kaben Airport","continent":"OC","iso_country":"MH","iso_region":"MH-MAL","municipality":"Kaben","scheduled_service":"no","iata_code":"KBT","wikipedia_link":"https://en.wikipedia.org/wiki/Kaben#Airport"},"geometry":{"type":"Point","coordinates":[170.843994,8.90056]}},{"id":"4659","type":"Feature","properties":{"ident":"Q51","type":"small_airport","name":"Kili Airport","elevation_ft":"5","continent":"OC","iso_country":"MH","iso_region":"MH-KIL","municipality":"Kili Island","scheduled_service":"yes","iata_code":"KIO","gps_code":"C51","local_code":"C51","wikipedia_link":"https://en.wikipedia.org/wiki/Kili_Airport","keywords":"Q51"},"geometry":{"type":"Point","coordinates":[169.124586,5.64386]}},{"id":"31834","type":"Feature","properties":{"ident":"MH-LML","type":"small_airport","name":"Lae Island Airport","continent":"OC","iso_country":"MH","iso_region":"MH-LAE","municipality":"Lae Island","scheduled_service":"no","iata_code":"LML","wikipedia_link":"https://en.wikipedia.org/wiki/Lae_Airport"},"geometry":{"type":"Point","coordinates":[166.264999,8.92111]}},{"id":"35204","type":"Feature","properties":{"ident":"MH-LIK","type":"small_airport","name":"Likiep Airport","continent":"OC","iso_country":"MH","iso_region":"MH-LIK","municipality":"Likiep Island","scheduled_service":"yes","iata_code":"LIK","wikipedia_link":"https://en.wikipedia.org/wiki/Likiep_Airport"},"geometry":{"type":"Point","coordinates":[169.307999,9.82316]}},{"id":"35205","type":"Feature","properties":{"ident":"MH-MJE","type":"small_airport","name":"Majkin Airport","elevation_ft":"24","continent":"OC","iso_country":"MH","iso_region":"MH-NMU","municipality":"Majkin","scheduled_service":"yes","iata_code":"MJE","wikipedia_link":"https://en.wikipedia.org/wiki/Majkin_Airport"},"geometry":{"type":"Point","coordinates":[168.173862,8.163362]}},{"id":"31878","type":"Feature","properties":{"ident":"MH-MAV","type":"small_airport","name":"Maloelap Island Airport","elevation_ft":"4","continent":"OC","iso_country":"MH","iso_region":"MH-MAL","municipality":"Maloelap Island","scheduled_service":"no","iata_code":"MAV","gps_code":"3N1","local_code":"3N1","wikipedia_link":"https://en.wikipedia.org/wiki/Maloelap_Airport"},"geometry":{"type":"Point","coordinates":[171.229996,8.70444]}},{"id":"5488","type":"Feature","properties":{"ident":"PKMJ","type":"medium_airport","name":"Marshall Islands International Airport","elevation_ft":"6","continent":"OC","iso_country":"MH","iso_region":"MH-MAJ","municipality":"Majuro Atoll","scheduled_service":"yes","icao_code":"PKMJ","iata_code":"MAJ","gps_code":"PKMJ","local_code":"MAJ","wikipedia_link":"https://en.wikipedia.org/wiki/Marshall_Islands_International_Airport"},"geometry":{"type":"Point","coordinates":[171.272003,7.06476]}},{"id":"31913","type":"Feature","properties":{"ident":"MH-MJB","type":"small_airport","name":"Mejit Atoll Airport","elevation_ft":"5","continent":"OC","iso_country":"MH","iso_region":"MH-MEJ","municipality":"Mejit Atoll","scheduled_service":"no","iata_code":"MJB","gps_code":"C30","local_code":"C30","wikipedia_link":"https://en.wikipedia.org/wiki/Mejit_Airport","keywords":"Q30"},"geometry":{"type":"Point","coordinates":[170.869,10.283302]}},{"id":"31910","type":"Feature","properties":{"ident":"MLIP","type":"small_airport","name":"Mili Island Airport","elevation_ft":"4","continent":"OC","iso_country":"MH","iso_region":"MH-MIL","municipality":"Mili Island","scheduled_service":"yes","iata_code":"MIJ","gps_code":"1Q9","local_code":"1Q9","wikipedia_link":"https://en.wikipedia.org/wiki/Mili_Airport"},"geometry":{"type":"Point","coordinates":[171.731419,6.084754]}},{"id":"32015","type":"Feature","properties":{"ident":"MH-NDK","type":"small_airport","name":"Namorik Airport","elevation_ft":"15","continent":"OC","iso_country":"MH","iso_region":"MH-NMK","municipality":"Namorik Atoll","scheduled_service":"no","iata_code":"NDK","gps_code":"3N0","local_code":"3N0","wikipedia_link":"https://en.wikipedia.org/wiki/Namorik_Airport","keywords":"Namdrik"},"geometry":{"type":"Point","coordinates":[168.125631,5.633005]}},{"id":"32218","type":"Feature","properties":{"ident":"MH-RNP","type":"small_airport","name":"Rongelap Island Airport","continent":"OC","iso_country":"MH","iso_region":"MH-RON","municipality":"Rongelap Island","scheduled_service":"yes","iata_code":"RNP","wikipedia_link":"https://en.wikipedia.org/wiki/Rongelap_Airport"},"geometry":{"type":"Point","coordinates":[166.886993,11.1572]}},{"id":"309427","type":"Feature","properties":{"ident":"TBV","type":"small_airport","name":"Tabal Airstrip","elevation_ft":"32","continent":"OC","iso_country":"MH","iso_region":"MH-AUR","municipality":"Tabal Island","scheduled_service":"no","iata_code":"TBV"},"geometry":{"type":"Point","coordinates":[171.1615,8.3027]}},{"id":"32447","type":"Feature","properties":{"ident":"MH-TIC","type":"small_airport","name":"Tinak Airport","elevation_ft":"4","continent":"OC","iso_country":"MH","iso_region":"MH-ARN","municipality":"Arno Atoll","scheduled_service":"no","iata_code":"TIC","gps_code":"N18","local_code":"N18","wikipedia_link":"https://en.wikipedia.org/wiki/Tinak_Airport"},"geometry":{"type":"Point","coordinates":[171.911584,7.121768]}},{"id":"32529","type":"Feature","properties":{"ident":"MH-0004","type":"small_airport","name":"Ujae Atoll Airport","elevation_ft":"29","continent":"OC","iso_country":"MH","iso_region":"MH-UJA","municipality":"Ujae Atoll","scheduled_service":"yes","iata_code":"UJE","local_code":"UJAP","wikipedia_link":"https://en.wikipedia.org/wiki/Ujae_Airport"},"geometry":{"type":"Point","coordinates":[165.761993,8.92806]}},{"id":"4650","type":"Feature","properties":{"ident":"03N","type":"small_airport","name":"Utirik Airport","elevation_ft":"4","continent":"OC","iso_country":"MH","iso_region":"MH-UTI","municipality":"Utirik Island","scheduled_service":"no","iata_code":"UTK","gps_code":"03N","local_code":"03N","wikipedia_link":"https://en.wikipedia.org/wiki/Utirik_Airport"},"geometry":{"type":"Point","coordinates":[169.851429,11.222219]}},{"id":"35206","type":"Feature","properties":{"ident":"MH-WJA","type":"small_airport","name":"Woja Airport","continent":"OC","iso_country":"MH","iso_region":"MH-ALL","municipality":"Woja","scheduled_service":"no","iata_code":"WJA","wikipedia_link":"https://en.wikipedia.org/wiki/Woja_Airport"},"geometry":{"type":"Point","coordinates":[168.55,7.450833]}},{"id":"32681","type":"Feature","properties":{"ident":"MH-WTO","type":"small_airport","name":"Wotho Island Airport","continent":"OC","iso_country":"MH","iso_region":"MH-WTN","municipality":"Wotho Island","scheduled_service":"yes","iata_code":"WTO","wikipedia_link":"https://en.wikipedia.org/wiki/Wotho_Airport"},"geometry":{"type":"Point","coordinates":[166.003006,10.1733]}},{"id":"32680","type":"Feature","properties":{"ident":"MH-WTE","type":"small_airport","name":"Wotje Airport","elevation_ft":"4","continent":"OC","iso_country":"MH","iso_region":"MH-WTJ","municipality":"Wotje","scheduled_service":"yes","iata_code":"WTE","gps_code":"N36","local_code":"N36","wikipedia_link":"https://en.wikipedia.org/wiki/Wotje_Airport"},"geometry":{"type":"Point","coordinates":[170.238611,9.458333]}}]}