{"type":"FeatureCollection","features":[{"id":"29654","type":"Feature","properties":{"ident":"ZMAT","type":"medium_airport","name":"Altai Airport","elevation_ft":"7260","continent":"AS","iso_country":"MN","iso_region":"MN-065","municipality":"Altai","scheduled_service":"yes","gps_code":"ZMAT","iata_code":"LTI","wikipedia_link":"https://en.wikipedia.org/wiki/Altai_Airport"},"geometry":{"type":"Point","coordinates":[96.2211,46.3764]}},{"id":"29670","type":"Feature","properties":{"ident":"ZMAH","type":"medium_airport","name":"Arvaikheer Airport","elevation_ft":"5932","continent":"AS","iso_country":"MN","iso_region":"MN-055","municipality":"Arvaikheer","scheduled_service":"yes","gps_code":"ZMAH","iata_code":"AVK","wikipedia_link":"https://en.wikipedia.org/wiki/Arvaikheer_Airport"},"geometry":{"type":"Point","coordinates":[102.802002,46.250301]}},{"id":"27207","type":"Feature","properties":{"ident":"ZMBU","type":"medium_airport","name":"Baruun Urt Airport","elevation_ft":"3205","continent":"AS","iso_country":"MN","iso_region":"MN-051","scheduled_service":"no","gps_code":"ZMBU","iata_code":"UUN","wikipedia_link":"https://en.wikipedia.org/wiki/Baruun-Urt_Airport"},"geometry":{"type":"Point","coordinates":[113.285004,46.660301]}},{"id":"507381","type":"Feature","properties":{"ident":"MN-5Z","type":"small_airport","name":"Bayan Suma Airport","continent":"AS","iso_country":"MN","iso_region":"MN-047","municipality":"Bagakhangai","scheduled_service":"no"},"geometry":{"type":"Point","coordinates":[107.4567,47.3667]}},{"id":"27206","type":"Feature","properties":{"ident":"ZMBH","type":"medium_airport","name":"Bayankhongor Airport","elevation_ft":"6085","continent":"AS","iso_country":"MN","iso_region":"MN-069","municipality":"Bayankhongor","scheduled_service":"yes","gps_code":"ZMBH","iata_code":"BYN","wikipedia_link":"https://en.wikipedia.org/wiki/Bayankhongor_Airport"},"geometry":{"type":"Point","coordinates":[100.704002,46.1633]}},{"id":"507382","type":"Feature","properties":{"ident":"MN-60","type":"small_airport","name":"Bayantal Air Base","continent":"AS","iso_country":"MN","iso_region":"MN-064","municipality":"Bayantal","scheduled_service":"no"},"geometry":{"type":"Point","coordinates":[108.3233,46.5767]}},{"id":"32748","type":"Feature","properties":{"ident":"ZMBD","type":"small_airport","name":"Binder Airport","elevation_ft":"3422","continent":"AS","iso_country":"MN","iso_region":"MN-039","municipality":"Binder","scheduled_service":"no","gps_code":"ZMBD"},"geometry":{"type":"Point","coordinates":[110.608002,48.606701]}},{"id":"29735","type":"Feature","properties":{"ident":"ZMBR","type":"small_airport","name":"Bulagtai Resort Airport","elevation_ft":"4659","continent":"AS","iso_country":"MN","iso_region":"MN-053","municipality":"Khankhongor","scheduled_service":"no","gps_code":"ZMBR","iata_code":"UGT"},"geometry":{"type":"Point","coordinates":[104.114985,43.749304]}},{"id":"29736","type":"Feature","properties":{"ident":"ZMBN","type":"medium_airport","name":"Bulgan Airport","elevation_ft":"4311","continent":"AS","iso_country":"MN","iso_region":"MN-067","municipality":"Bulgan","scheduled_service":"yes","gps_code":"ZMBN","iata_code":"UGA","wikipedia_link":"https://en.wikipedia.org/wiki/Bulgan_Airport"},"geometry":{"type":"Point","coordinates":[103.475998,48.855]}},{"id":"355968","type":"Feature","properties":{"ident":"MN-0003","type":"small_airport","name":"Bulgan Airport","elevation_ft":"4311","continent":"AS","iso_country":"MN","iso_region":"MN-053","municipality":"Bulgan","scheduled_service":"no"},"geometry":{"type":"Point","coordinates":[103.53464,44.09521]}},{"id":"29737","type":"Feature","properties":{"ident":"ZMBS","type":"small_airport","name":"Bulgan Sum Airport","elevation_ft":"3921","continent":"AS","iso_country":"MN","iso_region":"MN-043","municipality":"Bulgan","scheduled_service":"no","gps_code":"ZMBS","iata_code":"HBU","wikipedia_link":"https://en.wikipedia.org/wiki/Bulgan_Airport,_Khovd"},"geometry":{"type":"Point","coordinates":[91.584198,46.100601]}},{"id":"27212","type":"Feature","properties":{"ident":"ZMUB","type":"medium_airport","name":"Buyant-Ukhaa International Airport","elevation_ft":"4364","continent":"AS","iso_country":"MN","iso_region":"MN-1","municipality":"Ulaanbaatar","scheduled_service":"no","gps_code":"ZMUB","iata_code":"ULN","wikipedia_link":"https://en.wikipedia.org/wiki/Buyant-Ukhaa_International_Airport","keywords":"Chinggis Khaan International"},"geometry":{"type":"Point","coordinates":[106.766998,47.843102]}},{"id":"27208","type":"Feature","properties":{"ident":"ZMCD","type":"medium_airport","name":"Choibalsan Airport","elevation_ft":"2457","continent":"AS","iso_country":"MN","iso_region":"MN-061","scheduled_service":"no","gps_code":"ZMCD","iata_code":"COQ","wikipedia_link":"https://en.wikipedia.org/wiki/Choibalsan_airport"},"geometry":{"type":"Point","coordinates":[114.646004,48.1357]}},{"id":"308754","type":"Feature","properties":{"ident":"ZMDA","type":"small_airport","name":"Dadal Airport","elevation_ft":"3220","continent":"AS","iso_country":"MN","iso_region":"MN-039","municipality":"Dadal","scheduled_service":"no","gps_code":"ZMDA","wikipedia_link":"https://en.wikipedia.org/wiki/Dadal_Airport"},"geometry":{"type":"Point","coordinates":[111.509,49.0124]}},{"id":"27209","type":"Feature","properties":{"ident":"ZMDZ","type":"medium_airport","name":"Dalanzadgad Airport","elevation_ft":"4787","continent":"AS","iso_country":"MN","iso_region":"MN-053","municipality":"Dalanzadgad","scheduled_service":"yes","gps_code":"ZMDZ","iata_code":"DLZ","wikipedia_link":"https://en.wikipedia.org/wiki/Dalanzadgad_Airport"},"geometry":{"type":"Point","coordinates":[104.367734,43.608628]}},{"id":"308755","type":"Feature","properties":{"ident":"ZMDN","type":"small_airport","name":"Donoi Airport","elevation_ft":"5800","continent":"AS","iso_country":"MN","iso_region":"MN-057","municipality":"Uliastai","scheduled_service":"yes","gps_code":"ZMDN","iata_code":"ULZ","wikipedia_link":"https://en.wikipedia.org/wiki/Donoi_Airport","keywords":"New Uliastai Airport"},"geometry":{"type":"Point","coordinates":[96.5258,47.7093]}},{"id":"302496","type":"Feature","properties":{"ident":"ERT","type":"small_airport","name":"Erdenet Airport","elevation_ft":"4200","continent":"AS","iso_country":"MN","iso_region":"MN-035","municipality":"Erdenet","scheduled_service":"no","iata_code":"ERT"},"geometry":{"type":"Point","coordinates":[104.150556,48.983056]}},{"id":"32539","type":"Feature","properties":{"ident":"MN-ULZ","type":"small_airport","name":"Jibhalanta Airport","continent":"AS","iso_country":"MN","iso_region":"MN-057","municipality":"Uliastai","scheduled_service":"no","keywords":"ULZ"},"geometry":{"type":"Point","coordinates":[96.847198,47.714699]}},{"id":"308351","type":"Feature","properties":{"ident":"ZMOT","type":"small_airport","name":"Khanbumbat Airport","elevation_ft":"3924","continent":"AS","iso_country":"MN","iso_region":"MN-053","municipality":"Khanbogd","scheduled_service":"no","gps_code":"ZMKB","home_link":"http://ot.mn/","wikipedia_link":"https://en.wikipedia.org/wiki/Khanbumbat_Airport","keywords":"ZMOT, Oyu Tolgoi, Umnugobi"},"geometry":{"type":"Point","coordinates":[106.843509,43.145552]}},{"id":"302315","type":"Feature","properties":{"ident":"ZMHH","type":"small_airport","name":"Kharkhorin Airport","elevation_ft":"4759","continent":"AS","iso_country":"MN","iso_region":"MN-055","scheduled_service":"no","gps_code":"ZMHH","iata_code":"KHR","wikipedia_link":"https://en.wikipedia.org/wiki/Kharkhorin_Airport"},"geometry":{"type":"Point","coordinates":[102.826111,47.246667]}},{"id":"308210","type":"Feature","properties":{"ident":"HTM","type":"small_airport","name":"Khatgal Airport","elevation_ft":"5500","continent":"AS","iso_country":"MN","iso_region":"MN-041","municipality":"Hatgal","scheduled_service":"no","gps_code":"ZMHG","iata_code":"HTM","wikipedia_link":"https://en.wikipedia.org/wiki/Khatgal_Airport"},"geometry":{"type":"Point","coordinates":[100.139532,50.435988]}},{"id":"27210","type":"Feature","properties":{"ident":"ZMKD","type":"medium_airport","name":"Khovd Airport","elevation_ft":"4898","continent":"AS","iso_country":"MN","iso_region":"MN-043","municipality":"Khovd","scheduled_service":"yes","gps_code":"ZMKD","iata_code":"HVD","wikipedia_link":"https://en.wikipedia.org/wiki/Khovd_Airport","keywords":"Hovd, Kobdo"},"geometry":{"type":"Point","coordinates":[91.628197,47.954102]}},{"id":"30025","type":"Feature","properties":{"ident":"ZMHU","type":"small_airport","name":"Khujirt Airport","elevation_ft":"5522","continent":"AS","iso_country":"MN","iso_region":"MN-055","municipality":"Khujirt","scheduled_service":"no","gps_code":"ZMHU","iata_code":"HJT","wikipedia_link":"https://en.wikipedia.org/wiki/Khujirt_Airport"},"geometry":{"type":"Point","coordinates":[102.773003,46.9258]}},{"id":"31983","type":"Feature","properties":{"ident":"MN-MXW","type":"small_airport","name":"Mandalgobi Airport","elevation_ft":"4550","continent":"AS","iso_country":"MN","iso_region":"MN-059","municipality":"Mandalgobi","scheduled_service":"yes","gps_code":"ZMMG","iata_code":"MXW","wikipedia_link":"https://en.wikipedia.org/wiki/Mandalgovi_Airport"},"geometry":{"type":"Point","coordinates":[106.268997,45.738098]}},{"id":"27211","type":"Feature","properties":{"ident":"ZMMN","type":"medium_airport","name":"Mörön Airport","elevation_ft":"4272","continent":"AS","iso_country":"MN","iso_region":"MN-041","municipality":"Mörön","scheduled_service":"yes","gps_code":"ZMMN","iata_code":"MXV","wikipedia_link":"https://en.wikipedia.org/wiki/M%C3%B6r%C3%B6n_Airport","keywords":"Muren"},"geometry":{"type":"Point","coordinates":[100.098999,49.6633]}},{"id":"526469","type":"Feature","properties":{"ident":"ZMSF","type":"small_airport","name":"Nalaikh/Sky Friends Airport","elevation_ft":"4829","continent":"AS","iso_country":"MN","iso_region":"MN-1","scheduled_service":"no","gps_code":"ZMSF"},"geometry":{"type":"Point","coordinates":[107.437778,47.773056]}},{"id":"507380","type":"Feature","properties":{"ident":"MN-5M","type":"small_airport","name":"Nalayh Air Base","continent":"AS","iso_country":"MN","iso_region":"MN-1","municipality":"Ulaanbaatar","scheduled_service":"no"},"geometry":{"type":"Point","coordinates":[107.3717,47.7417]}},{"id":"354385","type":"Feature","properties":{"ident":"ZMGT","type":"small_airport","name":"Ovoot Airport","elevation_ft":"5171","continent":"AS","iso_country":"MN","iso_region":"MN-053","municipality":"Ovoot Tolgoi","scheduled_service":"no","gps_code":"ZMGT","wikipedia_link":"https://en.wikipedia.org/wiki/Ovoot_Airport"},"geometry":{"type":"Point","coordinates":[101.333781,43.01192]}},{"id":"30373","type":"Feature","properties":{"ident":"ZMSH","type":"small_airport","name":"Sainshand Airport","elevation_ft":"3022","continent":"AS","iso_country":"MN","iso_region":"MN-063","municipality":"Sainshand","scheduled_service":"no","gps_code":"ZMSH"},"geometry":{"type":"Point","coordinates":[110.17651,44.984831]}},{"id":"507385","type":"Feature","properties":{"ident":"MN-0005","type":"medium_airport","name":"Shine Bulagin Hural Air Base","continent":"AS","iso_country":"MN","iso_region":"MN-063","municipality":"Dalanjargalan","scheduled_service":"no"},"geometry":{"type":"Point","coordinates":[109.1233,45.9467]}},{"id":"308765","type":"Feature","properties":{"ident":"ZMTL","type":"small_airport","name":"Tosontsengel Airport","elevation_ft":"5610","continent":"AS","iso_country":"MN","iso_region":"MN-057","municipality":"Tosontsengel","scheduled_service":"no","gps_code":"ZMTL","iata_code":"TNZ"},"geometry":{"type":"Point","coordinates":[98.2941,48.73887]}},{"id":"308764","type":"Feature","properties":{"ident":"ZMTG","type":"small_airport","name":"Tsetserleg Airport","elevation_ft":"5530","continent":"AS","iso_country":"MN","iso_region":"MN-073","municipality":"Tsetserleg","scheduled_service":"no","gps_code":"ZMTG","iata_code":"TSZ"},"geometry":{"type":"Point","coordinates":[101.483804,47.461476]}},{"id":"335326","type":"Feature","properties":{"ident":"ZMCK","type":"large_airport","name":"Ulaanbaatar Chinggis Khaan International Airport","elevation_ft":"4482","continent":"AS","iso_country":"MN","iso_region":"MN-047","municipality":"Ulaanbaatar (Sergelen)","scheduled_service":"yes","gps_code":"ZMCK","iata_code":"UBN","home_link":"https://ulaanbaatar-airport.mn/","wikipedia_link":"https://en.wikipedia.org/wiki/New_Ulaanbaatar_International_Airport","keywords":"Khöshig Valley"},"geometry":{"type":"Point","coordinates":[106.819833,47.646916]}},{"id":"302316","type":"Feature","properties":{"ident":"ZMUG","type":"small_airport","name":"Ulaangom Airport","continent":"AS","iso_country":"MN","iso_region":"MN-046","municipality":"Ulaangom","scheduled_service":"yes","gps_code":"ZMUG","iata_code":"ULO","wikipedia_link":"https://en.wikipedia.org/wiki/Ulaangom_Airport"},"geometry":{"type":"Point","coordinates":[91.938273,50.066588]}},{"id":"525046","type":"Feature","properties":{"ident":"ZMTT","type":"small_airport","name":"Umnugobi/Tavan Tolgoi Airport","elevation_ft":"4793","continent":"AS","iso_country":"MN","iso_region":"MN-053","municipality":"Tsogttsetsii","scheduled_service":"no","gps_code":"ZMTT","wikipedia_link":"https://en.wikipedia.org/wiki/Tavan_Tolgoi_Airport"},"geometry":{"type":"Point","coordinates":[105.578667,43.773667]}},{"id":"30505","type":"Feature","properties":{"ident":"ZMUL","type":"small_airport","name":"Ölgii Mongolei Airport","elevation_ft":"5732","continent":"AS","iso_country":"MN","iso_region":"MN-071","municipality":"Ölgii","scheduled_service":"yes","gps_code":"ZMUL","iata_code":"ULG","wikipedia_link":"https://en.wikipedia.org/wiki/%C3%96lgii_Airport","keywords":"Ulgii Mongolei"},"geometry":{"type":"Point","coordinates":[89.922501,48.993301]}},{"id":"308767","type":"Feature","properties":{"ident":"ZUMH","type":"small_airport","name":"Öndörkhaan Airport","elevation_ft":"3410","continent":"AS","iso_country":"MN","iso_region":"MN-039","municipality":"Öndörkhaan","scheduled_service":"no","gps_code":"ZMUH","iata_code":"UNR","keywords":"Undur Khan"},"geometry":{"type":"Point","coordinates":[110.6092,47.30486]}}]}