{"type":"FeatureCollection","features":[{"id":"4778","type":"Feature","properties":{"ident":"C21","type":"heliport","name":"Commonwealth Health Center Heliport","elevation_ft":"16","continent":"OC","iso_country":"MP","iso_region":"MP-U-A","municipality":"Garapan, Saipan","scheduled_service":"no","local_code":"C21"},"geometry":{"type":"Point","coordinates":[145.72457,15.209759]}},{"id":"4781","type":"Feature","properties":{"ident":"HI63","type":"heliport","name":"Coral Ocean Point Pro-Shop Heliport","elevation_ft":"125","continent":"OC","iso_country":"MP","iso_region":"MP-U-A","municipality":"Koblerville, Saipan","scheduled_service":"no","gps_code":"HI63","local_code":"HI63"},"geometry":{"type":"Point","coordinates":[145.701649,15.114978]}},{"id":"4777","type":"Feature","properties":{"ident":"0TT8","type":"heliport","name":"Dynasty Heliport","elevation_ft":"150","continent":"OC","iso_country":"MP","iso_region":"MP-U-A","municipality":"San Jose, Tinian","scheduled_service":"no","gps_code":"0TT8","local_code":"0TT8"},"geometry":{"type":"Point","coordinates":[145.631075,14.960012]}},{"id":"4785","type":"Feature","properties":{"ident":"TT04","type":"heliport","name":"Gualo Rai Heliport","elevation_ft":"250","continent":"OC","iso_country":"MP","iso_region":"MP-U-A","municipality":"Gualo Rai, Saipan","scheduled_service":"no","gps_code":"TT04","local_code":"TT04"},"geometry":{"type":"Point","coordinates":[145.724157,15.188155]}},{"id":"4784","type":"Feature","properties":{"ident":"TT03","type":"heliport","name":"Nikko Heliport","elevation_ft":"60","continent":"OC","iso_country":"MP","iso_region":"MP-U-A","municipality":"San Roque, Saipan","scheduled_service":"no","gps_code":"TT03","local_code":"TT03"},"geometry":{"type":"Point","coordinates":[145.783005,15.25]}},{"id":"4783","type":"Feature","properties":{"ident":"TT01","type":"small_airport","name":"Pagan Airstrip","elevation_ft":"34","continent":"OC","iso_country":"MP","iso_region":"MP-U-A","municipality":"Shomu-Shon, Pagan","scheduled_service":"no","gps_code":"TT01","local_code":"TT01","wikipedia_link":"https://en.wikipedia.org/wiki/Pagan_Airstrip"},"geometry":{"type":"Point","coordinates":[145.763347,18.12317]}},{"id":"5430","type":"Feature","properties":{"ident":"PGRO","type":"medium_airport","name":"Rota International Airport","elevation_ft":"607","continent":"OC","iso_country":"MP","iso_region":"MP-U-A","municipality":"Rota Island","scheduled_service":"yes","gps_code":"PGRO","iata_code":"ROP","local_code":"GRO","wikipedia_link":"https://en.wikipedia.org/wiki/Rota_International_Airport"},"geometry":{"type":"Point","coordinates":[145.242996,14.1743]}},{"id":"5431","type":"Feature","properties":{"ident":"PGSN","type":"medium_airport","name":"Saipan International Airport","elevation_ft":"215","continent":"OC","iso_country":"MP","iso_region":"MP-U-A","municipality":"I Fadang, Saipan","scheduled_service":"yes","gps_code":"PGSN","iata_code":"SPN","local_code":"GSN","wikipedia_link":"https://en.wikipedia.org/wiki/Saipan_International_Airport","keywords":"Francisco C. Ada"},"geometry":{"type":"Point","coordinates":[145.729004,15.119]}},{"id":"4782","type":"Feature","properties":{"ident":"HI64","type":"heliport","name":"Tinian Dynasty Heliport","elevation_ft":"175","continent":"OC","iso_country":"MP","iso_region":"MP-U-A","municipality":"San Jose, Tinian","scheduled_service":"no","gps_code":"HI64","local_code":"HI64","keywords":"Tinian Star Heliport"},"geometry":{"type":"Point","coordinates":[145.629863,14.962748]}},{"id":"4780","type":"Feature","properties":{"ident":"HI22","type":"heliport","name":"Tinian Heliport","elevation_ft":"75","continent":"OC","iso_country":"MP","iso_region":"MP-U-A","municipality":"San Jose, Tinian","scheduled_service":"no","gps_code":"HI22","local_code":"HI22"},"geometry":{"type":"Point","coordinates":[145.627127,14.963692]}},{"id":"5434","type":"Feature","properties":{"ident":"PGWT","type":"medium_airport","name":"Tinian International Airport","elevation_ft":"271","continent":"OC","iso_country":"MP","iso_region":"MP-U-A","municipality":"Tinian Island","scheduled_service":"no","gps_code":"PGWT","iata_code":"TIQ","local_code":"TNI","wikipedia_link":"https://en.wikipedia.org/wiki/Tinian_International_Airport"},"geometry":{"type":"Point","coordinates":[145.619003,14.9992]}}]}