{"type":"FeatureCollection","features":[{"id":"4778","type":"Feature","properties":{"ident":"C21","type":"heliport","name":"Commonwealth Health Center Heliport","elevation_ft":"16","continent":"OC","iso_country":"MP","iso_region":"MP-U-A","municipality":"Garapan, Saipan","scheduled_service":"no","local_code":"C21"},"geometry":{"type":"Point","coordinates":[145.72457,15.209759]}},{"id":"4784","type":"Feature","properties":{"ident":"TT03","type":"heliport","name":"Nikko Heliport","elevation_ft":"60","continent":"OC","iso_country":"MP","iso_region":"MP-U-A","municipality":"San Roque, Saipan","scheduled_service":"no","gps_code":"TT03","local_code":"TT03"},"geometry":{"type":"Point","coordinates":[145.783005,15.25]}},{"id":"4783","type":"Feature","properties":{"ident":"TT01","type":"small_airport","name":"Pagan Airstrip","elevation_ft":"34","continent":"OC","iso_country":"MP","iso_region":"MP-U-A","municipality":"Shomu-Shon, Pagan","scheduled_service":"no","gps_code":"TT01","local_code":"TT01","wikipedia_link":"https://en.wikipedia.org/wiki/Pagan_Airstrip"},"geometry":{"type":"Point","coordinates":[145.763347,18.12317]}},{"id":"5430","type":"Feature","properties":{"ident":"PGRO","type":"medium_airport","name":"Rota International Airport","elevation_ft":"607","continent":"OC","iso_country":"MP","iso_region":"MP-U-A","municipality":"Rota Island","scheduled_service":"yes","icao_code":"PGRO","iata_code":"ROP","gps_code":"PGRO","local_code":"GRO","wikipedia_link":"https://en.wikipedia.org/wiki/Rota_International_Airport"},"geometry":{"type":"Point","coordinates":[145.242996,14.1743]}},{"id":"5431","type":"Feature","properties":{"ident":"PGSN","type":"medium_airport","name":"Saipan International Airport","elevation_ft":"215","continent":"OC","iso_country":"MP","iso_region":"MP-U-A","municipality":"I Fadang, Saipan","scheduled_service":"yes","icao_code":"PGSN","iata_code":"SPN","gps_code":"PGSN","local_code":"GSN","wikipedia_link":"https://en.wikipedia.org/wiki/Saipan_International_Airport","keywords":"Francisco C. Ada"},"geometry":{"type":"Point","coordinates":[145.729004,15.119]}},{"id":"5434","type":"Feature","properties":{"ident":"PGWT","type":"medium_airport","name":"Tinian International Airport","elevation_ft":"271","continent":"OC","iso_country":"MP","iso_region":"MP-U-A","municipality":"Tinian Island","scheduled_service":"yes","icao_code":"PGWT","iata_code":"TIQ","gps_code":"PGWT","local_code":"TNI","wikipedia_link":"https://en.wikipedia.org/wiki/Tinian_International_Airport"},"geometry":{"type":"Point","coordinates":[145.61923,14.998101]}}]}