{"type":"FeatureCollection","features":[{"id":"353396","type":"Feature","properties":{"ident":"NI-0003","type":"small_airport","name":"Aeroservicios ALA Airport","elevation_ft":"167","continent":"NA","iso_country":"NI","iso_region":"NI-GR","municipality":"Malacataya","scheduled_service":"no"},"geometry":{"type":"Point","coordinates":[-85.92086,12.19348]}},{"id":"42161","type":"Feature","properties":{"ident":"MNAL","type":"small_airport","name":"Alamicamba Airport","elevation_ft":"65","continent":"NA","iso_country":"NI","iso_region":"NI-AN","municipality":"Alamicamba","scheduled_service":"no","gps_code":"MNAL","wikipedia_link":"https://en.wikipedia.org/wiki/Alamikamba_Airport"},"geometry":{"type":"Point","coordinates":[-84.247101,13.5123]}},{"id":"42169","type":"Feature","properties":{"ident":"MNAM","type":"small_airport","name":"Altamira Airport","elevation_ft":"121","continent":"NA","iso_country":"NI","iso_region":"NI-BO","municipality":"Altamira","scheduled_service":"no","gps_code":"MNAM","wikipedia_link":"https://en.wikipedia.org/wiki/Altamira_Airport_(Nicaragua)"},"geometry":{"type":"Point","coordinates":[-85.716461,12.135983]}},{"id":"4774","type":"Feature","properties":{"ident":"MNMG","type":"medium_airport","name":"Augusto C. Sandino (Managua) International Airport","elevation_ft":"194","continent":"NA","iso_country":"NI","iso_region":"NI-MN","municipality":"Managua","scheduled_service":"yes","gps_code":"MNMG","iata_code":"MGA","wikipedia_link":"https://en.wikipedia.org/wiki/Augusto_C._Sandino_International_Airport"},"geometry":{"type":"Point","coordinates":[-86.168198,12.1415]}},{"id":"4770","type":"Feature","properties":{"ident":"MNBL","type":"medium_airport","name":"Bluefields Airport","elevation_ft":"20","continent":"NA","iso_country":"NI","iso_region":"NI-AS","municipality":"Bluefileds","scheduled_service":"yes","gps_code":"MNBL","iata_code":"BEF","wikipedia_link":"https://en.wikipedia.org/wiki/Bluefields_Airport"},"geometry":{"type":"Point","coordinates":[-83.774101,11.991]}},{"id":"42170","type":"Feature","properties":{"ident":"MNBC","type":"small_airport","name":"Boaco Airport","elevation_ft":"1184","continent":"NA","iso_country":"NI","iso_region":"NI-BO","municipality":"Boaco","scheduled_service":"no","gps_code":"MNBC"},"geometry":{"type":"Point","coordinates":[-85.662598,12.4691]}},{"id":"42171","type":"Feature","properties":{"ident":"MNCH","type":"small_airport","name":"Chinandega Germán Pomares Ordóñez Airport","elevation_ft":"174","continent":"NA","iso_country":"NI","iso_region":"NI-CI","municipality":"Chinandega","scheduled_service":"no","gps_code":"MNCH","wikipedia_link":"https://en.wikipedia.org/wiki/Chinandega_Airport"},"geometry":{"type":"Point","coordinates":[-87.137753,12.639548]}},{"id":"42172","type":"Feature","properties":{"ident":"MNCT","type":"small_airport","name":"Corinto Airport","elevation_ft":"1","continent":"NA","iso_country":"NI","iso_region":"NI-CI","municipality":"Chinandega","scheduled_service":"no","gps_code":"MNCT"},"geometry":{"type":"Point","coordinates":[-87.1772,12.4789]}},{"id":"42164","type":"Feature","properties":{"ident":"MNCI","type":"small_airport","name":"Corn Island Airport","elevation_ft":"1","continent":"NA","iso_country":"NI","iso_region":"NI-AS","municipality":"Corn Island","scheduled_service":"no","gps_code":"MNCI","iata_code":"RNI","wikipedia_link":"https://en.wikipedia.org/wiki/Corn_Island_Airport"},"geometry":{"type":"Point","coordinates":[-83.059445,12.174785]}},{"id":"316239","type":"Feature","properties":{"ident":"MNCE","type":"small_airport","name":"Costa Esmeralda Airport","elevation_ft":"84","continent":"NA","iso_country":"NI","iso_region":"NI-RI","municipality":"Tola","scheduled_service":"yes","gps_code":"MNCE","iata_code":"ECI","local_code":"ECI","home_link":"http://www.mukulresort.com/costa-esmeralda-airport.html","wikipedia_link":"https://en.wikipedia.org/wiki/Costa_Esmeralda_Airport"},"geometry":{"type":"Point","coordinates":[-86.033361,11.427542]}},{"id":"42178","type":"Feature","properties":{"ident":"MNDM","type":"small_airport","name":"Dos Montes Airport","elevation_ft":"1469","continent":"NA","iso_country":"NI","iso_region":"NI-MT","municipality":"Dos Montes","scheduled_service":"no","gps_code":"MNDM"},"geometry":{"type":"Point","coordinates":[-86.1483,12.8005]}},{"id":"42165","type":"Feature","properties":{"ident":"MNFF","type":"small_airport","name":"El Bluff Airport","elevation_ft":"1","continent":"NA","iso_country":"NI","iso_region":"NI-AS","municipality":"El Bluff","scheduled_service":"no","gps_code":"MNFF","wikipedia_link":"https://en.wikipedia.org/wiki/El_Bluff_Airport"},"geometry":{"type":"Point","coordinates":[-83.691745,11.989854]}},{"id":"353398","type":"Feature","properties":{"ident":"NI-0005","type":"small_airport","name":"El Coyol Airport","elevation_ft":"200","continent":"NA","iso_country":"NI","iso_region":"NI-MN","municipality":"Tipitapa","scheduled_service":"no"},"geometry":{"type":"Point","coordinates":[-85.92473,12.22735]}},{"id":"42177","type":"Feature","properties":{"ident":"MNPP","type":"small_airport","name":"El Papalonal Airport","elevation_ft":"141","continent":"NA","iso_country":"NI","iso_region":"NI-LE","municipality":"El Papalonal","scheduled_service":"no","gps_code":"MNPP","wikipedia_link":"https://en.wikipedia.org/wiki/El_Papalonal_Airport"},"geometry":{"type":"Point","coordinates":[-86.467903,12.4657]}},{"id":"42175","type":"Feature","properties":{"ident":"MNES","type":"small_airport","name":"Estelí Airport","elevation_ft":"2811","continent":"NA","iso_country":"NI","iso_region":"NI-ES","municipality":"Estelí","scheduled_service":"no","gps_code":"MNES"},"geometry":{"type":"Point","coordinates":[-86.363297,13.1117]}},{"id":"42173","type":"Feature","properties":{"ident":"MNHG","type":"small_airport","name":"Hato Grande Airport","elevation_ft":"177","continent":"NA","iso_country":"NI","iso_region":"NI-CO","municipality":"Hato Grande","scheduled_service":"no","gps_code":"MNHG","wikipedia_link":"https://en.wikipedia.org/wiki/Hato_Grande_Airport"},"geometry":{"type":"Point","coordinates":[-85.43357,11.981199]}},{"id":"42176","type":"Feature","properties":{"ident":"MNJG","type":"small_airport","name":"Jinotega","elevation_ft":"3232","continent":"NA","iso_country":"NI","iso_region":"NI-JI","municipality":"Jinotega","scheduled_service":"no","gps_code":"MNJG"},"geometry":{"type":"Point","coordinates":[-85.987701,13.0857]}},{"id":"42166","type":"Feature","properties":{"ident":"MNKW","type":"small_airport","name":"Karawala Airport","elevation_ft":"3","continent":"NA","iso_country":"NI","iso_region":"NI-AS","municipality":"Karawala","scheduled_service":"no","gps_code":"MNKW"},"geometry":{"type":"Point","coordinates":[-83.582901,12.8921]}},{"id":"356443","type":"Feature","properties":{"ident":"NI-0010","type":"small_airport","name":"La Cicaya Airport","continent":"NA","iso_country":"NI","iso_region":"NI-CO","municipality":"Hato Grande","scheduled_service":"no"},"geometry":{"type":"Point","coordinates":[-85.44539,11.95437]}},{"id":"343860","type":"Feature","properties":{"ident":"MNMT","type":"small_airport","name":"La Cumplida Airport","elevation_ft":"2420","continent":"NA","iso_country":"NI","iso_region":"NI-MT","municipality":"La Cumplida","scheduled_service":"no","gps_code":"MNMT","wikipedia_link":"https://en.wikipedia.org/wiki/La_Cumplida_Airport","keywords":"Santa Emilia"},"geometry":{"type":"Point","coordinates":[-85.852146,12.996027]}},{"id":"353596","type":"Feature","properties":{"ident":"NI-0006","type":"small_airport","name":"La Esperanza Airport","elevation_ft":"82","continent":"NA","iso_country":"NI","iso_region":"NI-RI","municipality":"San Juan del Sur","scheduled_service":"no"},"geometry":{"type":"Point","coordinates":[-85.90843,11.31509]}},{"id":"353601","type":"Feature","properties":{"ident":"NI-0009","type":"small_airport","name":"Las Chacaras Airport","elevation_ft":"272","continent":"NA","iso_country":"NI","iso_region":"NI-LE","municipality":"Las Chacaras","scheduled_service":"no"},"geometry":{"type":"Point","coordinates":[-86.82237,12.37954]}},{"id":"353397","type":"Feature","properties":{"ident":"NI-0004","type":"small_airport","name":"Las Lajas Airport","elevation_ft":"135","continent":"NA","iso_country":"NI","iso_region":"NI-GR","municipality":"Malacataya","scheduled_service":"no"},"geometry":{"type":"Point","coordinates":[-85.90848,12.15303]}},{"id":"353600","type":"Feature","properties":{"ident":"NI-0008","type":"small_airport","name":"Las Parcelas Airport","elevation_ft":"240","continent":"NA","iso_country":"NI","iso_region":"NI-LE","municipality":"Las Parcelas","scheduled_service":"no"},"geometry":{"type":"Point","coordinates":[-86.78902,12.35403]}},{"id":"4773","type":"Feature","properties":{"ident":"MNLN","type":"small_airport","name":"Leon (Fanor Urroz) Airport","elevation_ft":"328","continent":"NA","iso_country":"NI","iso_region":"NI-LE","municipality":"León","scheduled_service":"no","gps_code":"MNLN","wikipedia_link":"https://en.wikipedia.org/wiki/Le%C3%B3n_Airport_(Nicaragua)"},"geometry":{"type":"Point","coordinates":[-86.902802,12.4292]}},{"id":"4771","type":"Feature","properties":{"ident":"MNBR","type":"small_airport","name":"Los Brasiles Airport","elevation_ft":"262","continent":"NA","iso_country":"NI","iso_region":"NI-MN","municipality":"Los Brasiles","scheduled_service":"no","gps_code":"MNBR","wikipedia_link":"https://en.wikipedia.org/wiki/Los_Brasiles_Airport"},"geometry":{"type":"Point","coordinates":[-86.353897,12.19]}},{"id":"353395","type":"Feature","properties":{"ident":"NI-0002","type":"small_airport","name":"Malacataya Airport","elevation_ft":"131","continent":"NA","iso_country":"NI","iso_region":"NI-GR","municipality":"Malacataya","scheduled_service":"no"},"geometry":{"type":"Point","coordinates":[-85.84428,12.15541]}},{"id":"4775","type":"Feature","properties":{"ident":"MNMR","type":"small_airport","name":"Montelimar Airport","elevation_ft":"94","continent":"NA","iso_country":"NI","iso_region":"NI-MN","municipality":"Montelimar","scheduled_service":"no","gps_code":"MNMR","local_code":"MN1B","wikipedia_link":"https://en.wikipedia.org/wiki/Montelimar_Airport"},"geometry":{"type":"Point","coordinates":[-86.511299,11.8052]}},{"id":"318055","type":"Feature","properties":{"ident":"MNLP","type":"small_airport","name":"Omtepe Airport","elevation_ft":"200","continent":"NA","iso_country":"NI","iso_region":"NI-RI","municipality":"Omtepe Island","scheduled_service":"yes","gps_code":"MNOM","wikipedia_link":"https://en.wikipedia.org/wiki/Ometepe_Airport","keywords":"La Paloma, Moyogalpa"},"geometry":{"type":"Point","coordinates":[-85.702995,11.523616]}},{"id":"4776","type":"Feature","properties":{"ident":"MNPC","type":"medium_airport","name":"Puerto Cabezas Airport","elevation_ft":"52","continent":"NA","iso_country":"NI","iso_region":"NI-AN","municipality":"Puerto Cabezas","scheduled_service":"yes","gps_code":"MNPC","iata_code":"PUZ","wikipedia_link":"https://en.wikipedia.org/wiki/Puerto_Cabezas_Airport"},"geometry":{"type":"Point","coordinates":[-83.386703,14.0472]}},{"id":"4772","type":"Feature","properties":{"ident":"MNFC","type":"small_airport","name":"Punta Huete (Panchito) Airport","elevation_ft":"217","continent":"NA","iso_country":"NI","iso_region":"NI-MN","municipality":"Punta Huete","scheduled_service":"no","gps_code":"MNFC","local_code":"MN1A","wikipedia_link":"https://en.wikipedia.org/wiki/Punta_Huete_Airport"},"geometry":{"type":"Point","coordinates":[-86.182899,12.3534]}},{"id":"42179","type":"Feature","properties":{"ident":"MNRS","type":"small_airport","name":"Rivas","elevation_ft":"174","continent":"NA","iso_country":"NI","iso_region":"NI-RI","municipality":"Rivas","scheduled_service":"no","gps_code":"MNRS"},"geometry":{"type":"Point","coordinates":[-85.838501,11.4277]}},{"id":"31930","type":"Feature","properties":{"ident":"MNRT","type":"small_airport","name":"Rosita Airport","elevation_ft":"193","continent":"NA","iso_country":"NI","iso_region":"NI-AN","municipality":"La Rosita","scheduled_service":"no","gps_code":"MNRT","iata_code":"RFS","wikipedia_link":"https://en.wikipedia.org/wiki/Rosita_Airport"},"geometry":{"type":"Point","coordinates":[-84.408897,13.8897]}},{"id":"42180","type":"Feature","properties":{"ident":"MNSC","type":"small_airport","name":"San Carlos Airport","elevation_ft":"91","continent":"NA","iso_country":"NI","iso_region":"NI-SJ","municipality":"San Carlos","scheduled_service":"no","gps_code":"MNSC","iata_code":"NCR","wikipedia_link":"https://en.wikipedia.org/wiki/San_Carlos_Airport_(Nicaragua)"},"geometry":{"type":"Point","coordinates":[-84.768727,11.13556]}},{"id":"525235","type":"Feature","properties":{"ident":"MNSN","type":"small_airport","name":"San Juan De Nicaragua Airport","elevation_ft":"56","continent":"NA","iso_country":"NI","iso_region":"NI-SJ","municipality":"San Juan de Nicaragua","scheduled_service":"no","gps_code":"MNSN","wikipedia_link":"https://en.wikipedia.org/wiki/San_Juan_de_Nicaragua_Airport"},"geometry":{"type":"Point","coordinates":[-83.707764,10.920328]}},{"id":"30809","type":"Feature","properties":{"ident":"MNBZ","type":"small_airport","name":"San Pedro Airport","elevation_ft":"600","continent":"NA","iso_country":"NI","iso_region":"NI-AN","municipality":"Bonanza","scheduled_service":"no","gps_code":"MNBZ","iata_code":"BZA","wikipedia_link":"https://en.wikipedia.org/wiki/San_Pedro_Airport_(Nicaragua)"},"geometry":{"type":"Point","coordinates":[-84.624311,14.031524]}},{"id":"351336","type":"Feature","properties":{"ident":"NI-0001","type":"small_airport","name":"Santa Elena Airport","elevation_ft":"153","continent":"NA","iso_country":"NI","iso_region":"NI-LE","municipality":"Santa Elena","scheduled_service":"no"},"geometry":{"type":"Point","coordinates":[-86.41501,12.50328]}},{"id":"42163","type":"Feature","properties":{"ident":"MNSI","type":"small_airport","name":"Siuna","elevation_ft":"606","continent":"NA","iso_country":"NI","iso_region":"NI-AN","municipality":"Siuna","scheduled_service":"no","gps_code":"MNSI","iata_code":"SIU","wikipedia_link":"https://en.wikipedia.org/wiki/Siuna_Airport"},"geometry":{"type":"Point","coordinates":[-84.777779,13.727222]}},{"id":"353597","type":"Feature","properties":{"ident":"NI-0007","type":"small_airport","name":"Tierra Dorada Airport","elevation_ft":"190","continent":"NA","iso_country":"NI","iso_region":"NI-AS","municipality":"Kukra Hill","scheduled_service":"no"},"geometry":{"type":"Point","coordinates":[-83.75679,12.25094]}},{"id":"32676","type":"Feature","properties":{"ident":"MNWP","type":"small_airport","name":"Waspam Airport","elevation_ft":"98","continent":"NA","iso_country":"NI","iso_region":"NI-AN","municipality":"Waspam","scheduled_service":"no","gps_code":"MNWP","iata_code":"WSP","wikipedia_link":"https://en.wikipedia.org/wiki/Waspam_Airport"},"geometry":{"type":"Point","coordinates":[-83.969398,14.7392]}}]}