{"type":"FeatureCollection","features":[{"id":"299737","type":"Feature","properties":{"ident":"OM-0002","type":"small_airport","name":"Adam Airport","elevation_ft":"1075","continent":"AS","iso_country":"OM","iso_region":"OM-DA","municipality":"Adam","scheduled_service":"no","iata_code":"AOM","wikipedia_link":"https://en.wikipedia.org/wiki/Adam_Airport"},"geometry":{"type":"Point","coordinates":[57.383889,22.491944]}},{"id":"351868","type":"Feature","properties":{"ident":"OM-0021","type":"heliport","name":"Al Ashkharah Police Heliport","elevation_ft":"30","continent":"AS","iso_country":"OM","iso_region":"OM-SH","municipality":"Al Ashkharah","scheduled_service":"no"},"geometry":{"type":"Point","coordinates":[59.50987,21.78333]}},{"id":"351778","type":"Feature","properties":{"ident":"OM-0016","type":"heliport","name":"Al Haqt Heliport","elevation_ft":"230","continent":"AS","iso_country":"OM","iso_region":"OM-MU","municipality":"Khasab","scheduled_service":"no"},"geometry":{"type":"Point","coordinates":[56.25977,26.12782]}},{"id":"319194","type":"Feature","properties":{"ident":"OM-0005","type":"heliport","name":"Armed Forces Beach Club Helipad","continent":"AS","iso_country":"OM","iso_region":"OM-MA","municipality":"Muscat","scheduled_service":"no"},"geometry":{"type":"Point","coordinates":[58.331587,23.605048]}},{"id":"300791","type":"Feature","properties":{"ident":"BJQ","type":"small_airport","name":"Bahja Airport","elevation_ft":"515","continent":"AS","iso_country":"OM","iso_region":"OM-WU","municipality":"Bahja","scheduled_service":"no","iata_code":"BJQ"},"geometry":{"type":"Point","coordinates":[56.067778,19.873056]}},{"id":"32217","type":"Feature","properties":{"ident":"OOBR","type":"small_airport","name":"Buraimi Airport","elevation_ft":"970","continent":"AS","iso_country":"OM","iso_region":"OM-BU","municipality":"Buraimi","scheduled_service":"no","gps_code":"OOBR","iata_code":"RMB","wikipedia_link":"https://en.wikipedia.org/wiki/Buraimi_Airport"},"geometry":{"type":"Point","coordinates":[55.783674,24.241626]}},{"id":"525853","type":"Feature","properties":{"ident":"OOBB","type":"small_airport","name":"Butabul Airport","elevation_ft":"325","continent":"AS","iso_country":"OM","iso_region":"OM-WU","municipality":"Ramlat Bū Tubūl","scheduled_service":"no","gps_code":"OOBB","wikipedia_link":"https://en.wikipedia.org/wiki/Butabul_Airport"},"geometry":{"type":"Point","coordinates":[55.463682,21.178]}},{"id":"353568","type":"Feature","properties":{"ident":"OM-0035","type":"heliport","name":"Camp Khasab Heliport","elevation_ft":"30","continent":"AS","iso_country":"OM","iso_region":"OM-MU","municipality":"Khasab","scheduled_service":"no"},"geometry":{"type":"Point","coordinates":[56.25135,26.18016]}},{"id":"351944","type":"Feature","properties":{"ident":"OM-0028","type":"heliport","name":"Camp Malik bin Fahm Heliport","elevation_ft":"1070","continent":"AS","iso_country":"OM","iso_region":"OM-ZA","municipality":"Ibri","scheduled_service":"no"},"geometry":{"type":"Point","coordinates":[56.43462,23.19779]}},{"id":"43868","type":"Feature","properties":{"ident":"OM-0001","type":"small_airport","name":"Dibba Airport","elevation_ft":"45","continent":"AS","iso_country":"OM","iso_region":"OM-MU","municipality":"Dibba al Baya","scheduled_service":"no","iata_code":"BYB","wikipedia_link":"https://en.wikipedia.org/wiki/Dibba_Airport"},"geometry":{"type":"Point","coordinates":[56.2444,25.614229]}},{"id":"351864","type":"Feature","properties":{"ident":"OM-0017","type":"heliport","name":"Dibba al Baya Hospital Heliport","elevation_ft":"46","continent":"AS","iso_country":"OM","iso_region":"OM-MU","municipality":"Dibba al Baya","scheduled_service":"no"},"geometry":{"type":"Point","coordinates":[56.24909,25.64326]}},{"id":"299738","type":"Feature","properties":{"ident":"OM-0003","type":"large_airport","name":"Duqm International Airport","elevation_ft":"364","continent":"AS","iso_country":"OM","iso_region":"OM-WU","municipality":"Duqm","scheduled_service":"yes","gps_code":"OODQ","iata_code":"DQM","home_link":"http://www.omanairports.com/","wikipedia_link":"https://en.wikipedia.org/wiki/Duqm_Jaaluni_Airport"},"geometry":{"type":"Point","coordinates":[57.634167,19.501944]}},{"id":"32114","type":"Feature","properties":{"ident":"OOFD","type":"small_airport","name":"Fahud Airport","elevation_ft":"552","continent":"AS","iso_country":"OM","iso_region":"OM-ZA","municipality":"Fahud","scheduled_service":"no","gps_code":"OOFD","iata_code":"FAU","wikipedia_link":"https://en.wikipedia.org/wiki/Fahud_Airport"},"geometry":{"type":"Point","coordinates":[56.484146,22.354759]}},{"id":"32117","type":"Feature","properties":{"ident":"OOHA","type":"small_airport","name":"Haima Airport","elevation_ft":"400","continent":"AS","iso_country":"OM","iso_region":"OM-WU","municipality":"Haima","scheduled_service":"no","gps_code":"OOHA","wikipedia_link":"https://en.wikipedia.org/wiki/Haima_Airport"},"geometry":{"type":"Point","coordinates":[56.282444,19.975608]}},{"id":"299739","type":"Feature","properties":{"ident":"OOIA","type":"small_airport","name":"Ibra Airport","elevation_ft":"1500","continent":"AS","iso_country":"OM","iso_region":"OM-SH","municipality":"Ibra","scheduled_service":"no","gps_code":"OOIA","wikipedia_link":"https://en.wikipedia.org/wiki/Ibra_Airport","keywords":"Al Yahmadi"},"geometry":{"type":"Point","coordinates":[58.513611,22.732778]}},{"id":"351945","type":"Feature","properties":{"ident":"OOII","type":"small_airport","name":"Ibri Airport","elevation_ft":"1069","continent":"AS","iso_country":"OM","iso_region":"OM-ZA","municipality":"Ibri","scheduled_service":"no","gps_code":"OOII","wikipedia_link":"https://en.wikipedia.org/wiki/Ibri_Airport"},"geometry":{"type":"Point","coordinates":[56.43333,23.18626]}},{"id":"32118","type":"Feature","properties":{"ident":"OOIZ","type":"small_airport","name":"Izki Air Base","elevation_ft":"1700","continent":"AS","iso_country":"OM","iso_region":"OM-DA","municipality":"Izki","scheduled_service":"no","gps_code":"OOIZ","wikipedia_link":"https://en.wikipedia.org/wiki/Izki_Air_Base"},"geometry":{"type":"Point","coordinates":[57.759094,22.892627]}},{"id":"352475","type":"Feature","properties":{"ident":"OM-0032","type":"heliport","name":"Izki Police Station Heliport","elevation_ft":"1778","continent":"AS","iso_country":"OM","iso_region":"OM-DA","municipality":"Izki","scheduled_service":"no"},"geometry":{"type":"Point","coordinates":[57.745,22.90529]}},{"id":"315625","type":"Feature","properties":{"ident":"OOJA","type":"small_airport","name":"Ja'Aluni Airport","elevation_ft":"560","continent":"AS","iso_country":"OM","iso_region":"OM-WU","municipality":"Duqm","scheduled_service":"no","gps_code":"OOJA","iata_code":"JNJ","wikipedia_link":"https://en.wikipedia.org/wiki/Ja%27Aluni_Airport"},"geometry":{"type":"Point","coordinates":[57.3083,19.4749]}},{"id":"351869","type":"Feature","properties":{"ident":"OM-0022","type":"heliport","name":"Jalan Bani Bu Hassan Police Heliport","elevation_ft":"364","continent":"AS","iso_country":"OM","iso_region":"OM-SH","municipality":"Jalan Bani Bu Hassan","scheduled_service":"no"},"geometry":{"type":"Point","coordinates":[59.2901,22.08373]}},{"id":"5240","type":"Feature","properties":{"ident":"OOKB","type":"medium_airport","name":"Khasab Airport","elevation_ft":"100","continent":"AS","iso_country":"OM","iso_region":"OM-MU","municipality":"Khasab","scheduled_service":"yes","gps_code":"OOKB","iata_code":"KHS","wikipedia_link":"https://en.wikipedia.org/wiki/Khasab_Airport"},"geometry":{"type":"Point","coordinates":[56.240601,26.171]}},{"id":"353567","type":"Feature","properties":{"ident":"OM-0034","type":"heliport","name":"Khasab Hospital Heliport","elevation_ft":"30","continent":"AS","iso_country":"OM","iso_region":"OM-MU","municipality":"Khasab","scheduled_service":"no"},"geometry":{"type":"Point","coordinates":[56.25193,26.18199]}},{"id":"352986","type":"Feature","properties":{"ident":"OM-0033","type":"heliport","name":"Khoula Hospital Heliport","elevation_ft":"144","continent":"AS","iso_country":"OM","iso_region":"OM-MA","municipality":"Muscat","scheduled_service":"no"},"geometry":{"type":"Point","coordinates":[58.51701,23.61091]}},{"id":"308219","type":"Feature","properties":{"ident":"OOLK","type":"small_airport","name":"Lekhwair Airport","elevation_ft":"354","continent":"AS","iso_country":"OM","iso_region":"OM-ZA","municipality":"Lekhwair","scheduled_service":"no","gps_code":"OOLK","iata_code":"LKW","wikipedia_link":"https://en.wikipedia.org/wiki/Lekhwair_Airport"},"geometry":{"type":"Point","coordinates":[55.372801,22.804866]}},{"id":"348680","type":"Feature","properties":{"ident":"OM-0013","type":"small_airport","name":"Limah Airstrip","elevation_ft":"36","continent":"AS","iso_country":"OM","iso_region":"OM-MU","municipality":"Limah","scheduled_service":"no"},"geometry":{"type":"Point","coordinates":[56.41864,25.94993]}},{"id":"341945","type":"Feature","properties":{"ident":"OM-0008","type":"small_airport","name":"Madha Airport","continent":"AS","iso_country":"OM","iso_region":"OM-MU","municipality":"Madha","scheduled_service":"no"},"geometry":{"type":"Point","coordinates":[56.342934,25.28637]}},{"id":"5225","type":"Feature","properties":{"ident":"OO42","type":"small_airport","name":"Manston Air Base","elevation_ft":"3182","continent":"AS","iso_country":"OM","iso_region":"OM-ZU","municipality":"Manston","scheduled_service":"no","keywords":"OO42"},"geometry":{"type":"Point","coordinates":[53.358799,16.9904]}},{"id":"351941","type":"Feature","properties":{"ident":"OM-0025","type":"small_airport","name":"Maqshin Airport","elevation_ft":"456","continent":"AS","iso_country":"OM","iso_region":"OM-ZU","municipality":"Maqshin","scheduled_service":"no"},"geometry":{"type":"Point","coordinates":[54.8847,19.53667]}},{"id":"351940","type":"Feature","properties":{"ident":"OM-0024","type":"heliport","name":"Maqshin Police Heliport","elevation_ft":"443","continent":"AS","iso_country":"OM","iso_region":"OM-ZU","municipality":"Maqshin","scheduled_service":"no"},"geometry":{"type":"Point","coordinates":[54.91802,19.56336]}},{"id":"5243","type":"Feature","properties":{"ident":"OOMX","type":"small_airport","name":"Marmul Airport","elevation_ft":"925","continent":"AS","iso_country":"OM","iso_region":"OM-ZU","municipality":"Marmul","scheduled_service":"no","gps_code":"OOMX","iata_code":"OMM","wikipedia_link":"https://en.wikipedia.org/wiki/Marmul_Airport"},"geometry":{"type":"Point","coordinates":[55.179005,18.138999]}},{"id":"351866","type":"Feature","properties":{"ident":"OM-0019","type":"heliport","name":"Masirah Hospital Heliport","elevation_ft":"30","continent":"AS","iso_country":"OM","iso_region":"OM-SH","municipality":"Masirah","scheduled_service":"no"},"geometry":{"type":"Point","coordinates":[58.84892,20.58911]}},{"id":"351939","type":"Feature","properties":{"ident":"OM-0023","type":"small_airport","name":"Mudayy Airport","elevation_ft":"1879","continent":"AS","iso_country":"OM","iso_region":"OM-ZU","municipality":"Mudayy","scheduled_service":"no"},"geometry":{"type":"Point","coordinates":[53.36056,17.46854]}},{"id":"300610","type":"Feature","properties":{"ident":"UKH","type":"small_airport","name":"Mukhaizna Airport","elevation_ft":"473","continent":"AS","iso_country":"OM","iso_region":"OM-WU","municipality":"Mukhaizna Oil Field","scheduled_service":"no","gps_code":"OOMK","iata_code":"UKH","wikipedia_link":"https://en.wikipedia.org/wiki/Mukhaizna_Airport"},"geometry":{"type":"Point","coordinates":[56.401389,19.386389]}},{"id":"351867","type":"Feature","properties":{"ident":"OM-0020","type":"small_airport","name":"Mursays Airport","elevation_ft":"82","continent":"AS","iso_country":"OM","iso_region":"OM-SH","municipality":"Mursays","scheduled_service":"no"},"geometry":{"type":"Point","coordinates":[58.79389,20.49128]}},{"id":"5242","type":"Feature","properties":{"ident":"OOMS","type":"large_airport","name":"Muscat International Airport","elevation_ft":"48","continent":"AS","iso_country":"OM","iso_region":"OM-MA","municipality":"Muscat","scheduled_service":"yes","gps_code":"OOMS","iata_code":"MCT","home_link":"https://www.muscatairport.co.om/","wikipedia_link":"https://en.wikipedia.org/wiki/Seeb_International_Airport","keywords":"Seeb International Airport, Masqat"},"geometry":{"type":"Point","coordinates":[58.284401,23.5933]}},{"id":"299747","type":"Feature","properties":{"ident":"OM-0004","type":"medium_airport","name":"Mussanah Airport","elevation_ft":"372","continent":"AS","iso_country":"OM","iso_region":"OM-BA","municipality":"Al Masna'ah","scheduled_service":"no","gps_code":"OOMN","iata_code":"MNH","wikipedia_link":"https://en.wikipedia.org/wiki/Rustaq_Airport","keywords":"Musanaa, Wadi al Maawil, Al Muladdah, OORQ, Rustaq Airport"},"geometry":{"type":"Point","coordinates":[57.4875,23.640556]}},{"id":"342191","type":"Feature","properties":{"ident":"OM-0009","type":"small_airport","name":"Oman Flying Club Airport","elevation_ft":"384","continent":"AS","iso_country":"OM","iso_region":"OM-MA","municipality":"Al Jafnayn","scheduled_service":"no"},"geometry":{"type":"Point","coordinates":[58.24631,23.50882]}},{"id":"32116","type":"Feature","properties":{"ident":"OOGB","type":"small_airport","name":"Qarn Alam Airport","elevation_ft":"443","continent":"AS","iso_country":"OM","iso_region":"OM-WU","municipality":"Ghaba","scheduled_service":"no","gps_code":"OOGB","iata_code":"RNM","wikipedia_link":"https://en.wikipedia.org/wiki/Qarn_Alam_Airport"},"geometry":{"type":"Point","coordinates":[57.056293,21.377199]}},{"id":"5241","type":"Feature","properties":{"ident":"OOMA","type":"medium_airport","name":"RAFO Masirah","elevation_ft":"64","continent":"AS","iso_country":"OM","iso_region":"OM-SH","municipality":"Masirah","scheduled_service":"no","gps_code":"OOMA","iata_code":"MSH","wikipedia_link":"https://en.wikipedia.org/wiki/RAFO_Masirah"},"geometry":{"type":"Point","coordinates":[58.890499,20.6754]}},{"id":"351946","type":"Feature","properties":{"ident":"OM-0029","type":"heliport","name":"Ramlet Khelah Border Post Heliport","elevation_ft":"266","continent":"AS","iso_country":"OM","iso_region":"OM-ZA","municipality":"Ramlet Khelah","scheduled_service":"no"},"geometry":{"type":"Point","coordinates":[55.55033,22.23992]}},{"id":"340196","type":"Feature","properties":{"ident":"OM-0007","type":"medium_airport","name":"Ras Al Hadd Airport","continent":"AS","iso_country":"OM","iso_region":"OM-SH","municipality":"Ras ar Ruays","scheduled_service":"no","gps_code":"OORH","wikipedia_link":"https://en.wikipedia.org/wiki/Ras_al_Hadd_Airport"},"geometry":{"type":"Point","coordinates":[59.74067,22.25691]}},{"id":"342192","type":"Feature","properties":{"ident":"OM-0010","type":"small_airport","name":"Rawdah Airstrip","elevation_ft":"1322","continent":"AS","iso_country":"OM","iso_region":"OM-MU","municipality":"Rawdah","scheduled_service":"no"},"geometry":{"type":"Point","coordinates":[56.28591,25.86257]}},{"id":"352473","type":"Feature","properties":{"ident":"OM-0030","type":"heliport","name":"Safah Heliport","elevation_ft":"453","continent":"AS","iso_country":"OM","iso_region":"OM-ZA","municipality":"Safah","scheduled_service":"no"},"geometry":{"type":"Point","coordinates":[55.52892,23.16644]}},{"id":"32119","type":"Feature","properties":{"ident":"OOSQ","type":"small_airport","name":"Saiq Airport","elevation_ft":"6500","continent":"AS","iso_country":"OM","iso_region":"OM-DA","municipality":"Saiq","scheduled_service":"no","gps_code":"OOSQ","wikipedia_link":"https://en.wikipedia.org/wiki/Saiq_Airport"},"geometry":{"type":"Point","coordinates":[57.643271,23.075545]}},{"id":"5244","type":"Feature","properties":{"ident":"OOSA","type":"medium_airport","name":"Salalah Airport","elevation_ft":"73","continent":"AS","iso_country":"OM","iso_region":"OM-ZU","municipality":"Salalah","scheduled_service":"yes","gps_code":"OOSA","iata_code":"SLL","home_link":"http://www.dgcam.gov.om/str/airsalah.htm","wikipedia_link":"https://en.wikipedia.org/wiki/Salalah_Airport","keywords":"مطار صلالة"},"geometry":{"type":"Point","coordinates":[54.091301,17.0387]}},{"id":"356224","type":"Feature","properties":{"ident":"OM-0036","type":"small_airport","name":"Sarfayt Airport","elevation_ft":"4360","continent":"AS","iso_country":"OM","iso_region":"OM-ZU","municipality":"Sarfayt","scheduled_service":"no"},"geometry":{"type":"Point","coordinates":[53.09786,16.7011]}},{"id":"352474","type":"Feature","properties":{"ident":"OM-0031","type":"heliport","name":"Shafa Army Heliport","elevation_ft":"1358","continent":"AS","iso_country":"OM","iso_region":"OM-DA","municipality":"Shafa","scheduled_service":"no"},"geometry":{"type":"Point","coordinates":[57.72572,22.73856]}},{"id":"299742","type":"Feature","properties":{"ident":"OOSH","type":"small_airport","name":"Sohar Airport","elevation_ft":"20","continent":"AS","iso_country":"OM","iso_region":"OM-BA","municipality":"Sohar","scheduled_service":"yes","gps_code":"OOSH","iata_code":"OHS","wikipedia_link":"https://en.wikipedia.org/wiki/Sohar_Airport","keywords":"Majis"},"geometry":{"type":"Point","coordinates":[56.62541,24.38604]}},{"id":"351865","type":"Feature","properties":{"ident":"OM-0018","type":"heliport","name":"Sur Hospital Heliport","elevation_ft":"184","continent":"AS","iso_country":"OM","iso_region":"OM-SH","municipality":"Sur","scheduled_service":"no"},"geometry":{"type":"Point","coordinates":[59.443,22.50996]}},{"id":"5245","type":"Feature","properties":{"ident":"OOTH","type":"medium_airport","name":"Thumrait Air Base","elevation_ft":"1570","continent":"AS","iso_country":"OM","iso_region":"OM-ZU","municipality":"Thumrait","scheduled_service":"no","gps_code":"OOTH","iata_code":"TTH","wikipedia_link":"https://en.wikipedia.org/wiki/RAFO_Thumrait"},"geometry":{"type":"Point","coordinates":[54.024601,17.666]}},{"id":"348681","type":"Feature","properties":{"ident":"OM-0014","type":"heliport","name":"Tibat Border Crossing Heliport","elevation_ft":"10","continent":"AS","iso_country":"OM","iso_region":"OM-MU","municipality":"Tibat","scheduled_service":"no"},"geometry":{"type":"Point","coordinates":[56.087372,26.054464]}},{"id":"348678","type":"Feature","properties":{"ident":"OM-0011","type":"small_airport","name":"Umm al Ghanam Airport","elevation_ft":"34","continent":"AS","iso_country":"OM","iso_region":"OM-MU","municipality":"Kumzar","scheduled_service":"no"},"geometry":{"type":"Point","coordinates":[56.3568,26.36779]}},{"id":"348679","type":"Feature","properties":{"ident":"OM-0012","type":"heliport","name":"Umm al Ghanam Heliport","elevation_ft":"82","continent":"AS","iso_country":"OM","iso_region":"OM-MU","municipality":"Kumzar","scheduled_service":"no"},"geometry":{"type":"Point","coordinates":[56.35747,26.3656]}},{"id":"351776","type":"Feature","properties":{"ident":"OM-0015","type":"heliport","name":"Wab al Sebil Heliport","elevation_ft":"510","continent":"AS","iso_country":"OM","iso_region":"OM-MU","municipality":"Sall Ala","scheduled_service":"no"},"geometry":{"type":"Point","coordinates":[56.3357,26.0502]}},{"id":"43202","type":"Feature","properties":{"ident":"OOYB","type":"small_airport","name":"Yibal Airport","continent":"AS","iso_country":"OM","iso_region":"OM-ZA","municipality":"Yibal","scheduled_service":"no","gps_code":"OOYB","wikipedia_link":"https://en.wikipedia.org/wiki/Yibal_Airport","keywords":"Jibal"},"geometry":{"type":"Point","coordinates":[56.034401,22.2015]}},{"id":"351942","type":"Feature","properties":{"ident":"OM-0026","type":"heliport","name":"Yibal Heliport","elevation_ft":"447","continent":"AS","iso_country":"OM","iso_region":"OM-ZA","municipality":"Yibal","scheduled_service":"no"},"geometry":{"type":"Point","coordinates":[56.09366,22.18483]}},{"id":"351943","type":"Feature","properties":{"ident":"OM-0027","type":"small_airport","name":"Yibal West Airport","elevation_ft":"341","continent":"AS","iso_country":"OM","iso_region":"OM-ZA","municipality":"Yibal","scheduled_service":"no"},"geometry":{"type":"Point","coordinates":[55.99709,22.18087]}}]}