{"type":"FeatureCollection","features":[{"id":"39621","type":"Feature","properties":{"ident":"SPCR","type":"small_airport","name":"Acarí Airbase Airport","elevation_ft":"540","continent":"SA","iso_country":"PE","iso_region":"PE-ARE","municipality":"Acarí","scheduled_service":"no","gps_code":"SPCR"},"geometry":{"type":"Point","coordinates":[-74.666672,-15.5]}},{"id":"356336","type":"Feature","properties":{"ident":"PE-0030","type":"small_airport","name":"Aeroclub Alas del Mar","continent":"SA","iso_country":"PE","iso_region":"PE-LIM","municipality":"Santa María del Mar","scheduled_service":"no"},"geometry":{"type":"Point","coordinates":[-76.76806,-12.40001]}},{"id":"39616","type":"Feature","properties":{"ident":"SPAT","type":"small_airport","name":"Aguas Calientes Airport","elevation_ft":"9840","continent":"SA","iso_country":"PE","iso_region":"PE-HUC","municipality":"Aguas Calientes","scheduled_service":"no","gps_code":"SPAT"},"geometry":{"type":"Point","coordinates":[-74.683296,-8.83333]}},{"id":"39611","type":"Feature","properties":{"ident":"SPAG","type":"small_airport","name":"Aguaytia Airport","elevation_ft":"5853","continent":"SA","iso_country":"PE","iso_region":"PE-UCA","municipality":"Aguaytia","scheduled_service":"no","gps_code":"SPAG"},"geometry":{"type":"Point","coordinates":[-75.509201,-9.03741]}},{"id":"6213","type":"Feature","properties":{"ident":"SPHI","type":"medium_airport","name":"Air Force Captain Jose A Quinones Gonzales International Airport","elevation_ft":"97","continent":"SA","iso_country":"PE","iso_region":"PE-LAM","municipality":"Chiclayo","scheduled_service":"yes","icao_code":"SPHI","iata_code":"CIX","gps_code":"SPHI","wikipedia_link":"https://en.wikipedia.org/wiki/Cap._FAP_Jos%C3%A9_A._Qui%C3%B1ones_Gonzales_International_Airport"},"geometry":{"type":"Point","coordinates":[-79.828102,-6.78748]}},{"id":"6214","type":"Feature","properties":{"ident":"SPHO","type":"medium_airport","name":"Air Force Colonel Alfredo Mendivil Duarte Airport","elevation_ft":"8917","continent":"SA","iso_country":"PE","iso_region":"PE-AYA","municipality":"Ayacucho","scheduled_service":"yes","icao_code":"SPHO","iata_code":"AYP","gps_code":"SPHO","wikipedia_link":"https://en.wikipedia.org/wiki/Coronel_FAP_Alfredo_Mendivil_Duarte_Airport","keywords":"Coronel FAP Alfredo Mendivil Duarte"},"geometry":{"type":"Point","coordinates":[-74.204399,-13.1548]}},{"id":"39613","type":"Feature","properties":{"ident":"SPAL","type":"small_airport","name":"Alao Airport","elevation_ft":"1740","continent":"SA","iso_country":"PE","iso_region":"PE-SAM","municipality":"El Dorado","scheduled_service":"no","gps_code":"SPAL"},"geometry":{"type":"Point","coordinates":[-76.716698,-6.5]}},{"id":"6243","type":"Feature","properties":{"ident":"SPZO","type":"large_airport","name":"Alejandro Velasco Astete International Airport","elevation_ft":"10860","continent":"SA","iso_country":"PE","iso_region":"PE-CUS","municipality":"Cusco","scheduled_service":"yes","icao_code":"SPZO","iata_code":"CUZ","gps_code":"SPZO","home_link":"http://www.corpac.gob.pe/","wikipedia_link":"https://en.wikipedia.org/wiki/Alejandro_Velasco_Astete_International_Airport"},"geometry":{"type":"Point","coordinates":[-71.938797,-13.5357]}},{"id":"30636","type":"Feature","properties":{"ident":"SPAR","type":"small_airport","name":"Alerta Airport","elevation_ft":"797","continent":"SA","iso_country":"PE","iso_region":"PE-MDD","municipality":"Fortaleza","scheduled_service":"no","icao_code":"SPAR","iata_code":"ALD","gps_code":"SPAR","wikipedia_link":"https://en.wikipedia.org/wiki/Alerta_Airport"},"geometry":{"type":"Point","coordinates":[-69.229614,-11.65018]}},{"id":"6201","type":"Feature","properties":{"ident":"SPAS","type":"small_airport","name":"Alferez FAP Alfredo Vladimir Sara Bauer Airport","elevation_ft":"728","continent":"SA","iso_country":"PE","iso_region":"PE-LOR","municipality":"Andoas","scheduled_service":"no","iata_code":"AOP","gps_code":"SPAS","wikipedia_link":"https://en.wikipedia.org/wiki/Alferez_FAP_Alfredo_Vladimir_Sara_Bauer_Airport"},"geometry":{"type":"Point","coordinates":[-76.466599,-2.79613]}},{"id":"6229","type":"Feature","properties":{"ident":"SPNC","type":"medium_airport","name":"Alferez Fap David Figueroa Fernandini Airport","elevation_ft":"6070","continent":"SA","iso_country":"PE","iso_region":"PE-HUC","municipality":"Huánuco","scheduled_service":"yes","icao_code":"SPNC","iata_code":"HUU","gps_code":"SPNC","wikipedia_link":"https://en.wikipedia.org/wiki/Alf%C3%A9rez_FAP_David_Figueroa_Fernandini_Airport"},"geometry":{"type":"Point","coordinates":[-76.204803,-9.87881]}},{"id":"6215","type":"Feature","properties":{"ident":"SPHY","type":"small_airport","name":"Andahuaylas Airport","elevation_ft":"11300","continent":"SA","iso_country":"PE","iso_region":"PE-APU","municipality":"Andahuaylas","scheduled_service":"yes","icao_code":"SPHY","iata_code":"ANS","gps_code":"SPHY","wikipedia_link":"https://en.wikipedia.org/wiki/Andahuaylas_Airport"},"geometry":{"type":"Point","coordinates":[-73.350403,-13.7064]}},{"id":"39639","type":"Feature","properties":{"ident":"SPOY","type":"small_airport","name":"Atico Airport","elevation_ft":"9","continent":"SA","iso_country":"PE","iso_region":"PE-ARE","municipality":"Atico","scheduled_service":"no","gps_code":"SPOY","wikipedia_link":"https://en.wikipedia.org/wiki/Atico_Airport"},"geometry":{"type":"Point","coordinates":[-73.605652,-16.232846]}},{"id":"39626","type":"Feature","properties":{"ident":"SPGU","type":"small_airport","name":"Baguá Airport","elevation_ft":"1375","continent":"SA","iso_country":"PE","iso_region":"PE-AMA","municipality":"Baguá","scheduled_service":"no","gps_code":"SPGU"},"geometry":{"type":"Point","coordinates":[-78.530556,-5.634722]}},{"id":"39589","type":"Feature","properties":{"ident":"SPBS","type":"small_airport","name":"Bellavista Airport","elevation_ft":"675","continent":"SA","iso_country":"PE","iso_region":"PE-LOR","municipality":"Jeberos","scheduled_service":"no","gps_code":"SPBS","wikipedia_link":"https://en.wikipedia.org/wiki/Bellavista_Airport"},"geometry":{"type":"Point","coordinates":[-76.292099,-5.28839]}},{"id":"525722","type":"Feature","properties":{"ident":"SPBL","type":"small_airport","name":"Bolognesi Airport","elevation_ft":"630","continent":"SA","iso_country":"PE","iso_region":"PE-UCA","municipality":"Bolognesi","scheduled_service":"no","icao_code":"SPBL","gps_code":"SPBL","wikipedia_link":"https://en.wikipedia.org/wiki/Bolognesi_Airport"},"geometry":{"type":"Point","coordinates":[-73.943375,-10.029555]}},{"id":"6203","type":"Feature","properties":{"ident":"SPBC","type":"medium_airport","name":"Caballococha Airport","elevation_ft":"328","continent":"SA","iso_country":"PE","iso_region":"PE-LOR","municipality":"Caballococha","scheduled_service":"no","gps_code":"SPBC","local_code":"LHC","wikipedia_link":"https://en.wikipedia.org/wiki/Caballococha_Airport"},"geometry":{"type":"Point","coordinates":[-70.508202,-3.91686]}},{"id":"323804","type":"Feature","properties":{"ident":"PE-0003","type":"small_airport","name":"Cabo Pantoja Airstrip","continent":"SA","iso_country":"PE","iso_region":"PE-LOR","municipality":"Cabo Pantoja","scheduled_service":"no"},"geometry":{"type":"Point","coordinates":[-75.179731,-0.952]}},{"id":"6237","type":"Feature","properties":{"ident":"SPST","type":"medium_airport","name":"Cadete FAP Guillermo Del Castillo Paredes Airport","elevation_ft":"869","continent":"SA","iso_country":"PE","iso_region":"PE-SAM","municipality":"Tarapoto","scheduled_service":"yes","icao_code":"SPST","iata_code":"TPP","gps_code":"SPST","wikipedia_link":"https://en.wikipedia.org/wiki/Cad._FAP_Guillermo_del_Castillo_Paredes_Airport"},"geometry":{"type":"Point","coordinates":[-76.373199,-6.50874]}},{"id":"525298","type":"Feature","properties":{"ident":"SPCI","type":"small_airport","name":"Campamento De Ilo Aerodrome","elevation_ft":"197","continent":"SA","iso_country":"PE","iso_region":"PE-MOQ","scheduled_service":"no","gps_code":"SPCI"},"geometry":{"type":"Point","coordinates":[-71.330883,-17.615403]}},{"id":"352938","type":"Feature","properties":{"ident":"PE-0022","type":"small_airport","name":"Camposol Chao Airport","elevation_ft":"228","continent":"SA","iso_country":"PE","iso_region":"PE-LAL","municipality":"Virú","scheduled_service":"no"},"geometry":{"type":"Point","coordinates":[-78.68142,-8.58173]}},{"id":"6205","type":"Feature","properties":{"ident":"SPCL","type":"medium_airport","name":"Cap FAP David Abenzur Rengifo International Airport","elevation_ft":"513","continent":"SA","iso_country":"PE","iso_region":"PE-UCA","municipality":"Pucallpa","scheduled_service":"yes","icao_code":"SPCL","iata_code":"PCL","gps_code":"SPCL","wikipedia_link":"https://en.wikipedia.org/wiki/Captain_Rolden_International_Airport"},"geometry":{"type":"Point","coordinates":[-74.574303,-8.37794]}},{"id":"6235","type":"Feature","properties":{"ident":"SPRU","type":"medium_airport","name":"Capitan FAP Carlos Martinez De Pinillos International Airport","elevation_ft":"106","continent":"SA","iso_country":"PE","iso_region":"PE-LAL","municipality":"Trujillo","scheduled_service":"yes","icao_code":"SPRU","iata_code":"TRU","gps_code":"SPRU","wikipedia_link":"https://en.wikipedia.org/wiki/Cap._FAP_Carlos_Mart%C3%ADnez_de_Pinillos_International_Airport"},"geometry":{"type":"Point","coordinates":[-79.108803,-8.08141]}},{"id":"6240","type":"Feature","properties":{"ident":"SPUR","type":"medium_airport","name":"Capitán FAP Guillermo Concha Iberico International Airport","elevation_ft":"120","continent":"SA","iso_country":"PE","iso_region":"PE-PIU","municipality":"Piura","scheduled_service":"yes","icao_code":"SPUR","iata_code":"PIU","gps_code":"SPUR","wikipedia_link":"https://en.wikipedia.org/wiki/Cap._FAP_Guillermo_Concha_Iberico_International_Airport"},"geometry":{"type":"Point","coordinates":[-80.616402,-5.20575]}},{"id":"6234","type":"Feature","properties":{"ident":"SPRM","type":"small_airport","name":"Capitán FAP Leonardo Alvariño Herr Airport","elevation_ft":"2600","continent":"SA","iso_country":"PE","iso_region":"PE-JUN","municipality":"San Ramón","scheduled_service":"no","gps_code":"SPRM"},"geometry":{"type":"Point","coordinates":[-75.350502,-11.1286]}},{"id":"6226","type":"Feature","properties":{"ident":"SPME","type":"medium_airport","name":"Captain Pedro Canga Rodríguez International Airport","elevation_ft":"115","continent":"SA","iso_country":"PE","iso_region":"PE-TUM","municipality":"Tumbes","scheduled_service":"yes","icao_code":"SPME","iata_code":"TBP","gps_code":"SPME","wikipedia_link":"https://en.wikipedia.org/wiki/Cap._FAP_Pedro_Canga_Rodr%C3%ADguez_Airport","keywords":"Capitan FAP Pedro Canga Rodriguez"},"geometry":{"type":"Point","coordinates":[-80.381086,-3.552074]}},{"id":"6236","type":"Feature","properties":{"ident":"SPSO","type":"medium_airport","name":"Captain Renán Elías Olivera International Airport","elevation_ft":"39","continent":"SA","iso_country":"PE","iso_region":"PE-ICA","municipality":"Pisco","scheduled_service":"no","icao_code":"SPSO","iata_code":"PIO","gps_code":"SPSO","wikipedia_link":"https://en.wikipedia.org/wiki/Capit%C3%A1n_FAP_Ren%C3%A1n_El%C3%ADas_Olivera_Airport","keywords":"Capitán FAP Renán Elías Olivera"},"geometry":{"type":"Point","coordinates":[-76.220299,-13.7449]}},{"id":"6241","type":"Feature","properties":{"ident":"SPYL","type":"medium_airport","name":"Captain Victor Montes Arias International Airport","elevation_ft":"282","continent":"SA","iso_country":"PE","iso_region":"PE-PIU","municipality":"Talara","scheduled_service":"yes","icao_code":"SPYL","iata_code":"TYL","gps_code":"SPYL","wikipedia_link":"https://en.wikipedia.org/wiki/Cap._FAP_Victor_Montes_Arias_Airport","keywords":"Capitan FAP Victor Montes Arias"},"geometry":{"type":"Point","coordinates":[-81.254097,-4.57664]}},{"id":"32377","type":"Feature","properties":{"ident":"SPVL","type":"small_airport","name":"Caraveli Airport","elevation_ft":"5675","continent":"SA","iso_country":"PE","iso_region":"PE-ARE","municipality":"Caraveli","scheduled_service":"no","gps_code":"SPVL"},"geometry":{"type":"Point","coordinates":[-73.36176,-15.77904]}},{"id":"39610","type":"Feature","properties":{"ident":"SPAA","type":"small_airport","name":"Caraz Airport","elevation_ft":"7401","continent":"SA","iso_country":"PE","iso_region":"PE-ANC","municipality":"Ancash","scheduled_service":"no","gps_code":"SPAA"},"geometry":{"type":"Point","coordinates":[-77.810143,-9.051429]}},{"id":"39619","type":"Feature","properties":{"ident":"SPCG","type":"small_airport","name":"Casa Grande Airport","elevation_ft":"475","continent":"SA","iso_country":"PE","iso_region":"PE-LAL","municipality":"Ascope","scheduled_service":"no","gps_code":"SPCG"},"geometry":{"type":"Point","coordinates":[-79.186386,-7.743889]}},{"id":"39649","type":"Feature","properties":{"ident":"SPSA","type":"small_airport","name":"Casma Airport","elevation_ft":"248","continent":"SA","iso_country":"PE","iso_region":"PE-ANC","municipality":"Casma","scheduled_service":"no","gps_code":"SPSA"},"geometry":{"type":"Point","coordinates":[-78.294346,-9.450235]}},{"id":"39632","type":"Feature","properties":{"ident":"SPLD","type":"small_airport","name":"Celendín Airport","elevation_ft":"8600","continent":"SA","iso_country":"PE","iso_region":"PE-CAJ","municipality":"Celendín","scheduled_service":"no","gps_code":"SPLD"},"geometry":{"type":"Point","coordinates":[-78.149902,-6.8676]}},{"id":"571697","type":"Feature","properties":{"ident":"PE-0034","type":"heliport","name":"Central FAP Hospital Helipad","elevation_ft":"440","continent":"SA","iso_country":"PE","iso_region":"PE-LIM","municipality":"Miraflores","scheduled_service":"no"},"geometry":{"type":"Point","coordinates":[-77.030216,-12.103711]}},{"id":"6210","type":"Feature","properties":{"ident":"SPEQ","type":"small_airport","name":"Cesar Torke Podesta Airport","elevation_ft":"4480","continent":"SA","iso_country":"PE","iso_region":"PE-MOQ","municipality":"Moquegua","scheduled_service":"no","gps_code":"SPEQ","wikipedia_link":"https://en.wikipedia.org/wiki/Cesar_Torque_Podesta_Airport"},"geometry":{"type":"Point","coordinates":[-70.930801,-17.179001]}},{"id":"6231","type":"Feature","properties":{"ident":"SPPY","type":"medium_airport","name":"Chachapoyas Airport","elevation_ft":"8333","continent":"SA","iso_country":"PE","iso_region":"PE-AMA","municipality":"Chachapoyas","scheduled_service":"yes","icao_code":"SPPY","iata_code":"CHH","gps_code":"SPPY","wikipedia_link":"https://en.wikipedia.org/wiki/Chachapoyas_Airport"},"geometry":{"type":"Point","coordinates":[-77.856195,-6.201911]}},{"id":"313312","type":"Feature","properties":{"ident":"SPGL","type":"small_airport","name":"Chagual Airport","elevation_ft":"3967","continent":"SA","iso_country":"PE","iso_region":"PE-LAL","scheduled_service":"no","icao_code":"SPGL","iata_code":"CGL","gps_code":"SPGL","wikipedia_link":"https://en.wikipedia.org/wiki/Chagual_Airport"},"geometry":{"type":"Point","coordinates":[-77.651249,-7.797624]}},{"id":"39596","type":"Feature","properties":{"ident":"SPHC","type":"small_airport","name":"Chala Airport","elevation_ft":"112","continent":"SA","iso_country":"PE","iso_region":"PE-ARE","municipality":"Puerto Chala","scheduled_service":"no","gps_code":"SPHC"},"geometry":{"type":"Point","coordinates":[-74.28699,-15.80703]}},{"id":"39662","type":"Feature","properties":{"ident":"SPZT","type":"small_airport","name":"Chazuta Airport","elevation_ft":"757","continent":"SA","iso_country":"PE","iso_region":"PE-SAM","municipality":"Chazuta","scheduled_service":"no","gps_code":"SPZT"},"geometry":{"type":"Point","coordinates":[-76.136665,-6.574167]}},{"id":"429730","type":"Feature","properties":{"ident":"PE-0032","type":"small_airport","name":"Chivay Airport","continent":"SA","iso_country":"PE","iso_region":"PE-ARE","municipality":"Chivay","scheduled_service":"no"},"geometry":{"type":"Point","coordinates":[-71.61376,-15.63627]}},{"id":"39622","type":"Feature","properties":{"ident":"SPCT","type":"small_airport","name":"Chota Airport","elevation_ft":"7800","continent":"SA","iso_country":"PE","iso_region":"PE-CAJ","municipality":"Chota","scheduled_service":"no","gps_code":"SPCT"},"geometry":{"type":"Point","coordinates":[-78.650002,-6.55]}},{"id":"32345","type":"Feature","properties":{"ident":"SPAC","type":"small_airport","name":"Ciro Alegria Airport","elevation_ft":"547","continent":"SA","iso_country":"PE","iso_region":"PE-AMA","municipality":"Santa María de Nieva","scheduled_service":"no","gps_code":"SPAC","wikipedia_link":"https://en.wikipedia.org/wiki/Ciro_Alegria_Airport","keywords":"Bagua"},"geometry":{"type":"Point","coordinates":[-77.940935,-4.607492]}},{"id":"39592","type":"Feature","properties":{"ident":"SPCC","type":"small_airport","name":"Ciudad Constitución Airport","elevation_ft":"775","continent":"SA","iso_country":"PE","iso_region":"PE-PAS","municipality":"Ciudad Constitución","scheduled_service":"no","gps_code":"SPCC","wikipedia_link":"https://en.wikipedia.org/wiki/Ciudad_Constituci%C3%B3n_Airport,_Peru"},"geometry":{"type":"Point","coordinates":[-75.008888,-9.865278]}},{"id":"525724","type":"Feature","properties":{"ident":"SPDN","type":"small_airport","name":"Colonia Angamos Airport","elevation_ft":"427","continent":"SA","iso_country":"PE","iso_region":"PE-LOR","municipality":"Colonia Angamos","scheduled_service":"no","gps_code":"SPDN","wikipedia_link":"https://en.wikipedia.org/wiki/Colonia_Angamos_Airport"},"geometry":{"type":"Point","coordinates":[-72.867889,-5.137125]}},{"id":"6216","type":"Feature","properties":{"ident":"SPHZ","type":"medium_airport","name":"Comandante FAP German Arias Graziani Airport","elevation_ft":"9097","continent":"SA","iso_country":"PE","iso_region":"PE-ANC","municipality":"Anta","scheduled_service":"no","icao_code":"SPHZ","iata_code":"ATA","gps_code":"SPHZ","wikipedia_link":"https://en.wikipedia.org/wiki/Comandante_FAP_Germ%C3%A1n_Arias_Graziani_Airport"},"geometry":{"type":"Point","coordinates":[-77.598396,-9.34744]}},{"id":"32349","type":"Feature","properties":{"ident":"SPCM","type":"small_airport","name":"Contamana Airport","elevation_ft":"480","continent":"SA","iso_country":"PE","iso_region":"PE-LOR","municipality":"Contamana","scheduled_service":"no","gps_code":"SPCM","local_code":"CTF","wikipedia_link":"https://en.wikipedia.org/wiki/Contamana_Airport"},"geometry":{"type":"Point","coordinates":[-74.992531,-7.335827]}},{"id":"6238","type":"Feature","properties":{"ident":"SPTN","type":"medium_airport","name":"Coronel FAP Carlos Ciriani Santa Rosa International Airport","elevation_ft":"1538","continent":"SA","iso_country":"PE","iso_region":"PE-TAC","municipality":"Tacna","scheduled_service":"yes","icao_code":"SPTN","iata_code":"TCQ","gps_code":"SPTN","wikipedia_link":"https://en.wikipedia.org/wiki/Crnl._FAP_Carlos_Ciriani_Santa_Rosa_International_Airport"},"geometry":{"type":"Point","coordinates":[-70.275803,-18.053301]}},{"id":"6232","type":"Feature","properties":{"ident":"SPQT","type":"medium_airport","name":"Coronel FAP Francisco Secada Vignetta International Airport","elevation_ft":"306","continent":"SA","iso_country":"PE","iso_region":"PE-LOR","municipality":"Iquitos","scheduled_service":"yes","icao_code":"SPQT","iata_code":"IQT","gps_code":"SPQT","wikipedia_link":"https://en.wikipedia.org/wiki/Crnl._FAP_Francisco_Secada_Vignetta_International_Airport"},"geometry":{"type":"Point","coordinates":[-73.3088,-3.78474]}},{"id":"526472","type":"Feature","properties":{"ident":"SPDS","type":"small_airport","name":"Cuajone Botiflaca Airport","elevation_ft":"11204","continent":"SA","iso_country":"PE","iso_region":"PE-MOQ","municipality":"Cuajone","scheduled_service":"no","gps_code":"SPDS","wikipedia_link":"https://en.wikipedia.org/wiki/Cuajone_Botiflaca_Airport"},"geometry":{"type":"Point","coordinates":[-70.770833,-17.070833]}},{"id":"351495","type":"Feature","properties":{"ident":"PE-0020","type":"heliport","name":"Diospi Suyana Hospital Heliport","elevation_ft":"8750","continent":"SA","iso_country":"PE","iso_region":"PE-APU","municipality":"Curahuasi","scheduled_service":"no"},"geometry":{"type":"Point","coordinates":[-72.70599,-13.54249]}},{"id":"6207","type":"Feature","properties":{"ident":"SPEE","type":"small_airport","name":"El Estrecho Airport","elevation_ft":"421","continent":"SA","iso_country":"PE","iso_region":"PE-LOR","scheduled_service":"no","gps_code":"SPEE","local_code":"SP69","wikipedia_link":"https://en.wikipedia.org/wiki/El_Estrecho_Airport"},"geometry":{"type":"Point","coordinates":[-72.670601,-2.45406]}},{"id":"32375","type":"Feature","properties":{"ident":"SPTP","type":"small_airport","name":"El Pato Air Base","elevation_ft":"286","continent":"SA","iso_country":"PE","iso_region":"PE-PIU","municipality":"Talara","scheduled_service":"no","gps_code":"SPTP","wikipedia_link":"https://en.wikipedia.org/wiki/El_Pato_Air_Base"},"geometry":{"type":"Point","coordinates":[-81.224098,-4.54981]}},{"id":"6208","type":"Feature","properties":{"ident":"SPEO","type":"medium_airport","name":"FAP Lieutenant Jaime Andres de Montreuil Morales Airport","elevation_ft":"69","continent":"SA","iso_country":"PE","iso_region":"PE-ANC","municipality":"Chimbote","scheduled_service":"yes","icao_code":"SPEO","iata_code":"CHM","gps_code":"SPEO","wikipedia_link":"https://en.wikipedia.org/wiki/Tnte._FAP_Jaime_Montreuil_Morales_Airport"},"geometry":{"type":"Point","coordinates":[-78.523804,-9.14961]}},{"id":"6221","type":"Feature","properties":{"ident":"SPJJ","type":"medium_airport","name":"Francisco Carle Airport","elevation_ft":"11034","continent":"SA","iso_country":"PE","iso_region":"PE-JUN","municipality":"Jauja","scheduled_service":"yes","icao_code":"SPJJ","iata_code":"JAU","gps_code":"SPJJ","wikipedia_link":"https://en.wikipedia.org/wiki/Francisco_Carle_Airport"},"geometry":{"type":"Point","coordinates":[-75.473396,-11.7831]}},{"id":"6211","type":"Feature","properties":{"ident":"SPGB","type":"small_airport","name":"Galilea Airport","elevation_ft":"597","continent":"SA","iso_country":"PE","iso_region":"PE-AMA","scheduled_service":"no","gps_code":"SPGB","wikipedia_link":"https://en.wikipedia.org/wiki/Galilea_Airport"},"geometry":{"type":"Point","coordinates":[-77.758797,-4.03188]}},{"id":"6224","type":"Feature","properties":{"ident":"SPLO","type":"medium_airport","name":"General Jorge Fernandez Maldon Airport","elevation_ft":"72","continent":"SA","iso_country":"PE","iso_region":"PE-MOQ","municipality":"Ilo","scheduled_service":"yes","icao_code":"SPLO","iata_code":"ILQ","gps_code":"SPLO","wikipedia_link":"https://en.wikipedia.org/wiki/Ilo_Airport"},"geometry":{"type":"Point","coordinates":[-71.344002,-17.695]}},{"id":"6212","type":"Feature","properties":{"ident":"SPGP","type":"small_airport","name":"Güeppi­ Airport","elevation_ft":"680","continent":"SA","iso_country":"PE","iso_region":"PE-LOR","scheduled_service":"no","gps_code":"SPGP","local_code":"SP01","wikipedia_link":"https://en.wikipedia.org/wiki/G%C3%BCeppi_Airport"},"geometry":{"type":"Point","coordinates":[-75.247902,-0.119056]}},{"id":"39659","type":"Feature","properties":{"ident":"SPVA","type":"small_airport","name":"Hacienda El Valor Airport","continent":"SA","iso_country":"PE","iso_region":"PE-AMA","municipality":"El Valor","scheduled_service":"no","gps_code":"SPVA","wikipedia_link":"https://es.wikipedia.org/wiki/Aer%C3%B3dromo_El_Valor"},"geometry":{"type":"Point","coordinates":[-78.644257,-5.672621]}},{"id":"353425","type":"Feature","properties":{"ident":"PE-0025","type":"small_airport","name":"Huacho Airport","elevation_ft":"338","continent":"SA","iso_country":"PE","iso_region":"PE-LIM","municipality":"Santa María","scheduled_service":"no"},"geometry":{"type":"Point","coordinates":[-77.55382,-11.11008]}},{"id":"30772","type":"Feature","properties":{"ident":"PE-0056","type":"small_airport","name":"Huallaga Airport","elevation_ft":"980","continent":"SA","iso_country":"PE","iso_region":"PE-SAM","municipality":"Bellavista","scheduled_service":"no","iata_code":"BLP","keywords":"SPBL"},"geometry":{"type":"Point","coordinates":[-76.582199,-7.06056]}},{"id":"39658","type":"Feature","properties":{"ident":"SPUC","type":"small_airport","name":"Huamachuco Airport","elevation_ft":"10367","continent":"SA","iso_country":"PE","iso_region":"PE-LAL","municipality":"Huamachuco","scheduled_service":"no","gps_code":"SPUC","wikipedia_link":"https://en.wikipedia.org/wiki/Huamachuco_Airport"},"geometry":{"type":"Point","coordinates":[-78.02834,-7.81808]}},{"id":"39604","type":"Feature","properties":{"ident":"SPPP","type":"small_airport","name":"Huanacopampa Airport","elevation_ft":"13130","continent":"SA","iso_country":"PE","iso_region":"PE-APU","municipality":"Huanacopampa","scheduled_service":"no","gps_code":"SPPP"},"geometry":{"type":"Point","coordinates":[-72.33455,-14.14334]}},{"id":"6200","type":"Feature","properties":{"ident":"SPAB","type":"small_airport","name":"Huancabamba Airport","elevation_ft":"6312","continent":"SA","iso_country":"PE","iso_region":"PE-PIU","municipality":"Huancabamba","scheduled_service":"no","gps_code":"SPAB","local_code":"SP72"},"geometry":{"type":"Point","coordinates":[-79.442902,-5.25677]}},{"id":"39628","type":"Feature","properties":{"ident":"SPHU","type":"small_airport","name":"Huancayo Airport","elevation_ft":"10800","continent":"SA","iso_country":"PE","iso_region":"PE-JUN","municipality":"Huancayo","scheduled_service":"yes","gps_code":"SPHU"},"geometry":{"type":"Point","coordinates":[-75.198502,-12.0699]}},{"id":"39629","type":"Feature","properties":{"ident":"SPHV","type":"small_airport","name":"Huánuco Viejo Airport","elevation_ft":"6320","continent":"SA","iso_country":"PE","iso_region":"PE-HUC","municipality":"Huánuco Viejo","scheduled_service":"no","gps_code":"SPHV"},"geometry":{"type":"Point","coordinates":[-76.233902,-9.92632]}},{"id":"6204","type":"Feature","properties":{"ident":"SPBR","type":"medium_airport","name":"Iberia Airport","elevation_ft":"750","continent":"SA","iso_country":"PE","iso_region":"PE-MDD","municipality":"Iberia","scheduled_service":"no","icao_code":"SPBR","iata_code":"IBP","gps_code":"SPBR","wikipedia_link":"https://en.wikipedia.org/wiki/Iberia_Airport"},"geometry":{"type":"Point","coordinates":[-69.488701,-11.4116]}},{"id":"39648","type":"Feature","properties":{"ident":"SPRL","type":"small_airport","name":"Imperial Airport","continent":"SA","iso_country":"PE","iso_region":"PE-LIM","municipality":"Imperial","scheduled_service":"no","gps_code":"SPRL"},"geometry":{"type":"Point","coordinates":[-75.066666,-12.316667]}},{"id":"6222","type":"Feature","properties":{"ident":"SPJL","type":"medium_airport","name":"Inca Manco Capac International Airport","elevation_ft":"12552","continent":"SA","iso_country":"PE","iso_region":"PE-PUN","municipality":"Juliaca","scheduled_service":"yes","icao_code":"SPJL","iata_code":"JUL","gps_code":"SPJL","wikipedia_link":"https://en.wikipedia.org/wiki/Inca_Manco_Capac_International_Airport"},"geometry":{"type":"Point","coordinates":[-70.158203,-15.4671]}},{"id":"32362","type":"Feature","properties":{"ident":"SPNT","type":"small_airport","name":"Intuto Airport","elevation_ft":"650","continent":"SA","iso_country":"PE","iso_region":"PE-LOR","municipality":"Intuto","scheduled_service":"no","gps_code":"SPNT"},"geometry":{"type":"Point","coordinates":[-74.75,-3.583]}},{"id":"32353","type":"Feature","properties":{"ident":"SPEN","type":"small_airport","name":"Iscozasin Airport","elevation_ft":"898","continent":"SA","iso_country":"PE","iso_region":"PE-PAS","municipality":"Iscozasin","scheduled_service":"no","gps_code":"SPEN"},"geometry":{"type":"Point","coordinates":[-75.150002,-10.183]}},{"id":"39598","type":"Feature","properties":{"ident":"SPIN","type":"small_airport","name":"Iñapari Airport","elevation_ft":"917","continent":"SA","iso_country":"PE","iso_region":"PE-MDD","municipality":"Iñapari","scheduled_service":"no","gps_code":"SPIN","wikipedia_link":"https://en.wikipedia.org/wiki/I%C3%B1apari_Airport"},"geometry":{"type":"Point","coordinates":[-69.559402,-10.979]}},{"id":"39645","type":"Feature","properties":{"ident":"SPQJ","type":"small_airport","name":"Jaquí Airport","continent":"SA","iso_country":"PE","iso_region":"PE-ARE","municipality":"Jaquí","scheduled_service":"no","gps_code":"SPQJ"},"geometry":{"type":"Point","coordinates":[-74.433334,-15.466667]}},{"id":"6217","type":"Feature","properties":{"ident":"SPIM","type":"large_airport","name":"Jorge Chávez International Airport","elevation_ft":"113","continent":"SA","iso_country":"PE","iso_region":"PE-LIM","municipality":"Lima","scheduled_service":"yes","icao_code":"SPJC","iata_code":"LIM","gps_code":"SPJC","home_link":"http://www.lap.com.pe/","wikipedia_link":"https://en.wikipedia.org/wiki/Jorge_Ch%C3%A1vez_International_Airport","keywords":"SPIM"},"geometry":{"type":"Point","coordinates":[-77.114305,-12.0219]}},{"id":"6218","type":"Feature","properties":{"ident":"SPJA","type":"medium_airport","name":"Juan Simons Vela Airport","elevation_ft":"2707","continent":"SA","iso_country":"PE","iso_region":"PE-SAM","municipality":"Rioja","scheduled_service":"no","icao_code":"SPJA","iata_code":"RIJ","gps_code":"SPJA","wikipedia_link":"https://en.wikipedia.org/wiki/Juan_Simons_Vela_Airport"},"geometry":{"type":"Point","coordinates":[-77.160004,-6.06786]}},{"id":"6220","type":"Feature","properties":{"ident":"SPJI","type":"medium_airport","name":"Juanjui Airport","elevation_ft":"1148","continent":"SA","iso_country":"PE","iso_region":"PE-SAM","municipality":"Juanjuí","scheduled_service":"no","icao_code":"SPJI","iata_code":"JJI","gps_code":"SPJI","wikipedia_link":"https://en.wikipedia.org/wiki/Juanju%C3%AD_Airport"},"geometry":{"type":"Point","coordinates":[-76.7286,-7.1691]}},{"id":"39605","type":"Feature","properties":{"ident":"SPQI","type":"small_airport","name":"Kiteni Airport","elevation_ft":"2589","continent":"SA","iso_country":"PE","iso_region":"PE-CUS","municipality":"La Convención","scheduled_service":"no","gps_code":"SPKI"},"geometry":{"type":"Point","coordinates":[-73.036579,-12.648669]}},{"id":"39600","type":"Feature","properties":{"ident":"SPLG","type":"small_airport","name":"Lagarto Nuevo Airport","elevation_ft":"763","continent":"SA","iso_country":"PE","iso_region":"PE-MDD","municipality":"Lagarto","scheduled_service":"no","gps_code":"SPLG"},"geometry":{"type":"Point","coordinates":[-69.837502,-12.6416]}},{"id":"39635","type":"Feature","properties":{"ident":"SPNH","type":"small_airport","name":"Laguna Choclococha Airport","elevation_ft":"14965","continent":"SA","iso_country":"PE","iso_region":"PE-HUV","municipality":"Choclococha","scheduled_service":"no","gps_code":"SPNH"},"geometry":{"type":"Point","coordinates":[-75.071999,-13.1657]}},{"id":"39625","type":"Feature","properties":{"ident":"SPGS","type":"small_airport","name":"Lagunas Airport","elevation_ft":"12675","continent":"SA","iso_country":"PE","iso_region":"PE-CAJ","municipality":"Cajamarca","scheduled_service":"no","gps_code":"SPGS"},"geometry":{"type":"Point","coordinates":[-78.633331,-6.9]}},{"id":"314993","type":"Feature","properties":{"ident":"PE-0001","type":"small_airport","name":"Lagunas Airstrip","elevation_ft":"430","continent":"SA","iso_country":"PE","iso_region":"PE-LOR","municipality":"Lagunas","scheduled_service":"no"},"geometry":{"type":"Point","coordinates":[-75.678,-5.2475]}},{"id":"39652","type":"Feature","properties":{"ident":"SPSL","type":"small_airport","name":"Lamas Airport","elevation_ft":"2600","continent":"SA","iso_country":"PE","iso_region":"PE-SAM","municipality":"Lamas","scheduled_service":"no","gps_code":"SPSL"},"geometry":{"type":"Point","coordinates":[-76.533333,-6.416667]}},{"id":"353426","type":"Feature","properties":{"ident":"PE-0026","type":"small_airport","name":"Las Dunas Airport","elevation_ft":"1378","continent":"SA","iso_country":"PE","iso_region":"PE-ICA","municipality":"Ica","scheduled_service":"no","gps_code":"SPLH","wikipedia_link":"https://en.wikipedia.org/wiki/Las_Dunas_Airport"},"geometry":{"type":"Point","coordinates":[-75.76004,-14.03561]}},{"id":"301326","type":"Feature","properties":{"ident":"VVN","type":"small_airport","name":"Las Malvinas/Echarate Airport","elevation_ft":"1285","continent":"SA","iso_country":"PE","iso_region":"PE-CUS","municipality":"Las Malvinas","scheduled_service":"no","iata_code":"VVN","gps_code":"SPWT","wikipedia_link":"https://en.wikipedia.org/wiki/Las_Malvinas_Airport"},"geometry":{"type":"Point","coordinates":[-72.939332,-11.854861]}},{"id":"6225","type":"Feature","properties":{"ident":"SPLP","type":"small_airport","name":"Las Palmas Air Base","elevation_ft":"250","continent":"SA","iso_country":"PE","iso_region":"PE-LIM","municipality":"Chorrillos","scheduled_service":"no","gps_code":"SPLP","wikipedia_link":"https://en.wikipedia.org/wiki/Las_Palmas_Air_Base"},"geometry":{"type":"Point","coordinates":[-76.998901,-12.1607]}},{"id":"356335","type":"Feature","properties":{"ident":"PE-0029","type":"small_airport","name":"Las Plumas Airport","continent":"SA","iso_country":"PE","iso_region":"PE-LIM","municipality":"Cerro Azul","scheduled_service":"no"},"geometry":{"type":"Point","coordinates":[-76.49186,-12.91902]}},{"id":"356332","type":"Feature","properties":{"ident":"SPLX","type":"small_airport","name":"Lib Mandi Metropolitan Airport","elevation_ft":"200","continent":"SA","iso_country":"PE","iso_region":"PE-LIM","municipality":"San Bartolo","scheduled_service":"no","gps_code":"SPLX","wikipedia_link":"https://en.wikipedia.org/wiki/Lib_Mandy_Metropolitano_Airport"},"geometry":{"type":"Point","coordinates":[-76.75834,-12.38875]}},{"id":"39631","type":"Feature","properties":{"ident":"SPLA","type":"small_airport","name":"Luisiana Airport","continent":"SA","iso_country":"PE","iso_region":"PE-AYA","municipality":"Luisiana","scheduled_service":"no","gps_code":"SPLA"},"geometry":{"type":"Point","coordinates":[-73.710266,-12.673815]}},{"id":"39660","type":"Feature","properties":{"ident":"SPYA","type":"small_airport","name":"Luya Airport","elevation_ft":"298","continent":"SA","iso_country":"PE","iso_region":"PE-LAM","municipality":"Luya","scheduled_service":"no","gps_code":"SPYA"},"geometry":{"type":"Point","coordinates":[-79.701698,-6.6917]}},{"id":"39609","type":"Feature","properties":{"ident":"SOML","type":"small_airport","name":"Malin Airport","elevation_ft":"5190","continent":"SA","iso_country":"PE","iso_region":"PE-LAL","municipality":"Malin","scheduled_service":"no","gps_code":"SOML"},"geometry":{"type":"Point","coordinates":[-78.650002,-7.63333]}},{"id":"32363","type":"Feature","properties":{"ident":"SPNU","type":"small_airport","name":"Manu Airport","elevation_ft":"1010","continent":"SA","iso_country":"PE","iso_region":"PE-MDD","municipality":"Manu","scheduled_service":"no","gps_code":"SPNU","wikipedia_link":"https://en.wikipedia.org/wiki/Manu_Airport"},"geometry":{"type":"Point","coordinates":[-70.890199,-12.289721]}},{"id":"6242","type":"Feature","properties":{"ident":"SPZA","type":"medium_airport","name":"Maria Reiche Neuman Airport","elevation_ft":"1860","continent":"SA","iso_country":"PE","iso_region":"PE-ICA","municipality":"Nazca","scheduled_service":"yes","icao_code":"SPZA","iata_code":"NZC","gps_code":"SPZA","home_link":"https://www.aeronasca.com/como-llegar-al-aeropuerto-maria-reiche-en-nazca/","wikipedia_link":"https://en.wikipedia.org/wiki/Maria_Reiche_Neuman_Airport"},"geometry":{"type":"Point","coordinates":[-74.961502,-14.854]}},{"id":"39608","type":"Feature","properties":{"ident":"SPLC","type":"small_airport","name":"Mariano Melgar Airport","elevation_ft":"3890","continent":"SA","iso_country":"PE","iso_region":"PE-ARE","municipality":"La Joya","scheduled_service":"no","gps_code":"SPLC","wikipedia_link":"https://en.wikipedia.org/wiki/Mariano_Melgar_Airport"},"geometry":{"type":"Point","coordinates":[-71.886597,-16.7915]}},{"id":"39654","type":"Feature","properties":{"ident":"SPSS","type":"small_airport","name":"Masisea Airport","elevation_ft":"522","continent":"SA","iso_country":"PE","iso_region":"PE-UCA","municipality":"Masisea","scheduled_service":"no","gps_code":"SPSS"},"geometry":{"type":"Point","coordinates":[-74.309962,-8.61142]}},{"id":"6223","type":"Feature","properties":{"ident":"SPJR","type":"medium_airport","name":"Mayor General FAP Armando Revoredo Iglesias Airport","elevation_ft":"8781","continent":"SA","iso_country":"PE","iso_region":"PE-CAJ","municipality":"Cajamarca","scheduled_service":"yes","icao_code":"SPJR","iata_code":"CJA","gps_code":"SPJR","wikipedia_link":"https://en.wikipedia.org/wiki/Mayor_General_FAP_Armando_Revoredo_Iglesias_Airport"},"geometry":{"type":"Point","coordinates":[-78.489403,-7.13918]}},{"id":"6227","type":"Feature","properties":{"ident":"SPMF","type":"small_airport","name":"Mayor PNP Nancy Flores Paucar Airport","elevation_ft":"2247","continent":"SA","iso_country":"PE","iso_region":"PE-JUN","municipality":"Mazamari","scheduled_service":"no","icao_code":"SPMF","iata_code":"MZA","gps_code":"SPMF","wikipedia_link":"https://en.wikipedia.org/wiki/Mayor_Pnp_Nancy_Flore_Airport","keywords":"Manuel Prado Ugarteche"},"geometry":{"type":"Point","coordinates":[-74.535598,-11.3254]}},{"id":"351490","type":"Feature","properties":{"ident":"PE-0016","type":"heliport","name":"Micaela Bastidas Morales Heliport","elevation_ft":"1401","continent":"SA","iso_country":"PE","iso_region":"PE-JUN","municipality":"Misión","scheduled_service":"no"},"geometry":{"type":"Point","coordinates":[-73.9589,-11.857]}},{"id":"351488","type":"Feature","properties":{"ident":"PE-0014","type":"small_airport","name":"Misión SAM Airport","elevation_ft":"486","continent":"SA","iso_country":"PE","iso_region":"PE-UCA","municipality":"Pucallpa","scheduled_service":"no"},"geometry":{"type":"Point","coordinates":[-74.66043,-8.35681]}},{"id":"6228","type":"Feature","properties":{"ident":"SPMS","type":"medium_airport","name":"Moises Benzaquen Rengifo Airport","elevation_ft":"587","continent":"SA","iso_country":"PE","iso_region":"PE-LOR","municipality":"Yurimaguas","scheduled_service":"yes","icao_code":"SPMS","iata_code":"YMS","gps_code":"SPMS","wikipedia_link":"https://en.wikipedia.org/wiki/Mois%C3%A9s_Benzaquen_Rengifo_Airport"},"geometry":{"type":"Point","coordinates":[-76.118202,-5.89377]}},{"id":"32351","type":"Feature","properties":{"ident":"SPDO","type":"small_airport","name":"Mollendo Airport","elevation_ft":"9","continent":"SA","iso_country":"PE","iso_region":"PE-ARE","municipality":"Mollendo","scheduled_service":"no","gps_code":"SPDO","wikipedia_link":"https://en.wikipedia.org/wiki/Mollendo_Airport"},"geometry":{"type":"Point","coordinates":[-71.983704,-17.045401]}},{"id":"31883","type":"Feature","properties":{"ident":"SPBB","type":"small_airport","name":"Moyobamba Airport","elevation_ft":"2749","continent":"SA","iso_country":"PE","iso_region":"PE-SAM","municipality":"Moyobamba","scheduled_service":"no","icao_code":"SPBB","iata_code":"MBP","gps_code":"SPBB","wikipedia_link":"https://en.wikipedia.org/wiki/Moyobamba_Airport"},"geometry":{"type":"Point","coordinates":[-76.988327,-6.018889]}},{"id":"39656","type":"Feature","properties":{"ident":"SPTA","type":"small_airport","name":"Nauta Airport","elevation_ft":"370","continent":"SA","iso_country":"PE","iso_region":"PE-LOR","municipality":"Nauta","scheduled_service":"no","gps_code":"SPTA"},"geometry":{"type":"Point","coordinates":[-73.562951,-4.54186]}},{"id":"39618","type":"Feature","properties":{"ident":"SPBQ","type":"small_airport","name":"Nuevo Acari Airport","elevation_ft":"590","continent":"SA","iso_country":"PE","iso_region":"PE-ARE","municipality":"San Isidro","scheduled_service":"no","gps_code":"SPBQ"},"geometry":{"type":"Point","coordinates":[-74.74423,-15.45003]}},{"id":"39601","type":"Feature","properties":{"ident":"SPNM","type":"small_airport","name":"Nuevo Mundo Airport","elevation_ft":"1090","continent":"SA","iso_country":"PE","iso_region":"PE-CUS","municipality":"Nuevo Mundo","scheduled_service":"no","gps_code":"SPNM"},"geometry":{"type":"Point","coordinates":[-73.142197,-11.5415]}},{"id":"39590","type":"Feature","properties":{"ident":"SPBT","type":"small_airport","name":"Obenteni Airport","elevation_ft":"3290","continent":"SA","iso_country":"PE","iso_region":"PE-UCA","municipality":"Obenteni","scheduled_service":"no","gps_code":"SPBT"},"geometry":{"type":"Point","coordinates":[-74.221749,-10.755137]}},{"id":"32364","type":"Feature","properties":{"ident":"SPOR","type":"small_airport","name":"Orcopampa Airport","elevation_ft":"12200","continent":"SA","iso_country":"PE","iso_region":"PE-ARE","municipality":"Orcopampa","scheduled_service":"no","gps_code":"SPOR","wikipedia_link":"https://en.wikipedia.org/wiki/Orcopampa_Airport"},"geometry":{"type":"Point","coordinates":[-72.352095,-15.315232]}},{"id":"39637","type":"Feature","properties":{"ident":"SPON","type":"small_airport","name":"Orellana Airport","elevation_ft":"424","continent":"SA","iso_country":"PE","iso_region":"PE-LOR","municipality":"Orellana","scheduled_service":"no","gps_code":"SPON"},"geometry":{"type":"Point","coordinates":[-75.153182,-6.896733]}},{"id":"32379","type":"Feature","properties":{"ident":"SPYO","type":"small_airport","name":"Pacasmayo Airport","elevation_ft":"95","continent":"SA","iso_country":"PE","iso_region":"PE-LAL","municipality":"Pacasmayo","scheduled_service":"no","gps_code":"SPYO","wikipedia_link":"https://en.wikipedia.org/wiki/Pacasmayo_Airport"},"geometry":{"type":"Point","coordinates":[-79.568901,-7.40694]}},{"id":"39661","type":"Feature","properties":{"ident":"SPZH","type":"small_airport","name":"Pachiza Airport","elevation_ft":"1102","continent":"SA","iso_country":"PE","iso_region":"PE-SAM","municipality":"Pachiza","scheduled_service":"no","gps_code":"SPZH"},"geometry":{"type":"Point","coordinates":[-76.774597,-7.29928]}},{"id":"6239","type":"Feature","properties":{"ident":"SPTU","type":"medium_airport","name":"Padre Aldamiz International Airport","elevation_ft":"659","continent":"SA","iso_country":"PE","iso_region":"PE-MDD","municipality":"Puerto Maldonado","scheduled_service":"yes","icao_code":"SPTU","iata_code":"PEM","gps_code":"SPTU","wikipedia_link":"https://en.wikipedia.org/wiki/Padre_Aldamiz_International_Airport","keywords":"Puerto Maldonado International Airport"},"geometry":{"type":"Point","coordinates":[-69.2286,-12.6136]}},{"id":"39599","type":"Feature","properties":{"ident":"SPIT","type":"small_airport","name":"Paita Airport","elevation_ft":"230","continent":"SA","iso_country":"PE","iso_region":"PE-PIU","municipality":"Paita Wesr","scheduled_service":"no","gps_code":"SPIT"},"geometry":{"type":"Point","coordinates":[-81.152802,-5.08595]}},{"id":"39644","type":"Feature","properties":{"ident":"SPPZ","type":"small_airport","name":"Palcazú Airport","elevation_ft":"932","continent":"SA","iso_country":"PE","iso_region":"PE-PAS","municipality":"Porvenir","scheduled_service":"no","gps_code":"SPPZ"},"geometry":{"type":"Point","coordinates":[-75.117775,-9.895833]}},{"id":"525270","type":"Feature","properties":{"ident":"SPPE","type":"small_airport","name":"Palmapampa Airport","elevation_ft":"1988","continent":"SA","iso_country":"PE","iso_region":"PE-AYA","municipality":"Palmapampa","scheduled_service":"no","gps_code":"SPPE","wikipedia_link":"https://en.wikipedia.org/wiki/Palmapampa_Airport"},"geometry":{"type":"Point","coordinates":[-73.652778,-12.763889]}},{"id":"39642","type":"Feature","properties":{"ident":"SPPN","type":"small_airport","name":"Palmas del Espino Airport","elevation_ft":"1667","continent":"SA","iso_country":"PE","iso_region":"PE-SAM","municipality":"Palmas del Espino","scheduled_service":"no","gps_code":"SPPN","wikipedia_link":"https://en.wikipedia.org/wiki/Palmas_Del_Espino_Airport"},"geometry":{"type":"Point","coordinates":[-76.48935,-8.343722]}},{"id":"32358","type":"Feature","properties":{"ident":"SPJB","type":"small_airport","name":"Pampa Grande Airport","elevation_ft":"8727","continent":"SA","iso_country":"PE","iso_region":"PE-CAJ","municipality":"Pampa Grande","scheduled_service":"no","gps_code":"SPJB","wikipedia_link":"https://en.wikipedia.org/wiki/Pampa_Grande_Airport"},"geometry":{"type":"Point","coordinates":[-78.06159,-7.61447]}},{"id":"32368","type":"Feature","properties":{"ident":"SPPH","type":"small_airport","name":"Pampa Hermosa Airport","elevation_ft":"510","continent":"SA","iso_country":"PE","iso_region":"PE-LOR","municipality":"Pampa Hermosa","scheduled_service":"no","gps_code":"SPPH"},"geometry":{"type":"Point","coordinates":[-75.297559,-7.206774]}},{"id":"333784","type":"Feature","properties":{"ident":"PE-0011","type":"small_airport","name":"Patao Airport","elevation_ft":"381","continent":"SA","iso_country":"PE","iso_region":"PE-LIM","municipality":"Barranca","scheduled_service":"no"},"geometry":{"type":"Point","coordinates":[-77.746854,-10.714039]}},{"id":"333783","type":"Feature","properties":{"ident":"PE-0010","type":"small_airport","name":"Pativilca Airstrip","elevation_ft":"144","continent":"SA","iso_country":"PE","iso_region":"PE-LIM","municipality":"Pativilca","scheduled_service":"no"},"geometry":{"type":"Point","coordinates":[-77.800884,-10.705015]}},{"id":"32355","type":"Feature","properties":{"ident":"SPIR","type":"small_airport","name":"Patria Airport","elevation_ft":"2224","continent":"SA","iso_country":"PE","iso_region":"PE-CUS","municipality":"Pillcopata","scheduled_service":"no","gps_code":"SPIR"},"geometry":{"type":"Point","coordinates":[-71.429936,-12.966295]}},{"id":"39623","type":"Feature","properties":{"ident":"SPEB","type":"small_airport","name":"Pebas Airport","elevation_ft":"383","continent":"SA","iso_country":"PE","iso_region":"PE-LOR","municipality":"Loreto","scheduled_service":"no","gps_code":"SPEB"},"geometry":{"type":"Point","coordinates":[-71.816704,-3.3333]}},{"id":"39630","type":"Feature","properties":{"ident":"SPIS","type":"small_airport","name":"Pias Airport","elevation_ft":"8500","continent":"SA","iso_country":"PE","iso_region":"PE-LAL","municipality":"Pataz","scheduled_service":"no","gps_code":"SPIS","wikipedia_link":"https://en.wikipedia.org/wiki/Pias_Airport"},"geometry":{"type":"Point","coordinates":[-77.52518,-7.92062]}},{"id":"351496","type":"Feature","properties":{"ident":"PE-0021","type":"small_airport","name":"Pichari Airport","elevation_ft":"1759","continent":"SA","iso_country":"PE","iso_region":"PE-AYA","municipality":"Sivia","scheduled_service":"no"},"geometry":{"type":"Point","coordinates":[-73.85287,-12.50306]}},{"id":"32347","type":"Feature","properties":{"ident":"SPAP","type":"small_airport","name":"Picota Airport","elevation_ft":"948","continent":"SA","iso_country":"PE","iso_region":"PE-SAM","municipality":"Picota","scheduled_service":"no","gps_code":"SPAP"},"geometry":{"type":"Point","coordinates":[-76.32909,-6.909451]}},{"id":"39640","type":"Feature","properties":{"ident":"SPPL","type":"small_airport","name":"Playa Airport","elevation_ft":"2070","continent":"SA","iso_country":"PE","iso_region":"PE-SAM","municipality":"Trismaje","scheduled_service":"no","gps_code":"SPPL"},"geometry":{"type":"Point","coordinates":[-76.480499,-8.51782]}},{"id":"39643","type":"Feature","properties":{"ident":"SPPO","type":"small_airport","name":"Pozuzo Airport","elevation_ft":"2420","continent":"SA","iso_country":"PE","iso_region":"PE-PAS","municipality":"Pozuzo","scheduled_service":"yes","gps_code":"SPPO"},"geometry":{"type":"Point","coordinates":[-75.550003,-10.0701]}},{"id":"32350","type":"Feature","properties":{"ident":"SPCP","type":"small_airport","name":"Pucacaca Airport","elevation_ft":"977","continent":"SA","iso_country":"PE","iso_region":"PE-SAM","municipality":"Pucacaca","scheduled_service":"no","gps_code":"SPCP"},"geometry":{"type":"Point","coordinates":[-76.33959,-6.843543]}},{"id":"351487","type":"Feature","properties":{"ident":"PE-0013","type":"heliport","name":"Pucallpa Air Force Heliport","elevation_ft":"505","continent":"SA","iso_country":"PE","iso_region":"PE-UCA","municipality":"Pucallpa","scheduled_service":"no"},"geometry":{"type":"Point","coordinates":[-74.5819,-8.3515]}},{"id":"327372","type":"Feature","properties":{"ident":"PE-0007","type":"small_airport","name":"Pucallpa West Airport","elevation_ft":"489","continent":"SA","iso_country":"PE","iso_region":"PE-UCA","municipality":"Pucallpa","scheduled_service":"no"},"geometry":{"type":"Point","coordinates":[-74.656877,-8.361953]}},{"id":"525306","type":"Feature","properties":{"ident":"SPDU","type":"small_airport","name":"Pueblo Libre Del Codo Airport","elevation_ft":"900","continent":"SA","iso_country":"PE","iso_region":"PE-HUC","scheduled_service":"no","gps_code":"SPDU"},"geometry":{"type":"Point","coordinates":[-75.285337,-9.664617]}},{"id":"351489","type":"Feature","properties":{"ident":"PE-0015","type":"heliport","name":"Puerto Anapati Heliport","elevation_ft":"1496","continent":"SA","iso_country":"PE","iso_region":"PE-JUN","municipality":"Puerto Anapati","scheduled_service":"no"},"geometry":{"type":"Point","coordinates":[-73.9877,-11.92859]}},{"id":"39593","type":"Feature","properties":{"ident":"SPEZ","type":"small_airport","name":"Puerto Bermudez Airport","elevation_ft":"840","continent":"SA","iso_country":"PE","iso_region":"PE-PAS","municipality":"Oxapampa","scheduled_service":"no","gps_code":"SPEZ"},"geometry":{"type":"Point","coordinates":[-74.937202,-10.2992]}},{"id":"6209","type":"Feature","properties":{"ident":"SPEP","type":"small_airport","name":"Puerto Esperanza Airport","elevation_ft":"725","continent":"SA","iso_country":"PE","iso_region":"PE-UCA","municipality":"Esperanza","scheduled_service":"no","gps_code":"SPEP","wikipedia_link":"https://en.wikipedia.org/wiki/Puerto_Esperanza_Airport"},"geometry":{"type":"Point","coordinates":[-70.706497,-9.76813]}},{"id":"32374","type":"Feature","properties":{"ident":"SPTI","type":"small_airport","name":"Puerto Inca Airport","elevation_ft":"583","continent":"SA","iso_country":"PE","iso_region":"PE-HUC","municipality":"Puerto Inca","scheduled_service":"no","gps_code":"SPTI"},"geometry":{"type":"Point","coordinates":[-74.967003,-9.383]}},{"id":"351491","type":"Feature","properties":{"ident":"PE-0017","type":"heliport","name":"Puerto Ocopa Heliport","elevation_ft":"1056","continent":"SA","iso_country":"PE","iso_region":"PE-JUN","municipality":"Puerto Ocopa","scheduled_service":"no"},"geometry":{"type":"Point","coordinates":[-74.30629,-11.14793]}},{"id":"39594","type":"Feature","properties":{"ident":"SPGT","type":"small_airport","name":"Puerto Victoria Airport","elevation_ft":"782","continent":"SA","iso_country":"PE","iso_region":"PE-PAS","municipality":"Puerto Victoria","scheduled_service":"no","gps_code":"SPGT"},"geometry":{"type":"Point","coordinates":[-74.964104,-9.90261]}},{"id":"327368","type":"Feature","properties":{"ident":"PE-0006","type":"small_airport","name":"Quempiri Airfield","elevation_ft":"1329","continent":"SA","iso_country":"PE","iso_region":"PE-JUN","municipality":"Cutivireni","scheduled_service":"no","gps_code":"SPCV"},"geometry":{"type":"Point","coordinates":[-73.916868,-11.876932]}},{"id":"32540","type":"Feature","properties":{"ident":"SPIL","type":"small_airport","name":"Quincemil Air Base","elevation_ft":"2047","continent":"SA","iso_country":"PE","iso_region":"PE-CUS","municipality":"Quince Mil","scheduled_service":"no","icao_code":"SPIL","iata_code":"UMI","gps_code":"SPIL","wikipedia_link":"https://en.wikipedia.org/wiki/Quince_Mil_Airport"},"geometry":{"type":"Point","coordinates":[-70.75145,-13.231357]}},{"id":"39646","type":"Feature","properties":{"ident":"SPQR","type":"small_airport","name":"Quiruvilca Airport","elevation_ft":"13509","continent":"SA","iso_country":"PE","iso_region":"PE-LAL","municipality":"Qiruvilca","scheduled_service":"no","gps_code":"SPQR"},"geometry":{"type":"Point","coordinates":[-78.199997,-7.966667]}},{"id":"351493","type":"Feature","properties":{"ident":"SPRR","type":"small_airport","name":"Revalora Airport","elevation_ft":"591","continent":"SA","iso_country":"PE","iso_region":"PE-LIM","municipality":"San Vicente de Cañete","scheduled_service":"no","gps_code":"SPRR"},"geometry":{"type":"Point","coordinates":[-76.26927,-13.22283]}},{"id":"39636","type":"Feature","properties":{"ident":"SPNR","type":"small_airport","name":"Ricrán Airport","elevation_ft":"13720","continent":"SA","iso_country":"PE","iso_region":"PE-PAS","municipality":"Ricrán","scheduled_service":"no","gps_code":"SPNR"},"geometry":{"type":"Point","coordinates":[-76.251312,-10.77795]}},{"id":"6233","type":"Feature","properties":{"ident":"SPQU","type":"medium_airport","name":"Rodríguez Ballón International Airport","elevation_ft":"8405","continent":"SA","iso_country":"PE","iso_region":"PE-ARE","municipality":"Arequipa","scheduled_service":"yes","icao_code":"SPQU","iata_code":"AQP","gps_code":"SPQU","wikipedia_link":"https://en.wikipedia.org/wiki/Rodriguez_Ballon_International_Airport"},"geometry":{"type":"Point","coordinates":[-71.583099,-16.341101]}},{"id":"356333","type":"Feature","properties":{"ident":"PE-0027","type":"small_airport","name":"San Bartolo Airport","continent":"SA","iso_country":"PE","iso_region":"PE-LIM","municipality":"San Bartolo","scheduled_service":"no"},"geometry":{"type":"Point","coordinates":[-76.78206,-12.38084]}},{"id":"32373","type":"Feature","properties":{"ident":"SPTE","type":"small_airport","name":"San Francisco Airport","elevation_ft":"2499","continent":"SA","iso_country":"PE","iso_region":"PE-CUS","municipality":"San Francisco","scheduled_service":"no","gps_code":"SPTE"},"geometry":{"type":"Point","coordinates":[-73.800003,-12.533]}},{"id":"39650","type":"Feature","properties":{"ident":"SPSF","type":"small_airport","name":"San Francisco Airport","elevation_ft":"8202","continent":"SA","iso_country":"PE","iso_region":"PE-AMA","municipality":"San Francisco de Yeso","scheduled_service":"no","gps_code":"SPSF"},"geometry":{"type":"Point","coordinates":[-77.766701,-6.61668]}},{"id":"39651","type":"Feature","properties":{"ident":"SPSJ","type":"small_airport","name":"San José de Sisa Airport","elevation_ft":"1200","continent":"SA","iso_country":"PE","iso_region":"PE-SAM","municipality":"El Dorado","scheduled_service":"no","gps_code":"SPSJ"},"geometry":{"type":"Point","coordinates":[-76.6884,-6.61649]}},{"id":"32302","type":"Feature","properties":{"ident":"SPJN","type":"small_airport","name":"San Juan de Marcona Airport","elevation_ft":"144","continent":"SA","iso_country":"PE","iso_region":"PE-ICA","municipality":"San Juan de Marcona","scheduled_service":"no","icao_code":"SPJN","iata_code":"SJA","gps_code":"SPJN","wikipedia_link":"https://en.wikipedia.org/wiki/San_Juan_de_Marcona_Airport"},"geometry":{"type":"Point","coordinates":[-75.135005,-15.357508]}},{"id":"330829","type":"Feature","properties":{"ident":"PE-0009","type":"small_airport","name":"San Lorenzo Airport","elevation_ft":"433","continent":"SA","iso_country":"PE","iso_region":"PE-LOR","municipality":"San Lorenzo","scheduled_service":"no","gps_code":"SPQM","wikipedia_link":"https://en.wikipedia.org/wiki/San_Lorenzo_Airport,_Peru"},"geometry":{"type":"Point","coordinates":[-76.56032,-4.824369]}},{"id":"32359","type":"Feature","properties":{"ident":"SPLN","type":"small_airport","name":"San Nicolas Airport","elevation_ft":"5082","continent":"SA","iso_country":"PE","iso_region":"PE-AMA","municipality":"Rodriguez de Mendoza","scheduled_service":"no","icao_code":"SPLN","iata_code":"RIM","gps_code":"SPLN","wikipedia_link":"https://en.wikipedia.org/wiki/San_Nicolas_Airport"},"geometry":{"type":"Point","coordinates":[-77.501198,-6.39231]}},{"id":"28475","type":"Feature","properties":{"ident":"SPRF","type":"small_airport","name":"San Rafael Airport","elevation_ft":"14422","continent":"SA","iso_country":"PE","iso_region":"PE-PUN","municipality":"San Rafael","scheduled_service":"no","gps_code":"SPRF"},"geometry":{"type":"Point","coordinates":[-70.37989,-14.28201]}},{"id":"39647","type":"Feature","properties":{"ident":"SPRG","type":"small_airport","name":"San Regis Airport","elevation_ft":"294","continent":"SA","iso_country":"PE","iso_region":"PE-ICA","municipality":"Chincha","scheduled_service":"no","gps_code":"SPRG"},"geometry":{"type":"Point","coordinates":[-76.08398,-13.5113]}},{"id":"327366","type":"Feature","properties":{"ident":"PE-0004","type":"small_airport","name":"Santa Maria de Fatima Airport","elevation_ft":"857","continent":"SA","iso_country":"PE","iso_region":"PE-MDD","scheduled_service":"no"},"geometry":{"type":"Point","coordinates":[-68.994212,-11.940815]}},{"id":"39603","type":"Feature","properties":{"ident":"SPOA","type":"small_airport","name":"Saposoa Airport","elevation_ft":"982","continent":"SA","iso_country":"PE","iso_region":"PE-SAM","municipality":"Plaza Saposoa","scheduled_service":"no","icao_code":"SPOA","iata_code":"SQU","gps_code":"SPOA","wikipedia_link":"https://en.wikipedia.org/wiki/Saposoa_Airport"},"geometry":{"type":"Point","coordinates":[-76.768402,-6.96003]}},{"id":"330828","type":"Feature","properties":{"ident":"PE-0008","type":"small_airport","name":"Saramuro Airport","elevation_ft":"367","continent":"SA","iso_country":"PE","iso_region":"PE-LOR","municipality":"Saramuro","scheduled_service":"no"},"geometry":{"type":"Point","coordinates":[-74.876733,-4.707892]}},{"id":"32371","type":"Feature","properties":{"ident":"SPSE","type":"small_airport","name":"Sepahua Airport","elevation_ft":"886","continent":"SA","iso_country":"PE","iso_region":"PE-UCA","municipality":"Sepahua","scheduled_service":"no","gps_code":"SPSE","wikipedia_link":"https://en.wikipedia.org/wiki/Sepahua_Airport"},"geometry":{"type":"Point","coordinates":[-73.034327,-11.14227]}},{"id":"39653","type":"Feature","properties":{"ident":"SPSN","type":"small_airport","name":"Shapaja Airport","elevation_ft":"700","continent":"SA","iso_country":"PE","iso_region":"PE-SAM","municipality":"Shapaja","scheduled_service":"no","gps_code":"SPSN"},"geometry":{"type":"Point","coordinates":[-76.262802,-6.57972]}},{"id":"39655","type":"Feature","properties":{"ident":"SPSY","type":"small_airport","name":"Shiringayoc Airport","elevation_ft":"856","continent":"SA","iso_country":"PE","iso_region":"PE-MDD","municipality":"Shiringayoc","scheduled_service":"no","icao_code":"SPSY","iata_code":"SYC","gps_code":"SPSY"},"geometry":{"type":"Point","coordinates":[-69.0625,-11.898]}},{"id":"32412","type":"Feature","properties":{"ident":"SPOV","type":"small_airport","name":"Shiringayoc/Hacienda Hda Mejia Airport","elevation_ft":"748","continent":"SA","iso_country":"PE","iso_region":"PE-MDD","municipality":"Leon Velarde","scheduled_service":"no","gps_code":"SPOV"},"geometry":{"type":"Point","coordinates":[-69.167,-11.9]}},{"id":"6219","type":"Feature","properties":{"ident":"SPJE","type":"medium_airport","name":"Shumba Airport","elevation_ft":"2477","continent":"SA","iso_country":"PE","iso_region":"PE-CAJ","municipality":"Jaén","scheduled_service":"yes","icao_code":"SPJE","iata_code":"JAE","gps_code":"SPJE","wikipedia_link":"https://en.wikipedia.org/wiki/Ja%C3%A9n_Airport"},"geometry":{"type":"Point","coordinates":[-78.774002,-5.59248]}},{"id":"32372","type":"Feature","properties":{"ident":"SPSI","type":"small_airport","name":"Siguas Airport","elevation_ft":"4720","continent":"SA","iso_country":"PE","iso_region":"PE-ARE","municipality":"Siguas","scheduled_service":"no","gps_code":"SPSI"},"geometry":{"type":"Point","coordinates":[-72.167,-16.367001]}},{"id":"351494","type":"Feature","properties":{"ident":"PE-0019","type":"small_airport","name":"Tamburco Airport","elevation_ft":"13002","continent":"SA","iso_country":"PE","iso_region":"PE-APU","municipality":"Tamburco","scheduled_service":"no"},"geometry":{"type":"Point","coordinates":[-72.82457,-13.56872]}},{"id":"351492","type":"Feature","properties":{"ident":"PE-0018","type":"heliport","name":"Tanquin Heliport","elevation_ft":"1880","continent":"SA","iso_country":"PE","iso_region":"PE-JUN","municipality":"Tanquin","scheduled_service":"no"},"geometry":{"type":"Point","coordinates":[-74.07599,-12.12632]}},{"id":"316784","type":"Feature","properties":{"ident":"PE-0002","type":"small_airport","name":"Teniente Bergerie Airport","elevation_ft":"384","continent":"SA","iso_country":"PE","iso_region":"PE-LOR","municipality":"Iquitos","scheduled_service":"no","gps_code":"SPID","home_link":"https://skyvector.com/airport/SPID/Teniente-Bergerie-Airport","wikipedia_link":"https://en.wikipedia.org/wiki/Lieutenant_Bergerie_airport"},"geometry":{"type":"Point","coordinates":[-73.2604,-3.7422]}},{"id":"6202","type":"Feature","properties":{"ident":"SPAY","type":"medium_airport","name":"Teniente General Gerardo Pérez Pinedo Airport","elevation_ft":"751","continent":"SA","iso_country":"PE","iso_region":"PE-UCA","municipality":"Atalaya","scheduled_service":"no","icao_code":"SPAY","iata_code":"AYX","gps_code":"SPAY","wikipedia_link":"https://en.wikipedia.org/wiki/Tnte._Gral._Gerardo_P%C3%A9rez_Pinedo_Airport"},"geometry":{"type":"Point","coordinates":[-73.766502,-10.7291]}},{"id":"32438","type":"Feature","properties":{"ident":"SPGM","type":"small_airport","name":"Tingo Maria Airport","elevation_ft":"2146","continent":"SA","iso_country":"PE","iso_region":"PE-HUC","municipality":"Tingo Maria","scheduled_service":"no","icao_code":"SPGM","iata_code":"TGI","gps_code":"SPGM","wikipedia_link":"https://en.wikipedia.org/wiki/Tingo_Mar%C3%ADa_Airport"},"geometry":{"type":"Point","coordinates":[-76.005058,-9.289667]}},{"id":"32366","type":"Feature","properties":{"ident":"SPPB","type":"small_airport","name":"Tipishsa Airport","elevation_ft":"783","continent":"SA","iso_country":"PE","iso_region":"PE-UCA","municipality":"Puerto Breu","scheduled_service":"no","gps_code":"SPPB","wikipedia_link":"https://en.wikipedia.org/wiki/Tipishsa_Airport"},"geometry":{"type":"Point","coordinates":[-72.756897,-9.53306]}},{"id":"32348","type":"Feature","properties":{"ident":"SPCH","type":"small_airport","name":"Tocache Airport","elevation_ft":"1631","continent":"SA","iso_country":"PE","iso_region":"PE-SAM","municipality":"Tocache","scheduled_service":"no","gps_code":"SPCH","local_code":"TCG","wikipedia_link":"https://en.wikipedia.org/wiki/Tocache_Airport"},"geometry":{"type":"Point","coordinates":[-76.530241,-8.195356]}},{"id":"39606","type":"Feature","properties":{"ident":"SPTQ","type":"small_airport","name":"Toquepala Airport","elevation_ft":"8536","continent":"SA","iso_country":"PE","iso_region":"PE-TAC","municipality":"Toquepala","scheduled_service":"no","gps_code":"SPTQ","wikipedia_link":"https://en.wikipedia.org/wiki/Toquepala_Airport"},"geometry":{"type":"Point","coordinates":[-70.652802,-17.2995]}},{"id":"32376","type":"Feature","properties":{"ident":"SPTR","type":"small_airport","name":"Tournavista Airport","elevation_ft":"649","continent":"SA","iso_country":"PE","iso_region":"PE-HUC","municipality":"Tournavista","scheduled_service":"no","gps_code":"SPTR"},"geometry":{"type":"Point","coordinates":[-74.715234,-8.922406]}},{"id":"6206","type":"Feature","properties":{"ident":"SPDR","type":"small_airport","name":"Trompeteros Airport","elevation_ft":"427","continent":"SA","iso_country":"PE","iso_region":"PE-LOR","municipality":"Corrientes","scheduled_service":"no","icao_code":"SPDR","iata_code":"TDP","gps_code":"SPDR","wikipedia_link":"https://en.wikipedia.org/wiki/Trompeteros_Airport"},"geometry":{"type":"Point","coordinates":[-75.039299,-3.80601]}},{"id":"525269","type":"Feature","properties":{"ident":"SPTO","type":"small_airport","name":"Tulpo Airport","elevation_ft":"10702","continent":"SA","iso_country":"PE","iso_region":"PE-LAL","municipality":"Santa Clara de Tulpo","scheduled_service":"no","gps_code":"SPTO","wikipedia_link":"https://en.wikipedia.org/wiki/Tulpo_Airport"},"geometry":{"type":"Point","coordinates":[-77.988,-8.127167]}},{"id":"32357","type":"Feature","properties":{"ident":"SPIZ","type":"small_airport","name":"Uchiza Airport","elevation_ft":"1965","continent":"SA","iso_country":"PE","iso_region":"PE-HUC","municipality":"Uchiza","scheduled_service":"no","iata_code":"UCZ","gps_code":"SPIZ","wikipedia_link":"https://en.wikipedia.org/wiki/Uchiza_Airport"},"geometry":{"type":"Point","coordinates":[-76.349998,-8.467]}},{"id":"39612","type":"Feature","properties":{"ident":"SPAI","type":"small_airport","name":"Urpay Airport","elevation_ft":"10400","continent":"SA","iso_country":"PE","iso_region":"PE-LAL","municipality":"Pataz","scheduled_service":"no","gps_code":"SPAI"},"geometry":{"type":"Point","coordinates":[-77.3985,-8.3495]}},{"id":"32361","type":"Feature","properties":{"ident":"SPNP","type":"small_airport","name":"Ventilla Airport","elevation_ft":"13123","continent":"SA","iso_country":"PE","iso_region":"PE-PUN","municipality":"Ventilla","scheduled_service":"no","gps_code":"SPNP"},"geometry":{"type":"Point","coordinates":[-70.05871,-15.85131]}},{"id":"39607","type":"Feature","properties":{"ident":"SPVI","type":"small_airport","name":"Vicco Airport","elevation_ft":"13464","continent":"SA","iso_country":"PE","iso_region":"PE-PAS","municipality":"Vicco","scheduled_service":"no","gps_code":"SPVI","wikipedia_link":"https://en.wikipedia.org/wiki/Vicco_Airport"},"geometry":{"type":"Point","coordinates":[-76.246956,-10.847844]}},{"id":"525138","type":"Feature","properties":{"ident":"SPVN","type":"small_airport","name":"Vilcashuamán Airport","elevation_ft":"11965","continent":"SA","iso_country":"PE","iso_region":"PE-AYA","municipality":"Vilcashuamán","scheduled_service":"no","gps_code":"SPVN","wikipedia_link":"https://en.wikipedia.org/wiki/Vilcashuam%C3%A1n_Airport"},"geometry":{"type":"Point","coordinates":[-73.927,-13.67817]}},{"id":"32378","type":"Feature","properties":{"ident":"SPVR","type":"small_airport","name":"Vitor Airport","continent":"SA","iso_country":"PE","iso_region":"PE-ARE","municipality":"La Joya","scheduled_service":"no","gps_code":"SPVR"},"geometry":{"type":"Point","coordinates":[-71.837799,-16.429199]}},{"id":"353418","type":"Feature","properties":{"ident":"PE-0023","type":"small_airport","name":"Walter Braedt Segú Airport","elevation_ft":"30","continent":"SA","iso_country":"PE","iso_region":"PE-TUM","municipality":"Máncora","scheduled_service":"no","iata_code":"PTL","gps_code":"SPWB","local_code":"SPWB","wikipedia_link":"https://es.wikipedia.org/wiki/Aer%C3%B3dromo_Walter_Braedt_Seg%C3%BA"},"geometry":{"type":"Point","coordinates":[-81.02577,-4.08687]}},{"id":"353424","type":"Feature","properties":{"ident":"PE-0024","type":"small_airport","name":"Yapatera Airport","elevation_ft":"328","continent":"SA","iso_country":"PE","iso_region":"PE-PIU","municipality":"Yapatera","scheduled_service":"no"},"geometry":{"type":"Point","coordinates":[-80.14731,-5.06777]}},{"id":"327371","type":"Feature","properties":{"ident":"SPYC","type":"small_airport","name":"Yarinacocha Airport","elevation_ft":"489","continent":"SA","iso_country":"PE","iso_region":"PE-UCA","municipality":"Pucallpa","scheduled_service":"no","gps_code":"SPYC"},"geometry":{"type":"Point","coordinates":[-74.597906,-8.340436]}},{"id":"32380","type":"Feature","properties":{"ident":"SPYU","type":"small_airport","name":"Yauca Airport","elevation_ft":"488","continent":"SA","iso_country":"PE","iso_region":"PE-ARE","municipality":"Yauca","scheduled_service":"no","gps_code":"SPYU"},"geometry":{"type":"Point","coordinates":[-74.536102,-15.6189]}},{"id":"32356","type":"Feature","properties":{"ident":"SPIY","type":"small_airport","name":"Yauri Airport","elevation_ft":"12972","continent":"SA","iso_country":"PE","iso_region":"PE-CUS","municipality":"Yauri","scheduled_service":"no","gps_code":"SPIY","wikipedia_link":"https://en.wikipedia.org/wiki/Yauri_Airport"},"geometry":{"type":"Point","coordinates":[-71.431818,-14.796129]}},{"id":"32360","type":"Feature","properties":{"ident":"SPLS","type":"small_airport","name":"Zorrillos Airport","elevation_ft":"711","continent":"SA","iso_country":"PE","iso_region":"PE-UCA","municipality":"Zorrillos","scheduled_service":"no","gps_code":"SPLS"},"geometry":{"type":"Point","coordinates":[-75.133003,-8.417]}}]}