{"type":"FeatureCollection","features":[{"id":"562342","type":"Feature","properties":{"ident":"PH-0621","type":"heliport","name":"139 Corporate Center Heliport","continent":"AS","iso_country":"PH","iso_region":"PH-00","municipality":"Makati","scheduled_service":"no"},"geometry":{"type":"Point","coordinates":[121.022051,14.557982]}},{"id":"325977","type":"Feature","properties":{"ident":"PH-0080","type":"heliport","name":"207th Tactical Helicopter Squadron Heliport","continent":"AS","iso_country":"PH","iso_region":"PH-00","municipality":"Pasig","scheduled_service":"no","keywords":"207th Tactical Helicopter Squadron"},"geometry":{"type":"Point","coordinates":[121.028631,14.516384]}},{"id":"345372","type":"Feature","properties":{"ident":"PH-0413","type":"heliport","name":"518 Fundidor Street Helipad","continent":"AS","iso_country":"PH","iso_region":"PH-00","municipality":"Manila","scheduled_service":"no"},"geometry":{"type":"Point","coordinates":[120.97196,14.60105]}},{"id":"342185","type":"Feature","properties":{"ident":"PH-0353","type":"small_airport","name":"A O Floirendo Airstrip","elevation_ft":"118","continent":"AS","iso_country":"PH","iso_region":"PH-DAV","municipality":"Panabo","scheduled_service":"no"},"geometry":{"type":"Point","coordinates":[125.57206,7.38908]}},{"id":"343583","type":"Feature","properties":{"ident":"PH-0361","type":"heliport","name":"ABS-CBN Building Helipad","continent":"AS","iso_country":"PH","iso_region":"PH-00","municipality":"Quezon City","scheduled_service":"no"},"geometry":{"type":"Point","coordinates":[121.03531,14.63962]}},{"id":"339323","type":"Feature","properties":{"ident":"PH-0315","type":"heliport","name":"ACT Tower Heliport","continent":"AS","iso_country":"PH","iso_region":"PH-00","municipality":"Makati","scheduled_service":"no"},"geometry":{"type":"Point","coordinates":[121.02266,14.561731]}},{"id":"508760","type":"Feature","properties":{"ident":"PH-0577","type":"heliport","name":"Adventure Beach Heliport","elevation_ft":"13","continent":"AS","iso_country":"PH","iso_region":"PH-ZMB","municipality":"Subic","scheduled_service":"no"},"geometry":{"type":"Point","coordinates":[120.25655,14.76451]}},{"id":"348303","type":"Feature","properties":{"ident":"PH-0416","type":"heliport","name":"AES Masinloc Heliport","elevation_ft":"71","continent":"AS","iso_country":"PH","iso_region":"PH-ZMB","municipality":"Masinloc","scheduled_service":"no"},"geometry":{"type":"Point","coordinates":[119.92365,15.57493]}},{"id":"349565","type":"Feature","properties":{"ident":"PH-0446","type":"small_airport","name":"Agutaya Airport","continent":"AS","iso_country":"PH","iso_region":"PH-PLW","municipality":"Agutaya","scheduled_service":"no"},"geometry":{"type":"Point","coordinates":[120.95376,11.15911]}},{"id":"341584","type":"Feature","properties":{"ident":"PH-0335","type":"heliport","name":"AIC Burgundy Empire Tower Helipad","continent":"AS","iso_country":"PH","iso_region":"PH-00","municipality":"Pasig","scheduled_service":"no"},"geometry":{"type":"Point","coordinates":[121.06098,14.58969]}},{"id":"32223","type":"Feature","properties":{"ident":"RPLY","type":"small_airport","name":"Alabat Island Airport","elevation_ft":"6","continent":"AS","iso_country":"PH","iso_region":"PH-QUE","municipality":"Perez","scheduled_service":"no","icao_code":"RPLY","gps_code":"RPLY"},"geometry":{"type":"Point","coordinates":[121.929118,14.2329]}},{"id":"5694","type":"Feature","properties":{"ident":"RPMA","type":"medium_airport","name":"Allah Valley Airport","elevation_ft":"659","continent":"AS","iso_country":"PH","iso_region":"PH-SCO","municipality":"Surallah","scheduled_service":"no","icao_code":"RPMA","iata_code":"AAV","gps_code":"RPMA","wikipedia_link":"https://en.wikipedia.org/wiki/Allah_Valley_Airport","keywords":"Alah Valley Airport"},"geometry":{"type":"Point","coordinates":[124.752431,6.367903]}},{"id":"326056","type":"Feature","properties":{"ident":"PH-0138","type":"heliport","name":"Allied Bank Center Heliport","continent":"AS","iso_country":"PH","iso_region":"PH-00","municipality":"Makati","scheduled_service":"no","keywords":"Allied Bank Center"},"geometry":{"type":"Point","coordinates":[121.023465,14.554888]}},{"id":"342564","type":"Feature","properties":{"ident":"PH-0359","type":"heliport","name":"Alpha Saucedo Condominium Helipad","elevation_ft":"518","continent":"AS","iso_country":"PH","iso_region":"PH-00","municipality":"Makati","scheduled_service":"no"},"geometry":{"type":"Point","coordinates":[121.02267,14.5611]}},{"id":"325987","type":"Feature","properties":{"ident":"PH-0086","type":"heliport","name":"Alto Airfield Helipad","continent":"AS","iso_country":"PH","iso_region":"PH-TAR","municipality":"Tarlac City","scheduled_service":"no","keywords":"Alto, Tarlac"},"geometry":{"type":"Point","coordinates":[120.6344,15.423048]}},{"id":"562073","type":"Feature","properties":{"ident":"PH-0618","type":"small_airport","name":"Alvarez Airport","elevation_ft":"30","continent":"AS","iso_country":"PH","iso_region":"PH-NEC","municipality":"Ilog","scheduled_service":"no"},"geometry":{"type":"Point","coordinates":[122.79238,10.01272]}},{"id":"577108","type":"Feature","properties":{"ident":"PH-0674","type":"heliport","name":"Ambuklao Dam Heliport","elevation_ft":"3054","continent":"AS","iso_country":"PH","iso_region":"PH-BEN","municipality":"Bokod","scheduled_service":"no"},"geometry":{"type":"Point","coordinates":[120.73795,16.46621]}},{"id":"504882","type":"Feature","properties":{"ident":"PH-0566","type":"small_airport","name":"Amoroy Airport","elevation_ft":"49","continent":"AS","iso_country":"PH","iso_region":"PH-MAS","municipality":"Aroroy","scheduled_service":"no"},"geometry":{"type":"Point","coordinates":[123.37509,12.50281]}},{"id":"336812","type":"Feature","properties":{"ident":"PH-0179","type":"heliport","name":"Angeles University Medical Center Helipad","continent":"AS","iso_country":"PH","iso_region":"PH-PAM","municipality":"Angeles","scheduled_service":"no"},"geometry":{"type":"Point","coordinates":[120.594875,15.144919]}},{"id":"571478","type":"Feature","properties":{"ident":"PH-0651","type":"heliport","name":"Animal Island Heliport","elevation_ft":"3","continent":"AS","iso_country":"PH","iso_region":"PH-CAV","municipality":"Kawit","scheduled_service":"no","keywords":"RPARC"},"geometry":{"type":"Point","coordinates":[120.91788,14.46809]}},{"id":"341587","type":"Feature","properties":{"ident":"PH-0338","type":"heliport","name":"Antel Global Business Center Helipad","continent":"AS","iso_country":"PH","iso_region":"PH-00","municipality":"Pasig","scheduled_service":"no"},"geometry":{"type":"Point","coordinates":[121.06289,14.58398]}},{"id":"343749","type":"Feature","properties":{"ident":"PH-0383","type":"heliport","name":"Antel Platinum Towers Helipad","continent":"AS","iso_country":"PH","iso_region":"PH-00","municipality":"Makati","scheduled_service":"no"},"geometry":{"type":"Point","coordinates":[121.02405,14.55915]}},{"id":"336815","type":"Feature","properties":{"ident":"PH-0181","type":"heliport","name":"Anvaya Cove Heliport","continent":"AS","iso_country":"PH","iso_region":"PH-BAN","municipality":"Morong","scheduled_service":"no"},"geometry":{"type":"Point","coordinates":[120.27186,14.71879]}},{"id":"309720","type":"Feature","properties":{"ident":"PH-0449","type":"small_airport","name":"Aparri (Maura) Airport","elevation_ft":"19","continent":"AS","iso_country":"PH","iso_region":"PH-CAG","municipality":"Aparri","scheduled_service":"no","keywords":"RPUA"},"geometry":{"type":"Point","coordinates":[121.653907,18.35485]}},{"id":"325988","type":"Feature","properties":{"ident":"PH-0087","type":"small_airport","name":"Apuao Grande Island Airstrip","continent":"AS","iso_country":"PH","iso_region":"PH-CAN","municipality":"Mercedes","scheduled_service":"no","keywords":"Apuao Grande"},"geometry":{"type":"Point","coordinates":[123.092194,14.084946]}},{"id":"504733","type":"Feature","properties":{"ident":"PH-0507","type":"small_airport","name":"Apurawan Airport","elevation_ft":"23","continent":"AS","iso_country":"PH","iso_region":"PH-PLW","municipality":"Aborlan","scheduled_service":"no","keywords":"Aporawan, Apurauan"},"geometry":{"type":"Point","coordinates":[118.33837,9.59763]}},{"id":"514793","type":"Feature","properties":{"ident":"PH-0583","type":"heliport","name":"Araneta Center Helipad","continent":"AS","iso_country":"PH","iso_region":"PH-00","municipality":"Quezon City","scheduled_service":"no"},"geometry":{"type":"Point","coordinates":[121.051308,14.620873]}},{"id":"562346","type":"Feature","properties":{"ident":"PH-0625","type":"heliport","name":"Asian Century Center Heliport","continent":"AS","iso_country":"PH","iso_region":"PH-00","municipality":"Taguig","scheduled_service":"no"},"geometry":{"type":"Point","coordinates":[121.046148,14.550482]}},{"id":"326064","type":"Feature","properties":{"ident":"PH-0146","type":"heliport","name":"Asian Development Bank Heliport","continent":"AS","iso_country":"PH","iso_region":"PH-00","municipality":"Mandaluyong","scheduled_service":"no","keywords":"Asian Development Bank, Makati"},"geometry":{"type":"Point","coordinates":[121.058331,14.588634]}},{"id":"571383","type":"Feature","properties":{"ident":"PH-0644","type":"heliport","name":"Asian Star Building Heliport","continent":"AS","iso_country":"PH","iso_region":"PH-00","municipality":"Muntinlupa","scheduled_service":"no"},"geometry":{"type":"Point","coordinates":[121.0378,14.41967]}},{"id":"516554","type":"Feature","properties":{"ident":"PH-0590","type":"small_airport","name":"Asturias Airstrip","elevation_ft":"69","continent":"AS","iso_country":"PH","iso_region":"PH-CEB","municipality":"Asturias","scheduled_service":"no"},"geometry":{"type":"Point","coordinates":[123.745703,10.540039]}},{"id":"340073","type":"Feature","properties":{"ident":"PH-0318","type":"heliport","name":"Aurora Tower Heliport","continent":"AS","iso_country":"PH","iso_region":"PH-00","municipality":"Quezon City","scheduled_service":"no"},"geometry":{"type":"Point","coordinates":[121.05357,14.62278]}},{"id":"341588","type":"Feature","properties":{"ident":"PH-0339","type":"heliport","name":"Avant Garde Residences Helipad","continent":"AS","iso_country":"PH","iso_region":"PH-00","municipality":"Pasig","scheduled_service":"no"},"geometry":{"type":"Point","coordinates":[121.06325,14.58359]}},{"id":"571477","type":"Feature","properties":{"ident":"PH-0650","type":"heliport","name":"Ayala Alabang Heliport","elevation_ft":"154","continent":"AS","iso_country":"PH","iso_region":"PH-00","municipality":"Muntinlupa","scheduled_service":"no","keywords":"RP0XA"},"geometry":{"type":"Point","coordinates":[121.01525,14.40851]}},{"id":"553623","type":"Feature","properties":{"ident":"PH-0611","type":"heliport","name":"Ayala Tower 2 Helipad","continent":"AS","iso_country":"PH","iso_region":"PH-00","municipality":"Makati","scheduled_service":"no"},"geometry":{"type":"Point","coordinates":[121.025513,14.557678]}},{"id":"326033","type":"Feature","properties":{"ident":"PH-0117","type":"heliport","name":"Ayala Tower One /  Philippine Exchange Plaza Heliport","continent":"AS","iso_country":"PH","iso_region":"PH-00","municipality":"Makati","scheduled_service":"no","keywords":"Makati, Tower One, Exchange Plaza"},"geometry":{"type":"Point","coordinates":[121.022483,14.55664]}},{"id":"308653","type":"Feature","properties":{"ident":"PH-0003","type":"small_airport","name":"Azagra Airstrip","elevation_ft":"10","continent":"AS","iso_country":"PH","iso_region":"PH-ROM","municipality":"San Fernando","scheduled_service":"no"},"geometry":{"type":"Point","coordinates":[122.6246,12.2799]}},{"id":"35178","type":"Feature","properties":{"ident":"RPVB","type":"medium_airport","name":"Bacolod-Silay Airport","elevation_ft":"82","continent":"AS","iso_country":"PH","iso_region":"PH-NEC","municipality":"Bacolod City","scheduled_service":"yes","icao_code":"RPVB","iata_code":"BCD","gps_code":"RPVB","home_link":"http://www.bacolod-silayairport.com/","wikipedia_link":"https://en.wikipedia.org/wiki/Bacolod%E2%80%93Silay_Airport"},"geometry":{"type":"Point","coordinates":[123.014999,10.7764]}},{"id":"42465","type":"Feature","properties":{"ident":"RPLZ","type":"small_airport","name":"Bacon Community Airport","elevation_ft":"120","continent":"AS","iso_country":"PH","iso_region":"PH-SOR","municipality":"Sorsogon","scheduled_service":"no","icao_code":"RPLZ","gps_code":"RPLZ"},"geometry":{"type":"Point","coordinates":[124.025942,13.00696]}},{"id":"571377","type":"Feature","properties":{"ident":"PH-0642","type":"heliport","name":"Bacoor City Hall Heliport","continent":"AS","iso_country":"PH","iso_region":"PH-CAV","municipality":"Bacoor","scheduled_service":"no","keywords":"RP0ZP"},"geometry":{"type":"Point","coordinates":[120.96761,14.43177]}},{"id":"5731","type":"Feature","properties":{"ident":"RPUZ","type":"small_airport","name":"Bagabag Airport","elevation_ft":"820","continent":"AS","iso_country":"PH","iso_region":"PH-NUV","scheduled_service":"no","gps_code":"RPUZ","wikipedia_link":"https://en.wikipedia.org/wiki/Bagabag_Airport"},"geometry":{"type":"Point","coordinates":[121.251999,16.6192]}},{"id":"504869","type":"Feature","properties":{"ident":"PH-0553","type":"small_airport","name":"Balabagan Airport","elevation_ft":"49","continent":"AS","iso_country":"PH","iso_region":"PH-LAS","municipality":"Balabagan","scheduled_service":"no"},"geometry":{"type":"Point","coordinates":[124.12312,7.51461]}},{"id":"326186","type":"Feature","properties":{"ident":"PH-0159","type":"heliport","name":"Balamban Heliport","continent":"AS","iso_country":"PH","iso_region":"PH-CEB","municipality":"Balamban","scheduled_service":"no","keywords":"Balamban"},"geometry":{"type":"Point","coordinates":[123.69704,10.470439]}},{"id":"324042","type":"Feature","properties":{"ident":"RPLE","type":"small_airport","name":"Balesin Island Airport","elevation_ft":"25","continent":"AS","iso_country":"PH","iso_region":"PH-BAS","municipality":"Balesin","scheduled_service":"no","icao_code":"RPLE","iata_code":"BSI","gps_code":"RPLE","wikipedia_link":"https://en.wikipedia.org/wiki/Balesin_Island_Airport","keywords":"RPBL, Polilio, E. L. Tordesillas"},"geometry":{"type":"Point","coordinates":[122.03923,14.418624]}},{"id":"343772","type":"Feature","properties":{"ident":"PH-0389","type":"heliport","name":"Baliuag Heliport","elevation_ft":"59","continent":"AS","iso_country":"PH","iso_region":"PH-BUL","municipality":"Baliuag","scheduled_service":"no"},"geometry":{"type":"Point","coordinates":[120.8948,14.96542]}},{"id":"343846","type":"Feature","properties":{"ident":"PH-0390","type":"small_airport","name":"Bamban Airfield","elevation_ft":"187","continent":"AS","iso_country":"PH","iso_region":"PH-TAR","municipality":"Bamban","scheduled_service":"no"},"geometry":{"type":"Point","coordinates":[120.58954,15.30142]}},{"id":"5698","type":"Feature","properties":{"ident":"RPME","type":"medium_airport","name":"Bancasi Airport","elevation_ft":"141","continent":"AS","iso_country":"PH","iso_region":"PH-BTC","municipality":"Butuan","scheduled_service":"yes","icao_code":"RPME","iata_code":"BXU","gps_code":"RPME","wikipedia_link":"https://en.wikipedia.org/wiki/Bancasi_Airport"},"geometry":{"type":"Point","coordinates":[125.4788,8.9515]}},{"id":"302305","type":"Feature","properties":{"ident":"RPSB","type":"small_airport","name":"Bantayan Airport","elevation_ft":"60","continent":"AS","iso_country":"PH","iso_region":"PH-CEB","municipality":"Santa Fe","scheduled_service":"no","gps_code":"RPSB","wikipedia_link":"https://en.wikipedia.org/wiki/Bantayan_Airport","keywords":"Bantayan Island, Skydive Santa Fe Cebu"},"geometry":{"type":"Point","coordinates":[123.7849,11.161748]}},{"id":"325770","type":"Feature","properties":{"ident":"PH-0028","type":"heliport","name":"Baquioen Heliport","continent":"AS","iso_country":"PH","iso_region":"PH-PAN","municipality":"Sual","scheduled_service":"no","keywords":"Baquioen, Sual"},"geometry":{"type":"Point","coordinates":[120.110154,16.084522]}},{"id":"5717","type":"Feature","properties":{"ident":"RPUF","type":"small_airport","name":"Basa Air Base","elevation_ft":"151","continent":"AS","iso_country":"PH","iso_region":"PH-PAM","municipality":"Floridablanca","scheduled_service":"no","gps_code":"RPUF","wikipedia_link":"https://en.wikipedia.org/wiki/Basa_Air_Base","keywords":"Lieutenant Cesar Basa Air Base"},"geometry":{"type":"Point","coordinates":[120.492554,14.98724]}},{"id":"516438","type":"Feature","properties":{"ident":"PH-0586","type":"small_airport","name":"Basay Emergency Airport","elevation_ft":"1112","continent":"AS","iso_country":"PH","iso_region":"PH-NER","municipality":"Basay","scheduled_service":"no"},"geometry":{"type":"Point","coordinates":[122.66149,9.46974]}},{"id":"5723","type":"Feature","properties":{"ident":"RPUO","type":"medium_airport","name":"Basco Airport","elevation_ft":"291","continent":"AS","iso_country":"PH","iso_region":"PH-BTN","municipality":"Basco","scheduled_service":"yes","icao_code":"RPUO","iata_code":"BSO","gps_code":"RPUO","wikipedia_link":"https://en.wikipedia.org/wiki/Basco_Airport","keywords":"Irport nu Basco, Paliparang Basco, Pagtayaban ti Basco"},"geometry":{"type":"Point","coordinates":[121.980003,20.4513]}},{"id":"504871","type":"Feature","properties":{"ident":"PH-0555","type":"heliport","name":"Bascon Heliport","elevation_ft":"276","continent":"AS","iso_country":"PH","iso_region":"PH-SCO","municipality":"Koronadal","scheduled_service":"no"},"geometry":{"type":"Point","coordinates":[124.87102,6.46383]}},{"id":"5720","type":"Feature","properties":{"ident":"RPUL","type":"small_airport","name":"Basilio Fernando Air Base","elevation_ft":"1220","continent":"AS","iso_country":"PH","iso_region":"PH-BTG","municipality":"Lipa","scheduled_service":"no","gps_code":"RPUL","wikipedia_link":"https://en.wikipedia.org/wiki/Basilio_Fernando_Air_Base"},"geometry":{"type":"Point","coordinates":[121.125,13.955]}},{"id":"335147","type":"Feature","properties":{"ident":"PH-0173","type":"heliport","name":"Bataan 2020 Helipad","continent":"AS","iso_country":"PH","iso_region":"PH-BAN","municipality":"Samal","scheduled_service":"no"},"geometry":{"type":"Point","coordinates":[120.504089,14.768859]}},{"id":"325809","type":"Feature","properties":{"ident":"PH-0032","type":"heliport","name":"Bataan Nuclear Power Plant Heliport","continent":"AS","iso_country":"PH","iso_region":"PH-BAN","municipality":"Morong","scheduled_service":"no","keywords":"Bataan Nuclear Power Plant"},"geometry":{"type":"Point","coordinates":[120.315316,14.630793]}},{"id":"356408","type":"Feature","properties":{"ident":"PH-0489","type":"small_airport","name":"Batag Airport","elevation_ft":"46","continent":"AS","iso_country":"PH","iso_region":"PH-NSA","municipality":"Laoang","scheduled_service":"no"},"geometry":{"type":"Point","coordinates":[125.05035,12.61662]}},{"id":"504816","type":"Feature","properties":{"ident":"PH-0517","type":"small_airport","name":"Bataraza Airport","elevation_ft":"39","continent":"AS","iso_country":"PH","iso_region":"PH-PLW","municipality":"Bataraza","scheduled_service":"no"},"geometry":{"type":"Point","coordinates":[117.61865,8.67187]}},{"id":"504735","type":"Feature","properties":{"ident":"PH-0509","type":"small_airport","name":"Bato Airport","continent":"AS","iso_country":"PH","iso_region":"PH-PLW","municipality":"Taytay","scheduled_service":"no"},"geometry":{"type":"Point","coordinates":[119.486132,10.70576]}},{"id":"325758","type":"Feature","properties":{"ident":"PH-0026","type":"heliport","name":"Bauang Power Plant Helipad","continent":"AS","iso_country":"PH","iso_region":"PH-LUN","municipality":"Bauang","scheduled_service":"no","keywords":"Bauang, 1590 Energy"},"geometry":{"type":"Point","coordinates":[120.326997,16.490059]}},{"id":"325757","type":"Feature","properties":{"ident":"PH-0025","type":"heliport","name":"Bauang Power Plant Heliport","continent":"AS","iso_country":"PH","iso_region":"PH-LUN","municipality":"Bauang","scheduled_service":"no","keywords":"Bauang, 1590 Energy"},"geometry":{"type":"Point","coordinates":[120.32767,16.489863]}},{"id":"571657","type":"Feature","properties":{"ident":"PH-0663","type":"heliport","name":"Bayleaf Cavite Heliport","elevation_ft":"440","continent":"AS","iso_country":"PH","iso_region":"PH-CAV","municipality":"General Trias","scheduled_service":"no","keywords":"RPBCW"},"geometry":{"type":"Point","coordinates":[120.91639,14.28846]}},{"id":"325585","type":"Feature","properties":{"ident":"PH-0016","type":"heliport","name":"Bayview Accommodations Heliport","continent":"AS","iso_country":"PH","iso_region":"PH-QUE","municipality":"Pagbilao","scheduled_service":"no","keywords":"Bayview Accommodation; Bantigue"},"geometry":{"type":"Point","coordinates":[121.704224,13.92418]}},{"id":"326192","type":"Feature","properties":{"ident":"PH-0160","type":"heliport","name":"BDO ATM – Steag Coal Power Plant Villanueva Heliport","continent":"AS","iso_country":"PH","iso_region":"PH-MSR","municipality":"Villanueva","scheduled_service":"no","keywords":"Villaneuva, BDO ATM – Steag"},"geometry":{"type":"Point","coordinates":[124.762319,8.565884]}},{"id":"325875","type":"Feature","properties":{"ident":"PH-0038","type":"heliport","name":"BDO Corporate Center Heliport","continent":"AS","iso_country":"PH","iso_region":"PH-00","municipality":"Mandaluyong","scheduled_service":"no","keywords":"BDO Corporate Center"},"geometry":{"type":"Point","coordinates":[121.059189,14.585865]}},{"id":"326036","type":"Feature","properties":{"ident":"PH-0120","type":"heliport","name":"BDO Equitable Bank Tower Heliport","continent":"AS","iso_country":"PH","iso_region":"PH-00","municipality":"Makati","scheduled_service":"no","keywords":"BDO Equitable Bank Tower, Makati"},"geometry":{"type":"Point","coordinates":[121.023867,14.558072]}},{"id":"341579","type":"Feature","properties":{"ident":"PH-0330","type":"heliport","name":"Belvedere Tower Helipad","continent":"AS","iso_country":"PH","iso_region":"PH-00","municipality":"Pasig","scheduled_service":"no"},"geometry":{"type":"Point","coordinates":[121.05879,14.57963]}},{"id":"504732","type":"Feature","properties":{"ident":"PH-0506","type":"small_airport","name":"Berong Airport","continent":"AS","iso_country":"PH","iso_region":"PH-PLW","municipality":"Quezon","scheduled_service":"no"},"geometry":{"type":"Point","coordinates":[118.20977,9.47611]}},{"id":"337332","type":"Feature","properties":{"ident":"PH-0176","type":"small_airport","name":"Bicobian Bay Airstrip","elevation_ft":"26","continent":"AS","iso_country":"PH","iso_region":"PH-ISA","municipality":"Ilagan","scheduled_service":"no"},"geometry":{"type":"Point","coordinates":[122.36638,17.34772]}},{"id":"336104","type":"Feature","properties":{"ident":"RPLK","type":"medium_airport","name":"Bicol International Airport","elevation_ft":"319","continent":"AS","iso_country":"PH","iso_region":"PH-ALB","municipality":"Legazpi","scheduled_service":"yes","icao_code":"RPLK","iata_code":"DRP","gps_code":"RPLK","home_link":"https://caap.gov.ph/bicol-international-airport/","wikipedia_link":"https://en.wikipedia.org/wiki/Bicol_International_Airport","keywords":"Daraga"},"geometry":{"type":"Point","coordinates":[123.676829,13.111915]}},{"id":"309715","type":"Feature","properties":{"ident":"RPVQ","type":"small_airport","name":"Biliran Airport","continent":"AS","iso_country":"PH","iso_region":"PH-BIL","scheduled_service":"no","gps_code":"RPVQ","wikipedia_link":"https://en.wikipedia.org/wiki/Biliran_Airport"},"geometry":{"type":"Point","coordinates":[124.428985,11.515918]}},{"id":"504829","type":"Feature","properties":{"ident":"PH-0530","type":"heliport","name":"Biliran Heliport","elevation_ft":"3","continent":"AS","iso_country":"PH","iso_region":"PH-BIL","municipality":"Biliran","scheduled_service":"no"},"geometry":{"type":"Point","coordinates":[124.47474,11.46335]}},{"id":"325992","type":"Feature","properties":{"ident":"PH-0090","type":"small_airport","name":"Binalonan Airport","continent":"AS","iso_country":"PH","iso_region":"PH-PAN","municipality":"Binalonan","scheduled_service":"no","keywords":"Binalonan"},"geometry":{"type":"Point","coordinates":[120.582225,16.052041]}},{"id":"577109","type":"Feature","properties":{"ident":"PH-0675","type":"heliport","name":"Binga Dam Heliport","elevation_ft":"1939","continent":"AS","iso_country":"PH","iso_region":"PH-BEN","municipality":"Itogon","scheduled_service":"no"},"geometry":{"type":"Point","coordinates":[120.729068,16.394306]}},{"id":"5699","type":"Feature","properties":{"ident":"RPMF","type":"medium_airport","name":"Bislig Airport","elevation_ft":"12","continent":"AS","iso_country":"PH","iso_region":"PH-SUR","municipality":"Bislig","scheduled_service":"no","icao_code":"RPMF","iata_code":"BPH","gps_code":"RPMF","wikipedia_link":"https://en.wikipedia.org/wiki/Bislig_Airport"},"geometry":{"type":"Point","coordinates":[126.321015,8.195052]}},{"id":"337807","type":"Feature","properties":{"ident":"PH-0232","type":"small_airport","name":"Bitulok Airstrip","continent":"AS","iso_country":"PH","iso_region":"PH-NUE","municipality":"Bugnan","scheduled_service":"no"},"geometry":{"type":"Point","coordinates":[121.28535,15.48505]}},{"id":"562344","type":"Feature","properties":{"ident":"PH-0623","type":"heliport","name":"BMG Centre Heliport","continent":"AS","iso_country":"PH","iso_region":"PH-00","municipality":"Makati","scheduled_service":"no"},"geometry":{"type":"Point","coordinates":[121.017819,14.53729]}},{"id":"336116","type":"Feature","properties":{"ident":"RPSP","type":"medium_airport","name":"Bohol-Panglao International Airport","elevation_ft":"42","continent":"AS","iso_country":"PH","iso_region":"PH-BOH","municipality":"Panglao","scheduled_service":"yes","icao_code":"RPSP","iata_code":"TAG","gps_code":"RPSP","wikipedia_link":"https://en.wikipedia.org/wiki/Bohol%E2%80%93Panglao_International_Airport"},"geometry":{"type":"Point","coordinates":[123.770143,9.573045]}},{"id":"351881","type":"Feature","properties":{"ident":"PH-0468","type":"heliport","name":"Boracay Helicopter Adventures Heliport","elevation_ft":"101","continent":"AS","iso_country":"PH","iso_region":"PH-AKL","municipality":"Malay","scheduled_service":"no"},"geometry":{"type":"Point","coordinates":[121.92152,11.9947]}},{"id":"5750","type":"Feature","properties":{"ident":"RPVW","type":"small_airport","name":"Borongan Airport","elevation_ft":"7","continent":"AS","iso_country":"PH","iso_region":"PH-EAS","municipality":"Borongan City","scheduled_service":"no","iata_code":"BPA","gps_code":"RPVW","wikipedia_link":"https://en.wikipedia.org/wiki/Borongan_Airport"},"geometry":{"type":"Point","coordinates":[125.479259,11.674262]}},{"id":"326047","type":"Feature","properties":{"ident":"PH-0130","type":"heliport","name":"BPI Buendia Center Heliport","continent":"AS","iso_country":"PH","iso_region":"PH-00","municipality":"Makati","scheduled_service":"no","keywords":"BPI Buendia Center, Makati"},"geometry":{"type":"Point","coordinates":[121.026426,14.561497]}},{"id":"326037","type":"Feature","properties":{"ident":"PH-0121","type":"heliport","name":"BPI Computer Systems Corporation Heliport","continent":"AS","iso_country":"PH","iso_region":"PH-00","municipality":"Makati","scheduled_service":"no","keywords":"BPI Computer Systems Corporation, Makati"},"geometry":{"type":"Point","coordinates":[121.023429,14.557999]}},{"id":"344465","type":"Feature","properties":{"ident":"PH-0398","type":"heliport","name":"BPI-Philam Life Makati Helipad","continent":"AS","iso_country":"PH","iso_region":"PH-00","municipality":"Makati","scheduled_service":"no","keywords":"Ayala Life FGU Center Helipad"},"geometry":{"type":"Point","coordinates":[121.0173,14.55976]}},{"id":"354951","type":"Feature","properties":{"ident":"PH-0485","type":"small_airport","name":"Bugsuk (Bonbon) Airport","continent":"AS","iso_country":"PH","iso_region":"PH-PLW","municipality":"Balabac","scheduled_service":"no"},"geometry":{"type":"Point","coordinates":[117.328627,8.228346]}},{"id":"32229","type":"Feature","properties":{"ident":"RPUU","type":"small_airport","name":"Bulan Airport","elevation_ft":"3937","continent":"AS","iso_country":"PH","iso_region":"PH-SOR","municipality":"Bulan","scheduled_service":"no","gps_code":"RPUU","wikipedia_link":"https://en.wikipedia.org/wiki/Bulan_Airport"},"geometry":{"type":"Point","coordinates":[123.877998,12.6842]}},{"id":"504852","type":"Feature","properties":{"ident":"PH-0539","type":"heliport","name":"Burgundy Corporate Tower Helipad","continent":"AS","iso_country":"PH","iso_region":"PH-00","municipality":"Makati","scheduled_service":"no"},"geometry":{"type":"Point","coordinates":[121.01297,14.56012]}},{"id":"504877","type":"Feature","properties":{"ident":"PH-0561","type":"heliport","name":"Burgundy McKinley Place Helipad","continent":"AS","iso_country":"PH","iso_region":"PH-00","municipality":"Parañaque","scheduled_service":"no"},"geometry":{"type":"Point","coordinates":[120.977905,14.510411]}},{"id":"430581","type":"Feature","properties":{"ident":"PH-0494","type":"seaplane_base","name":"Busuanga Bay Lodge Seaplane Terminal","continent":"AS","iso_country":"PH","iso_region":"PH-PLW","municipality":"Busuanga","scheduled_service":"no"},"geometry":{"type":"Point","coordinates":[119.97753,12.0231]}},{"id":"337850","type":"Feature","properties":{"ident":"PH-0257","type":"heliport","name":"Caballo Island Naval Heliport","continent":"AS","iso_country":"PH","iso_region":"PH-CAV","municipality":"Cavite (Caballo Island)","scheduled_service":"no"},"geometry":{"type":"Point","coordinates":[120.62231,14.36905]}},{"id":"325995","type":"Feature","properties":{"ident":"PH-0092","type":"small_airport","name":"Cabaluyan Airstrip","elevation_ft":"276","continent":"AS","iso_country":"PH","iso_region":"PH-PAN","municipality":"Mangatarem","scheduled_service":"no","wikipedia_link":"https://en.wikipedia.org/wiki/List_of_airports_in_the_Philippines","keywords":"Cabaluyan, Mangatarem"},"geometry":{"type":"Point","coordinates":[120.330656,15.689794]}},{"id":"508744","type":"Feature","properties":{"ident":"PH-0573","type":"heliport","name":"Cabcaben Heliport","elevation_ft":"15","continent":"AS","iso_country":"PH","iso_region":"PH-BAN","municipality":"Cabcaben","scheduled_service":"no"},"geometry":{"type":"Point","coordinates":[120.58574,14.44453]}},{"id":"30818","type":"Feature","properties":{"ident":"RPMU","type":"small_airport","name":"Cagayan de Sulu Airport","continent":"AS","iso_country":"PH","iso_region":"PH-TAW","municipality":"Mapun","scheduled_service":"no","icao_code":"RPMU","iata_code":"CDY","gps_code":"RPMU","wikipedia_link":"https://en.wikipedia.org/wiki/Cagayan_de_Sulu_Airport"},"geometry":{"type":"Point","coordinates":[118.496002,7.014]}},{"id":"325947","type":"Feature","properties":{"ident":"RPLH","type":"medium_airport","name":"Cagayan North International Airport","elevation_ft":"148","continent":"AS","iso_country":"PH","iso_region":"PH-CAG","municipality":"Lal-lo","scheduled_service":"no","icao_code":"RPLH","iata_code":"LLC","gps_code":"RPLH","wikipedia_link":"https://en.wikipedia.org/wiki/Cagayan_North_International_Airport","keywords":"Northern Cagayan, Lal-lo"},"geometry":{"type":"Point","coordinates":[121.745853,18.182388]}},{"id":"535032","type":"Feature","properties":{"ident":"PH-0593","type":"small_airport","name":"Cagayancillo Airstrip","elevation_ft":"20","continent":"AS","iso_country":"PH","iso_region":"PH-PLW","municipality":"Cagayancillo","scheduled_service":"no","keywords":"Magsaysay"},"geometry":{"type":"Point","coordinates":[121.18637,9.56956]}},{"id":"504883","type":"Feature","properties":{"ident":"PH-0567","type":"small_airport","name":"Calanay Airport","elevation_ft":"69","continent":"AS","iso_country":"PH","iso_region":"PH-MAS","municipality":"Aroroy","scheduled_service":"no"},"geometry":{"type":"Point","coordinates":[123.28436,12.4623]}},{"id":"32228","type":"Feature","properties":{"ident":"RPUK","type":"small_airport","name":"Calapan National Airport","elevation_ft":"11","continent":"AS","iso_country":"PH","iso_region":"PH-MDR","municipality":"Calapan","scheduled_service":"no","gps_code":"RPUK","wikipedia_link":"https://en.wikipedia.org/wiki/Calapan_Airport","keywords":"Calapan, Mindoro"},"geometry":{"type":"Point","coordinates":[121.201687,13.422641]}},{"id":"325997","type":"Feature","properties":{"ident":"PH-0094","type":"heliport","name":"Calatagan (Hacienda Bigaa) Heliport","continent":"AS","iso_country":"PH","iso_region":"PH-BTG","municipality":"Calatagan","scheduled_service":"no","keywords":"Calatagan, Hacienda Zobel"},"geometry":{"type":"Point","coordinates":[120.635766,13.848569]}},{"id":"337825","type":"Feature","properties":{"ident":"PH-0247","type":"small_airport","name":"Calayan Airport","continent":"AS","iso_country":"PH","iso_region":"PH-CAG","municipality":"Calayan","scheduled_service":"no","keywords":"Dadao, Paliparang Calayan, Pagtayaban ti Calayan"},"geometry":{"type":"Point","coordinates":[121.489145,19.25716]}},{"id":"5734","type":"Feature","properties":{"ident":"RPVC","type":"medium_airport","name":"Calbayog Airport","elevation_ft":"12","continent":"AS","iso_country":"PH","iso_region":"PH-WSA","municipality":"Calbayog City","scheduled_service":"yes","icao_code":"RPVC","iata_code":"CYP","gps_code":"RPVC","wikipedia_link":"https://en.wikipedia.org/wiki/Calbayog_Airport"},"geometry":{"type":"Point","coordinates":[124.54508,12.072574]}},{"id":"593345","type":"Feature","properties":{"ident":"PH-0073","type":"small_airport","name":"Camaya Coast Airport","elevation_ft":"250","continent":"AS","iso_country":"PH","iso_region":"PH-BAN","municipality":"Mariveles","scheduled_service":"no"},"geometry":{"type":"Point","coordinates":[120.42486,14.44802]}},{"id":"339313","type":"Feature","properties":{"ident":"PH-0305","type":"heliport","name":"Camella Lipa Helipad","continent":"AS","iso_country":"PH","iso_region":"PH-BTG","municipality":"Lipa","scheduled_service":"no"},"geometry":{"type":"Point","coordinates":[121.15171,13.95959]}},{"id":"533505","type":"Feature","properties":{"ident":"PH-0592","type":"heliport","name":"Camella Santo Tomas North Trails Helipad","elevation_ft":"581","continent":"AS","iso_country":"PH","iso_region":"PH-BTG","municipality":"Santo Tomas","scheduled_service":"no"},"geometry":{"type":"Point","coordinates":[121.16911,14.10112]}},{"id":"5701","type":"Feature","properties":{"ident":"RPMH","type":"medium_airport","name":"Camiguin Airport","elevation_ft":"53","continent":"AS","iso_country":"PH","iso_region":"PH-CAM","municipality":"Mambajao","scheduled_service":"yes","icao_code":"RPMH","iata_code":"CGM","gps_code":"RPMH","wikipedia_link":"https://en.wikipedia.org/wiki/Camiguin_Airport"},"geometry":{"type":"Point","coordinates":[124.709115,9.253894]}},{"id":"504854","type":"Feature","properties":{"ident":"PH-0540","type":"heliport","name":"Camilla & Lumina Heliport","elevation_ft":"141","continent":"AS","iso_country":"PH","iso_region":"PH-CAV","municipality":"Tanza","scheduled_service":"no"},"geometry":{"type":"Point","coordinates":[120.84754,14.33772]}},{"id":"430069","type":"Feature","properties":{"ident":"PH-0490","type":"small_airport","name":"Camotes Airstrip","elevation_ft":"70","continent":"AS","iso_country":"PH","iso_region":"PH-CEB","municipality":"San Francisco","scheduled_service":"no","keywords":"RPSS"},"geometry":{"type":"Point","coordinates":[124.37011,10.65955]}},{"id":"504825","type":"Feature","properties":{"ident":"PH-0526","type":"heliport","name":"Camp Abat Heliport","elevation_ft":"141","continent":"AS","iso_country":"PH","iso_region":"PH-PAN","municipality":"Manaoag","scheduled_service":"no"},"geometry":{"type":"Point","coordinates":[120.49207,16.0489]}},{"id":"559667","type":"Feature","properties":{"ident":"PH-0614","type":"heliport","name":"Camp Aguinaldo Heliport","elevation_ft":"190","continent":"AS","iso_country":"PH","iso_region":"PH-00","municipality":"Quezon City","scheduled_service":"no"},"geometry":{"type":"Point","coordinates":[121.062922,14.609476]}},{"id":"504824","type":"Feature","properties":{"ident":"PH-0525","type":"heliport","name":"Camp Angeles Heliport","elevation_ft":"407","continent":"AS","iso_country":"PH","iso_region":"PH-CAS","municipality":"Pili","scheduled_service":"no"},"geometry":{"type":"Point","coordinates":[123.30066,13.61704]}},{"id":"337813","type":"Feature","properties":{"ident":"PH-0238","type":"heliport","name":"Camp Aquino Heliport","continent":"AS","iso_country":"PH","iso_region":"PH-TAR","municipality":"Tarlac","scheduled_service":"no"},"geometry":{"type":"Point","coordinates":[120.592082,15.441902]}},{"id":"343728","type":"Feature","properties":{"ident":"PH-0363","type":"heliport","name":"Camp Bagong Diwa Heliport","elevation_ft":"100","continent":"AS","iso_country":"PH","iso_region":"PH-00","municipality":"Taguig","scheduled_service":"no"},"geometry":{"type":"Point","coordinates":[121.05724,14.48844]}},{"id":"326020","type":"Feature","properties":{"ident":"PH-0108","type":"small_airport","name":"Camp Capinpin Airstrip","elevation_ft":"1297","continent":"AS","iso_country":"PH","iso_region":"PH-RIZ","municipality":"Tanay","scheduled_service":"no","icao_code":"RPLM","gps_code":"RPLM","wikipedia_link":"https://en.wikipedia.org/wiki/List_of_airports_in_the_Philippines#Military_airfields","keywords":"Captain Mateo Capinpin"},"geometry":{"type":"Point","coordinates":[121.364572,14.53567]}},{"id":"340072","type":"Feature","properties":{"ident":"PH-0317","type":"heliport","name":"Camp Crame Heliport","continent":"AS","iso_country":"PH","iso_region":"PH-00","municipality":"Quezon City","scheduled_service":"no"},"geometry":{"type":"Point","coordinates":[121.05508,14.60811]}},{"id":"504821","type":"Feature","properties":{"ident":"PH-0522","type":"heliport","name":"Camp Dela Cruz Heliport","elevation_ft":"230","continent":"AS","iso_country":"PH","iso_region":"PH-ISA","municipality":"Gamu","scheduled_service":"no"},"geometry":{"type":"Point","coordinates":[121.86519,17.072498]}},{"id":"594494","type":"Feature","properties":{"ident":"PH-0715","type":"heliport","name":"Camp Evangelista Heliport","elevation_ft":"66","continent":"AS","iso_country":"PH","iso_region":"PH-CGY","municipality":"Cagayan de Oro","scheduled_service":"no"},"geometry":{"type":"Point","coordinates":[124.62447,8.48901]}},{"id":"337819","type":"Feature","properties":{"ident":"PH-0244","type":"heliport","name":"Camp John Hay Country Estates Helipad","elevation_ft":"4905","continent":"AS","iso_country":"PH","iso_region":"PH-BAG","municipality":"Baguio","scheduled_service":"no","keywords":"RPBDO"},"geometry":{"type":"Point","coordinates":[120.61818,16.40269]}},{"id":"337817","type":"Feature","properties":{"ident":"PH-0242","type":"heliport","name":"Camp John Hay Forest Lodge Helipad","continent":"AS","iso_country":"PH","iso_region":"PH-BAG","municipality":"Baguio","scheduled_service":"no","keywords":"RPBDO"},"geometry":{"type":"Point","coordinates":[120.61779,16.40193]}},{"id":"337818","type":"Feature","properties":{"ident":"PH-0243","type":"heliport","name":"Camp John Hay White House Heliport","elevation_ft":"4895","continent":"AS","iso_country":"PH","iso_region":"PH-BAG","municipality":"Baguio","scheduled_service":"no","keywords":"RPCFW, White House of the Lord of Scents"},"geometry":{"type":"Point","coordinates":[120.61718,16.40271]}},{"id":"504823","type":"Feature","properties":{"ident":"PH-0524","type":"heliport","name":"Camp Lim Heliport","elevation_ft":"167","continent":"AS","iso_country":"PH","iso_region":"PH-LAG","municipality":"Calamba","scheduled_service":"no"},"geometry":{"type":"Point","coordinates":[121.12042,14.21393]}},{"id":"504822","type":"Feature","properties":{"ident":"PH-0523","type":"heliport","name":"Camp Lukban Heliport","elevation_ft":"34","continent":"AS","iso_country":"PH","iso_region":"PH-WSA","municipality":"Catbalogan","scheduled_service":"no"},"geometry":{"type":"Point","coordinates":[124.8683,11.78929]}},{"id":"504897","type":"Feature","properties":{"ident":"PH-0570","type":"heliport","name":"Camp Nakar Heliport","elevation_ft":"118","continent":"AS","iso_country":"PH","iso_region":"PH-QUE","municipality":"Lucena","scheduled_service":"no"},"geometry":{"type":"Point","coordinates":[121.60985,13.95408]}},{"id":"344153","type":"Feature","properties":{"ident":"PH-0396","type":"heliport","name":"Camp O'Donnell Armor School Heliport","elevation_ft":"377","continent":"AS","iso_country":"PH","iso_region":"PH-TAR","municipality":"Capas","scheduled_service":"no"},"geometry":{"type":"Point","coordinates":[120.50944,15.37752]}},{"id":"344152","type":"Feature","properties":{"ident":"PH-0395","type":"heliport","name":"Camp O'Donnell Officer Candidate School Heliport","elevation_ft":"374","continent":"AS","iso_country":"PH","iso_region":"PH-TAR","municipality":"Capas","scheduled_service":"no"},"geometry":{"type":"Point","coordinates":[120.50915,15.36891]}},{"id":"571106","type":"Feature","properties":{"ident":"PH-0639","type":"heliport","name":"Camp Olivas Heliport","elevation_ft":"20","continent":"AS","iso_country":"PH","iso_region":"PH-PAM","municipality":"San Fernando","scheduled_service":"no","keywords":"RP2GJ"},"geometry":{"type":"Point","coordinates":[120.70255,15.01802]}},{"id":"326095","type":"Feature","properties":{"ident":"PH-0151","type":"heliport","name":"Camp Panacan Heliport","continent":"AS","iso_country":"PH","iso_region":"PH-DVO","municipality":"Davao","scheduled_service":"no","keywords":"Camp Panacan, Davao"},"geometry":{"type":"Point","coordinates":[125.661648,7.153643]}},{"id":"504820","type":"Feature","properties":{"ident":"PH-0521","type":"heliport","name":"Camp Peralta Heliport","elevation_ft":"531","continent":"AS","iso_country":"PH","iso_region":"PH-CAP","municipality":"Jamindan","scheduled_service":"no"},"geometry":{"type":"Point","coordinates":[122.43972,11.39103]}},{"id":"594128","type":"Feature","properties":{"ident":"PH-0703","type":"heliport","name":"Camp Ranao Heliport","elevation_ft":"2461","continent":"AS","iso_country":"PH","iso_region":"PH-LAS","municipality":"Marawi","scheduled_service":"no"},"geometry":{"type":"Point","coordinates":[124.282676,8.007904]}},{"id":"504826","type":"Feature","properties":{"ident":"PH-0527","type":"heliport","name":"Camp Riego de Dios Heliport","elevation_ft":"167","continent":"AS","iso_country":"PH","iso_region":"PH-CAV","municipality":"Tanza","scheduled_service":"no"},"geometry":{"type":"Point","coordinates":[120.852265,14.326586]}},{"id":"504819","type":"Feature","properties":{"ident":"PH-0520","type":"heliport","name":"Camp Sang-an Heliport","elevation_ft":"348","continent":"AS","iso_country":"PH","iso_region":"PH-ZAS","municipality":"Tukuran","scheduled_service":"no"},"geometry":{"type":"Point","coordinates":[123.49824,7.90848]}},{"id":"354412","type":"Feature","properties":{"ident":"PH-0482","type":"small_airport","name":"Candaraman Airport","elevation_ft":"36","continent":"AS","iso_country":"PH","iso_region":"PH-PLW","municipality":"Balabac","scheduled_service":"no","home_link":"https://www.s1expeditions.com/"},"geometry":{"type":"Point","coordinates":[117.108078,8.076386]}},{"id":"354413","type":"Feature","properties":{"ident":"PH-0483","type":"heliport","name":"Candaraman Island Helipad","continent":"AS","iso_country":"PH","iso_region":"PH-PLW","municipality":"Balabac","scheduled_service":"no"},"geometry":{"type":"Point","coordinates":[117.101292,8.082791]}},{"id":"571610","type":"Feature","properties":{"ident":"PH-0658","type":"heliport","name":"Capas National Shrine Heliport","elevation_ft":"220","continent":"AS","iso_country":"PH","iso_region":"PH-TAR","municipality":"Capas","scheduled_service":"no","keywords":"RP2GZ"},"geometry":{"type":"Point","coordinates":[120.54492,15.3531]}},{"id":"325908","type":"Feature","properties":{"ident":"PH-0063","type":"heliport","name":"Capipisa (Tanza) Heliport","continent":"AS","iso_country":"PH","iso_region":"PH-CAV","municipality":"Tanza","scheduled_service":"no","keywords":"Capipisa, Tanza"},"geometry":{"type":"Point","coordinates":[120.781138,14.348114]}},{"id":"46549","type":"Feature","properties":{"ident":"RPLR","type":"small_airport","name":"Carmen (Rosales) Airstrip","continent":"AS","iso_country":"PH","iso_region":"PH-PAN","municipality":"Rosales","scheduled_service":"no","icao_code":"RPLR","gps_code":"RPLR","wikipedia_link":"https://en.wikipedia.org/wiki/Rosales_Airport"},"geometry":{"type":"Point","coordinates":[120.604602,15.885047]}},{"id":"349209","type":"Feature","properties":{"ident":"PH-0431","type":"small_airport","name":"Casay Airstrip","elevation_ft":"157","continent":"AS","iso_country":"PH","iso_region":"PH-CEB","municipality":"Dalaguete","scheduled_service":"no"},"geometry":{"type":"Point","coordinates":[123.547936,9.821379]}},{"id":"312504","type":"Feature","properties":{"ident":"CGG","type":"small_airport","name":"Casiguran Airport","elevation_ft":"48","continent":"AS","iso_country":"PH","iso_region":"PH-AUR","municipality":"Casiguran","scheduled_service":"no","iata_code":"CGG"},"geometry":{"type":"Point","coordinates":[122.0651,16.1941]}},{"id":"32227","type":"Feature","properties":{"ident":"RPUJ","type":"small_airport","name":"Castillejos - Jesus F Magsaysay Airfield","elevation_ft":"200","continent":"AS","iso_country":"PH","iso_region":"PH-ZMB","municipality":"Castillejos","scheduled_service":"no","gps_code":"RPUJ","keywords":"Castillejos"},"geometry":{"type":"Point","coordinates":[120.190194,14.94634]}},{"id":"341592","type":"Feature","properties":{"ident":"PH-0343","type":"heliport","name":"Caswynn Building Helipad","continent":"AS","iso_country":"PH","iso_region":"PH-00","municipality":"Quezon City","scheduled_service":"no"},"geometry":{"type":"Point","coordinates":[121.0439,14.63256]}},{"id":"5737","type":"Feature","properties":{"ident":"RPVF","type":"medium_airport","name":"Catarman National Airport","elevation_ft":"6","continent":"AS","iso_country":"PH","iso_region":"PH-NSA","municipality":"Catarman","scheduled_service":"yes","icao_code":"RPVF","iata_code":"CRM","gps_code":"RPVF","wikipedia_link":"https://en.wikipedia.org/wiki/Catarman_National_Airport"},"geometry":{"type":"Point","coordinates":[124.635258,12.50161]}},{"id":"302307","type":"Feature","properties":{"ident":"RPVY","type":"small_airport","name":"Catbalogan Airport","continent":"AS","iso_country":"PH","iso_region":"PH-WSA","municipality":"Catbalogan","scheduled_service":"no","gps_code":"RPVY","wikipedia_link":"https://en.wikipedia.org/wiki/Catbalogan_Airport"},"geometry":{"type":"Point","coordinates":[124.828806,11.810647]}},{"id":"5730","type":"Feature","properties":{"ident":"RPUY","type":"medium_airport","name":"Cauayan Airport","elevation_ft":"200","continent":"AS","iso_country":"PH","iso_region":"PH-ISA","municipality":"Cauayan City","scheduled_service":"yes","icao_code":"RPUY","iata_code":"CYZ","gps_code":"RPUY","wikipedia_link":"https://en.wikipedia.org/wiki/Cauayan_Airport"},"geometry":{"type":"Point","coordinates":[121.752998,16.929899]}},{"id":"341535","type":"Feature","properties":{"ident":"PH-0327","type":"heliport","name":"Cavite Naval Hospital Heliport","continent":"AS","iso_country":"PH","iso_region":"PH-CAV","municipality":"Cavite","scheduled_service":"no"},"geometry":{"type":"Point","coordinates":[120.913526,14.483498]}},{"id":"504855","type":"Feature","properties":{"ident":"PH-0541","type":"heliport","name":"Caylabne Bay Resort Heliport","elevation_ft":"30","continent":"AS","iso_country":"PH","iso_region":"PH-CAV","municipality":"Ternate","scheduled_service":"no"},"geometry":{"type":"Point","coordinates":[120.6482,14.27201]}},{"id":"325895","type":"Feature","properties":{"ident":"PH-0057","type":"heliport","name":"CCP Open Grounds Heliport","elevation_ft":"20","continent":"AS","iso_country":"PH","iso_region":"PH-00","municipality":"Pasay","scheduled_service":"no","keywords":"CCP Open Field, Pasay"},"geometry":{"type":"Point","coordinates":[120.983714,14.552598]}},{"id":"351520","type":"Feature","properties":{"ident":"PH-0462","type":"medium_airport","name":"Central Mindanao Airport","elevation_ft":"164","continent":"AS","iso_country":"PH","iso_region":"PH-NCO","municipality":"M'lang","scheduled_service":"no","keywords":"M'lang Rural, North Cotabato Rural"},"geometry":{"type":"Point","coordinates":[124.92446,6.91229]}},{"id":"308149","type":"Feature","properties":{"ident":"RPSD","type":"small_airport","name":"Cesar Lim Rodriguez (Taytay-Sandoval) Airport","elevation_ft":"80","continent":"AS","iso_country":"PH","iso_region":"PH-PLW","municipality":"Taytay","scheduled_service":"no","icao_code":"RPSD","iata_code":"RZP","gps_code":"RPSD","wikipedia_link":"https://en.wikipedia.org/wiki/Taytay_Airport"},"geometry":{"type":"Point","coordinates":[119.519266,11.05065]}},{"id":"335115","type":"Feature","properties":{"ident":"PH-0172","type":"heliport","name":"Chatham House Helipad","continent":"AS","iso_country":"PH","iso_region":"PH-00","municipality":"Makati","scheduled_service":"no","keywords":"Chatham House, Makati"},"geometry":{"type":"Point","coordinates":[121.019472,14.559565]}},{"id":"325553","type":"Feature","properties":{"ident":"PH-0009","type":"heliport","name":"Chevron Terminal Heliport","continent":"AS","iso_country":"PH","iso_region":"PH-BTG","municipality":"Batangas","scheduled_service":"no","keywords":"Danglayan, Chevron"},"geometry":{"type":"Point","coordinates":[121.022376,13.78246]}},{"id":"351910","type":"Feature","properties":{"ident":"PH-0476","type":"heliport","name":"Chinese General Hospital Heliport","continent":"AS","iso_country":"PH","iso_region":"PH-00","municipality":"Manila","scheduled_service":"no"},"geometry":{"type":"Point","coordinates":[120.98875,14.62562]}},{"id":"326038","type":"Feature","properties":{"ident":"PH-0122","type":"heliport","name":"Citibank Tower Heliport","continent":"AS","iso_country":"PH","iso_region":"PH-00","municipality":"Makati","scheduled_service":"no","keywords":"Citibank Tower, Makati"},"geometry":{"type":"Point","coordinates":[121.025219,14.558932]}},{"id":"504880","type":"Feature","properties":{"ident":"PH-0564","type":"heliport","name":"City of Dreams Manila Helipad","continent":"AS","iso_country":"PH","iso_region":"PH-00","municipality":"Parañaque","scheduled_service":"no"},"geometry":{"type":"Point","coordinates":[120.99234,14.524906]}},{"id":"344468","type":"Feature","properties":{"ident":"PH-0401","type":"heliport","name":"Cityland Herrera Tower Helipad","continent":"AS","iso_country":"PH","iso_region":"PH-00","municipality":"Makati","scheduled_service":"no"},"geometry":{"type":"Point","coordinates":[121.01964,14.55899]}},{"id":"430072","type":"Feature","properties":{"ident":"PH-0493","type":"balloonport","name":"Clark Balloonport","continent":"AS","iso_country":"PH","iso_region":"PH-PAM","municipality":"Mabalacat","scheduled_service":"no"},"geometry":{"type":"Point","coordinates":[120.57656,15.17718]}},{"id":"5687","type":"Feature","properties":{"ident":"RPLC","type":"large_airport","name":"Clark International Airport / Clark Air Base","elevation_ft":"484","continent":"AS","iso_country":"PH","iso_region":"PH-PAM","municipality":"Mabalacat","scheduled_service":"yes","icao_code":"RPLC","iata_code":"CRK","gps_code":"RPLC","home_link":"http://www.clarkairport.com/","wikipedia_link":"https://en.wikipedia.org/wiki/Clark_International_Airport","keywords":"Diosdado Macapagal International Airport, Paliparang Pandaigdig ng Diosdado Macapagal, Pangyatung Sulapawan ning Clark, Paliparang Pandaigdig ng Clark"},"geometry":{"type":"Point","coordinates":[120.559998,15.186]}},{"id":"325972","type":"Feature","properties":{"ident":"PH-0077","type":"heliport","name":"Clark International Airport South Ramp Heliport","continent":"AS","iso_country":"PH","iso_region":"PH-PAM","municipality":"Mabalacat","scheduled_service":"no","home_link":"http://crk.clarkairport.com/","wikipedia_link":"https://en.wikipedia.org/wiki/Clark_International_Airport","keywords":"Clark International Airport, South Ramp"},"geometry":{"type":"Point","coordinates":[120.545547,15.172336]}},{"id":"339321","type":"Feature","properties":{"ident":"PH-0313","type":"heliport","name":"Classica Tower Heliport","continent":"AS","iso_country":"PH","iso_region":"PH-00","municipality":"Makati","scheduled_service":"no"},"geometry":{"type":"Point","coordinates":[121.023808,14.561269]}},{"id":"504876","type":"Feature","properties":{"ident":"PH-0560","type":"heliport","name":"Cleveland Tower Helipad","continent":"AS","iso_country":"PH","iso_region":"PH-00","municipality":"Parañaque","scheduled_service":"no"},"geometry":{"type":"Point","coordinates":[120.977443,14.510671]}},{"id":"594057","type":"Feature","properties":{"ident":"PH-0690","type":"heliport","name":"Coast Guard SAR Base Hinobaan Heliport","elevation_ft":"23","continent":"AS","iso_country":"PH","iso_region":"PH-NEC","municipality":"Hinobaan","scheduled_service":"no"},"geometry":{"type":"Point","coordinates":[122.453851,9.663452]}},{"id":"325554","type":"Feature","properties":{"ident":"PH-0010","type":"heliport","name":"Cochem Heliport (Danglayan)","continent":"AS","iso_country":"PH","iso_region":"PH-BTG","municipality":"Batangas","scheduled_service":"no","keywords":"Cochem, Danglayan"},"geometry":{"type":"Point","coordinates":[121.01412,13.78058]}},{"id":"326054","type":"Feature","properties":{"ident":"PH-0136","type":"heliport","name":"Cocolife Building Heliport","continent":"AS","iso_country":"PH","iso_region":"PH-00","municipality":"Makati","scheduled_service":"no","keywords":"Cocolife, Makati"},"geometry":{"type":"Point","coordinates":[121.017526,14.559587]}},{"id":"326008","type":"Feature","properties":{"ident":"PH-0101","type":"small_airport","name":"Cojuangco Airstrip","continent":"AS","iso_country":"PH","iso_region":"PH-TAR","municipality":"Paniqui","scheduled_service":"no","wikipedia_link":"https://en.wikipedia.org/wiki/List_of_airports_in_the_Philippines","keywords":"Paniqui"},"geometry":{"type":"Point","coordinates":[120.600357,15.674114]}},{"id":"336813","type":"Feature","properties":{"ident":"RPLQ","type":"small_airport","name":"Colonel Ernesto Rabina Air Base","elevation_ft":"564","continent":"AS","iso_country":"PH","iso_region":"PH-TAR","municipality":"Capas","scheduled_service":"no","icao_code":"RPLQ","gps_code":"RPLQ","wikipedia_link":"https://en.wikipedia.org/wiki/Colonel_Ernesto_Rabina_Air_Base","keywords":"Crow Valley Gunnery Range"},"geometry":{"type":"Point","coordinates":[120.422891,15.317683]}},{"id":"325896","type":"Feature","properties":{"ident":"PH-0058","type":"heliport","name":"Conrad Manila Hotel Heliport","continent":"AS","iso_country":"PH","iso_region":"PH-00","municipality":"Pasay","scheduled_service":"no","keywords":"Conrad Manila Hotel, Pasay"},"geometry":{"type":"Point","coordinates":[120.980394,14.531926]}},{"id":"337355","type":"Feature","properties":{"ident":"PH-0198","type":"small_airport","name":"Consuelo Airstrip 1","continent":"AS","iso_country":"PH","iso_region":"PH-COM","municipality":"New Bataan","scheduled_service":"no","keywords":"Compostela Airstrip 1"},"geometry":{"type":"Point","coordinates":[126.09444,7.64333]}},{"id":"337356","type":"Feature","properties":{"ident":"PH-0199","type":"small_airport","name":"Consuelo Airstrip 2","continent":"AS","iso_country":"PH","iso_region":"PH-COM","municipality":"New Bataan","scheduled_service":"no","keywords":"Compostela Airstrip 2"},"geometry":{"type":"Point","coordinates":[126.088822,7.633245]}},{"id":"337847","type":"Feature","properties":{"ident":"PH-0254","type":"heliport","name":"Coral Shores Heliport","continent":"AS","iso_country":"PH","iso_region":"PH-BTG","municipality":"Calatagan","scheduled_service":"no"},"geometry":{"type":"Point","coordinates":[120.65162,13.78265]}},{"id":"348729","type":"Feature","properties":{"ident":"PH-0429","type":"small_airport","name":"Cordon Airport","elevation_ft":"538","continent":"AS","iso_country":"PH","iso_region":"PH-ISA","municipality":"Cordon","scheduled_service":"no"},"geometry":{"type":"Point","coordinates":[121.43291,16.65674]}},{"id":"430584","type":"Feature","properties":{"ident":"PH-0497","type":"small_airport","name":"Coron Rural Airport","elevation_ft":"69","continent":"AS","iso_country":"PH","iso_region":"PH-PLW","municipality":"Coron","scheduled_service":"no","local_code":"XCN"},"geometry":{"type":"Point","coordinates":[120.2007,12.01289]}},{"id":"32222","type":"Feature","properties":{"ident":"RPLX","type":"small_airport","name":"Corregidor Airport (Kindley Field)","elevation_ft":"102","continent":"AS","iso_country":"PH","iso_region":"PH-CAV","municipality":"Corregidor","scheduled_service":"no","icao_code":"RPLX","gps_code":"RPLX","wikipedia_link":"https://en.wikipedia.org/wiki/Corregidor#Tailside"},"geometry":{"type":"Point","coordinates":[120.607002,14.3913]}},{"id":"325980","type":"Feature","properties":{"ident":"PH-0082","type":"heliport","name":"Corregidor Parade Ground Heliport","continent":"AS","iso_country":"PH","iso_region":"PH-CAV","municipality":"Corregidor Island","scheduled_service":"no","wikipedia_link":"https://en.wikipedia.org/wiki/Corregidor","keywords":"Corregidor"},"geometry":{"type":"Point","coordinates":[120.574514,14.38051]}},{"id":"325979","type":"Feature","properties":{"ident":"PH-0081","type":"heliport","name":"Corregidor South Dock Heliport","continent":"AS","iso_country":"PH","iso_region":"PH-CAV","municipality":"Cavite (Corregidor)","scheduled_service":"no","wikipedia_link":"https://en.wikipedia.org/wiki/Corregidor","keywords":"Corregidor"},"geometry":{"type":"Point","coordinates":[120.58748,14.384889]}},{"id":"5696","type":"Feature","properties":{"ident":"RPMC","type":"medium_airport","name":"Cotabato (Awang) Airport","elevation_ft":"189","continent":"AS","iso_country":"PH","iso_region":"PH-MDN","municipality":"Datu Odin Sinsuat","scheduled_service":"yes","icao_code":"RPMC","iata_code":"CBO","gps_code":"RPMC","wikipedia_link":"https://en.wikipedia.org/wiki/Cotabato_Airport","keywords":"Awang, Kutawatu"},"geometry":{"type":"Point","coordinates":[124.209938,7.164753]}},{"id":"341585","type":"Feature","properties":{"ident":"PH-0336","type":"heliport","name":"Crowne Plaza Manila Galleria Helipad","continent":"AS","iso_country":"PH","iso_region":"PH-00","municipality":"Quezon City","scheduled_service":"no"},"geometry":{"type":"Point","coordinates":[121.06096,14.59077]}},{"id":"316499","type":"Feature","properties":{"ident":"CUJ","type":"small_airport","name":"Culion Airport","elevation_ft":"155","continent":"AS","iso_country":"PH","iso_region":"PH-PLW","municipality":"Culion","scheduled_service":"no","iata_code":"CUJ","keywords":"Patag Airstrip"},"geometry":{"type":"Point","coordinates":[119.9378,11.8553]}},{"id":"504836","type":"Feature","properties":{"ident":"PH-0537","type":"heliport","name":"Cunanan Wharf Heliport","elevation_ft":"3","continent":"AS","iso_country":"PH","iso_region":"PH-00","municipality":"Manila","scheduled_service":"no"},"geometry":{"type":"Point","coordinates":[120.97198,14.5825]}},{"id":"30869","type":"Feature","properties":{"ident":"RPLO","type":"small_airport","name":"Cuyo Airport","continent":"AS","iso_country":"PH","iso_region":"PH-PLW","municipality":"Cuyo","scheduled_service":"yes","icao_code":"RPLO","iata_code":"CYU","gps_code":"RPLO","wikipedia_link":"https://en.wikipedia.org/wiki/Cuyo_Airport"},"geometry":{"type":"Point","coordinates":[121.069,10.8581]}},{"id":"349552","type":"Feature","properties":{"ident":"PH-0433","type":"small_airport","name":"Dacudao Airport","elevation_ft":"732","continent":"AS","iso_country":"PH","iso_region":"PH-DVO","municipality":"Davao","scheduled_service":"no"},"geometry":{"type":"Point","coordinates":[125.45724,7.2289]}},{"id":"5716","type":"Feature","properties":{"ident":"RPUD","type":"medium_airport","name":"Daet Airport","elevation_ft":"10","continent":"AS","iso_country":"PH","iso_region":"PH-CAN","municipality":"Daet","scheduled_service":"no","icao_code":"RPUD","iata_code":"DTE","gps_code":"RPUD","wikipedia_link":"https://en.wikipedia.org/wiki/Bagasbas_Airport"},"geometry":{"type":"Point","coordinates":[122.980003,14.1292]}},{"id":"353427","type":"Feature","properties":{"ident":"PH-0478","type":"heliport","name":"Dahilayan Heliport","elevation_ft":"3747","continent":"AS","iso_country":"PH","iso_region":"PH-BUK","municipality":"Manolo Fortich","scheduled_service":"no"},"geometry":{"type":"Point","coordinates":[124.85042,8.21836]}},{"id":"504873","type":"Feature","properties":{"ident":"PH-0557","type":"small_airport","name":"Danao Ultralight Airport","elevation_ft":"328","continent":"AS","iso_country":"PH","iso_region":"PH-BOH","municipality":"Danao","scheduled_service":"no"},"geometry":{"type":"Point","coordinates":[124.20284,9.96899]}},{"id":"5732","type":"Feature","properties":{"ident":"RPVA","type":"medium_airport","name":"Daniel Z. Romualdez Airport","elevation_ft":"10","continent":"AS","iso_country":"PH","iso_region":"PH-LEY","municipality":"Tacloban City","scheduled_service":"yes","icao_code":"RPVA","iata_code":"TAC","gps_code":"RPVA","local_code":"DZR","wikipedia_link":"https://en.wikipedia.org/wiki/Daniel_Z._Romualdez_Airport","keywords":"Tacloban, Daniel Z. Romualdez, Naval Station Dioscoro Papa"},"geometry":{"type":"Point","coordinates":[125.027783,11.227761]}},{"id":"5691","type":"Feature","properties":{"ident":"RPLS","type":"medium_airport","name":"Danilo Atienza Air Base","elevation_ft":"8","continent":"AS","iso_country":"PH","iso_region":"PH-CAV","municipality":"Cavite","scheduled_service":"no","icao_code":"RPLS","iata_code":"SGL","gps_code":"RPLS","wikipedia_link":"https://en.wikipedia.org/wiki/Danilo_Atienza_Air_Base","keywords":"NSP, Sangley Point Air Base, Sangley Point International Airport"},"geometry":{"type":"Point","coordinates":[120.903999,14.4954]}},{"id":"351518","type":"Feature","properties":{"ident":"PH-0460","type":"small_airport","name":"Datu Paglas Airport","elevation_ft":"75","continent":"AS","iso_country":"PH","iso_region":"PH-MDS","municipality":"Datu Paglas","scheduled_service":"no","keywords":"Alip River Development & Export Corporation"},"geometry":{"type":"Point","coordinates":[124.85329,6.75625]}},{"id":"351513","type":"Feature","properties":{"ident":"PH-0456","type":"small_airport","name":"Del Monte Plantation Airport","elevation_ft":"1973","continent":"AS","iso_country":"PH","iso_region":"PH-BUK","municipality":"Manolo Fortich","scheduled_service":"no","gps_code":"RPMT","keywords":"Camp 3, Manolo Fortich"},"geometry":{"type":"Point","coordinates":[124.85059,8.34813]}},{"id":"343744","type":"Feature","properties":{"ident":"PH-0379","type":"heliport","name":"Del Rosario Law Building Helipad","continent":"AS","iso_country":"PH","iso_region":"PH-00","municipality":"Taguig","scheduled_service":"no"},"geometry":{"type":"Point","coordinates":[121.04729,14.54355]}},{"id":"326048","type":"Feature","properties":{"ident":"PH-0131","type":"heliport","name":"Development Bank of the Philippines Heliport","continent":"AS","iso_country":"PH","iso_region":"PH-00","municipality":"Makati","scheduled_service":"no","keywords":"Deveopment Bank of the Philippines, Makati"},"geometry":{"type":"Point","coordinates":[121.027962,14.560899]}},{"id":"325998","type":"Feature","properties":{"ident":"PH-0095","type":"small_airport","name":"Dibagat Airstrip","continent":"AS","iso_country":"PH","iso_region":"PH-APA","municipality":"Kabugao","scheduled_service":"no","wikipedia_link":"https://en.wikipedia.org/wiki/List_of_airports_in_the_Philippines","keywords":"Dibagat, Kabugao"},"geometry":{"type":"Point","coordinates":[121.099768,18.080335]}},{"id":"356047","type":"Feature","properties":{"ident":"PH-0487","type":"heliport","name":"Didipio Heliport","elevation_ft":"2402","continent":"AS","iso_country":"PH","iso_region":"PH-NUV","municipality":"Kasibu","scheduled_service":"no"},"geometry":{"type":"Point","coordinates":[121.44424,16.321]}},{"id":"351519","type":"Feature","properties":{"ident":"PH-0461","type":"small_airport","name":"Digal Airport","elevation_ft":"61","continent":"AS","iso_country":"PH","iso_region":"PH-MDS","municipality":"Buluan","scheduled_service":"no"},"geometry":{"type":"Point","coordinates":[124.82675,6.73805]}},{"id":"302475","type":"Feature","properties":{"ident":"DSG","type":"small_airport","name":"Dilasag Airport","elevation_ft":"60","continent":"AS","iso_country":"PH","iso_region":"PH-AUR","municipality":"Dilasag","scheduled_service":"no","iata_code":"DSG"},"geometry":{"type":"Point","coordinates":[122.206806,16.445833]}},{"id":"341597","type":"Feature","properties":{"ident":"PH-0348","type":"heliport","name":"DILG-NAPOLCOM Center Helipad","continent":"AS","iso_country":"PH","iso_region":"PH-00","municipality":"Quezon City","scheduled_service":"no"},"geometry":{"type":"Point","coordinates":[121.03669,14.64463]}},{"id":"325711","type":"Feature","properties":{"ident":"PH-0022","type":"small_airport","name":"Dinapigue Airstrip","continent":"AS","iso_country":"PH","iso_region":"PH-AUR","municipality":"Dinapigue","scheduled_service":"no","keywords":"Dinapigue"},"geometry":{"type":"Point","coordinates":[122.264357,16.521518]}},{"id":"5700","type":"Feature","properties":{"ident":"RPMG","type":"medium_airport","name":"Dipolog Airport","elevation_ft":"12","continent":"AS","iso_country":"PH","iso_region":"PH-ZAN","municipality":"Dipolog","scheduled_service":"yes","icao_code":"RPMG","iata_code":"DPL","gps_code":"RPMG","home_link":"http://www.dipologcity.com/AccommodationsDipolog%20Airport.htm","wikipedia_link":"https://en.wikipedia.org/wiki/Dipolog_Airport"},"geometry":{"type":"Point","coordinates":[123.341875,8.601983]}},{"id":"326062","type":"Feature","properties":{"ident":"PH-0144","type":"heliport","name":"Discovery Primea Heliport","continent":"AS","iso_country":"PH","iso_region":"PH-00","municipality":"Makati","scheduled_service":"no","keywords":"Discovery Primea, Makati"},"geometry":{"type":"Point","coordinates":[121.026737,14.553579]}},{"id":"325876","type":"Feature","properties":{"ident":"PH-0039","type":"heliport","name":"Discovery Suites Heliport","continent":"AS","iso_country":"PH","iso_region":"PH-00","municipality":"Pasig","scheduled_service":"no","keywords":"Discovery Suites"},"geometry":{"type":"Point","coordinates":[121.060233,14.585852]}},{"id":"337358","type":"Feature","properties":{"ident":"PH-0201","type":"small_airport","name":"Dizon Airstrip","continent":"AS","iso_country":"PH","iso_region":"PH-COM","municipality":"Mawab","scheduled_service":"no"},"geometry":{"type":"Point","coordinates":[125.93749,7.48762]}},{"id":"321220","type":"Feature","properties":{"ident":"PH-0007","type":"small_airport","name":"Don Jesus Soriano (Doña Rosario) Airstrip","elevation_ft":"59","continent":"AS","iso_country":"PH","iso_region":"PH-AGN","municipality":"Tubay","scheduled_service":"no","keywords":"Doña Rosario, JCADI, RPSG, Santa Ana"},"geometry":{"type":"Point","coordinates":[125.56027,9.16944]}},{"id":"337762","type":"Feature","properties":{"ident":"PH-0225","type":"heliport","name":"DOST-PCAARRD Heliport","continent":"AS","iso_country":"PH","iso_region":"PH-LAG","municipality":"Los Baños","scheduled_service":"no"},"geometry":{"type":"Point","coordinates":[121.22434,14.17417]}},{"id":"5725","type":"Feature","properties":{"ident":"RPUR","type":"medium_airport","name":"Dr Juan C Angara Airport","elevation_ft":"108","continent":"AS","iso_country":"PH","iso_region":"PH-AUR","municipality":"Baler","scheduled_service":"no","icao_code":"RPUR","iata_code":"BQA","gps_code":"RPUR","wikipedia_link":"https://en.wikipedia.org/wiki/Dr._Juan_C._Angara_Airport","keywords":"Baler, Dr. Juan C. Angara"},"geometry":{"type":"Point","coordinates":[121.500034,15.729309]}},{"id":"326055","type":"Feature","properties":{"ident":"PH-0137","type":"heliport","name":"Easton Place Heliport","continent":"AS","iso_country":"PH","iso_region":"PH-00","municipality":"Makati","scheduled_service":"no","keywords":"Easton Place, Makati"},"geometry":{"type":"Point","coordinates":[121.019807,14.559381]}},{"id":"562352","type":"Feature","properties":{"ident":"PH-0628","type":"heliport","name":"Eco Plaza Building Heliport","continent":"AS","iso_country":"PH","iso_region":"PH-00","municipality":"Makati","scheduled_service":"no"},"geometry":{"type":"Point","coordinates":[121.023046,14.533817]}},{"id":"326201","type":"Feature","properties":{"ident":"PH-0162","type":"heliport","name":"Edwin Andrews Air Force Base Heliport","continent":"AS","iso_country":"PH","iso_region":"PH-ZMC","municipality":"Zamboanga","scheduled_service":"no","wikipedia_link":"http://wikimapia.org/2159949/Edwin-Andrews-Air-Base-Heliport","keywords":"Edwin Andrews Air Force Base, Zamboanga"},"geometry":{"type":"Point","coordinates":[122.065895,6.924595]}},{"id":"343737","type":"Feature","properties":{"ident":"PH-0372","type":"heliport","name":"Eight Forbestown Road Helipad","continent":"AS","iso_country":"PH","iso_region":"PH-00","municipality":"Taguig","scheduled_service":"no"},"geometry":{"type":"Point","coordinates":[121.04393,14.55059]}},{"id":"31007","type":"Feature","properties":{"ident":"RPEN","type":"small_airport","name":"El Nido Airport","continent":"AS","iso_country":"PH","iso_region":"PH-PLW","municipality":"El Nido","scheduled_service":"yes","icao_code":"RPEN","iata_code":"ENI","gps_code":"RPEN","wikipedia_link":"https://en.wikipedia.org/wiki/El_Nido_Airport","keywords":"El Nido"},"geometry":{"type":"Point","coordinates":[119.416087,11.202399]}},{"id":"326035","type":"Feature","properties":{"ident":"PH-0119","type":"heliport","name":"Enterprise Center Heliport","continent":"AS","iso_country":"PH","iso_region":"PH-00","municipality":"Makati","scheduled_service":"no","keywords":"Enterprise Center, Makati"},"geometry":{"type":"Point","coordinates":[121.021222,14.556181]}},{"id":"343743","type":"Feature","properties":{"ident":"PH-0378","type":"heliport","name":"Essensa 1 Helipad","continent":"AS","iso_country":"PH","iso_region":"PH-00","municipality":"Taguig","scheduled_service":"no","keywords":"Comeron Tower"},"geometry":{"type":"Point","coordinates":[121.04649,14.54381]}},{"id":"343745","type":"Feature","properties":{"ident":"PH-0380","type":"heliport","name":"Essensa 2 Helipad","continent":"AS","iso_country":"PH","iso_region":"PH-00","municipality":"Taguig","scheduled_service":"no"},"geometry":{"type":"Point","coordinates":[121.04682,14.54294]}},{"id":"341594","type":"Feature","properties":{"ident":"PH-0345","type":"heliport","name":"Eton Centris Heliport","continent":"AS","iso_country":"PH","iso_region":"PH-00","municipality":"Quezon City","scheduled_service":"no"},"geometry":{"type":"Point","coordinates":[121.04029,14.64118]}},{"id":"325887","type":"Feature","properties":{"ident":"PH-0050","type":"heliport","name":"Eton Cyberpod Helipads","continent":"AS","iso_country":"PH","iso_region":"PH-00","municipality":"Quezon City","scheduled_service":"no","keywords":"Eton Cyberpod, Quezon City"},"geometry":{"type":"Point","coordinates":[121.060324,14.592181]}},{"id":"341595","type":"Feature","properties":{"ident":"PH-0346","type":"heliport","name":"Eton Heliport","continent":"AS","iso_country":"PH","iso_region":"PH-00","municipality":"Quezon City","scheduled_service":"no"},"geometry":{"type":"Point","coordinates":[121.04137,14.64213]}},{"id":"326041","type":"Feature","properties":{"ident":"PH-0125","type":"heliport","name":"Eurovilla III Heliport","continent":"AS","iso_country":"PH","iso_region":"PH-00","municipality":"Makati","scheduled_service":"no","keywords":"Eurovilla III, Makati"},"geometry":{"type":"Point","coordinates":[121.024752,14.559841]}},{"id":"5746","type":"Feature","properties":{"ident":"RPVS","type":"medium_airport","name":"Evelio Javier Airport","elevation_ft":"23","continent":"AS","iso_country":"PH","iso_region":"PH-ANT","municipality":"San Jose","scheduled_service":"no","icao_code":"RPVS","iata_code":"EUQ","gps_code":"RPVS","wikipedia_link":"https://en.wikipedia.org/wiki/Evelio_Javier_Airport","keywords":"Antique Airport"},"geometry":{"type":"Point","coordinates":[121.932506,10.766644]}},{"id":"326066","type":"Feature","properties":{"ident":"PH-0147","type":"heliport","name":"Ever Gotesco – Commonwealth Heliport","continent":"AS","iso_country":"PH","iso_region":"PH-00","municipality":"Quezon City","scheduled_service":"no","keywords":"Ever Gotesco – Commonwealth, Quezon City"},"geometry":{"type":"Point","coordinates":[121.085228,14.678164]}},{"id":"342187","type":"Feature","properties":{"ident":"PH-0355","type":"small_airport","name":"Evergreen Farms Airstrip","elevation_ft":"58","continent":"AS","iso_country":"PH","iso_region":"PH-DAV","municipality":"Panabo","scheduled_service":"no"},"geometry":{"type":"Point","coordinates":[125.65782,7.30567]}},{"id":"326051","type":"Feature","properties":{"ident":"PH-0134","type":"heliport","name":"Export Bank Plaza Heliport","continent":"AS","iso_country":"PH","iso_region":"PH-00","municipality":"Makati","scheduled_service":"no","keywords":"Export Bank Plaza, Makati"},"geometry":{"type":"Point","coordinates":[121.011615,14.559421]}},{"id":"341398","type":"Feature","properties":{"ident":"PH-0325","type":"heliport","name":"Fairways Tower Helipad","continent":"AS","iso_country":"PH","iso_region":"PH-00","municipality":"Taguig","scheduled_service":"no"},"geometry":{"type":"Point","coordinates":[121.04527,14.54604]}},{"id":"337802","type":"Feature","properties":{"ident":"PH-0227","type":"heliport","name":"Fastech Helipad","continent":"AS","iso_country":"PH","iso_region":"PH-LAG","municipality":"Cabuyao","scheduled_service":"no"},"geometry":{"type":"Point","coordinates":[121.09219,14.23451]}},{"id":"594052","type":"Feature","properties":{"ident":"PH-0689","type":"heliport","name":"FDC Misamis Coal Power Plant Heliport","elevation_ft":"7","continent":"AS","iso_country":"PH","iso_region":"PH-MSR","municipality":"Villanueva","scheduled_service":"no"},"geometry":{"type":"Point","coordinates":[124.74622,8.56424]}},{"id":"334814","type":"Feature","properties":{"ident":"PH-0169","type":"heliport","name":"Federal Tower Helipad","continent":"AS","iso_country":"PH","iso_region":"PH-00","municipality":"Manila","scheduled_service":"no"},"geometry":{"type":"Point","coordinates":[120.9743,14.596645]}},{"id":"571661","type":"Feature","properties":{"ident":"PH-0665","type":"heliport","name":"First Cavite Industrial Estate Heliport","elevation_ft":"476","continent":"AS","iso_country":"PH","iso_region":"PH-CAV","municipality":"Dasmariñas","scheduled_service":"no","keywords":"RP41W, FCIE"},"geometry":{"type":"Point","coordinates":[120.93277,14.28675]}},{"id":"504879","type":"Feature","properties":{"ident":"PH-0563","type":"heliport","name":"Five E-Com Center Helipad","continent":"AS","iso_country":"PH","iso_region":"PH-00","municipality":"Pasay","scheduled_service":"no"},"geometry":{"type":"Point","coordinates":[120.98245,14.53931]}},{"id":"343750","type":"Feature","properties":{"ident":"PH-0384","type":"heliport","name":"Forbes Tower West Helipad","continent":"AS","iso_country":"PH","iso_region":"PH-00","municipality":"Makati","scheduled_service":"no"},"geometry":{"type":"Point","coordinates":[121.02547,14.55968]}},{"id":"564928","type":"Feature","properties":{"ident":"PH-0631","type":"heliport","name":"Fort Andres Bonifacio Special and Technical Staff Building Heliport","elevation_ft":"95","continent":"AS","iso_country":"PH","iso_region":"PH-00","municipality":"Taguig","scheduled_service":"no"},"geometry":{"type":"Point","coordinates":[121.045808,14.533204]}},{"id":"564927","type":"Feature","properties":{"ident":"PH-0630","type":"heliport","name":"Fort Bonifacio Heliport","elevation_ft":"95","continent":"AS","iso_country":"PH","iso_region":"PH-00","municipality":"Taguig","scheduled_service":"no"},"geometry":{"type":"Point","coordinates":[121.044402,14.533292]}},{"id":"325906","type":"Feature","properties":{"ident":"PH-0061","type":"heliport","name":"Fort Felipe Naval Logistics Center Heliport","continent":"AS","iso_country":"PH","iso_region":"PH-CAV","municipality":"Cavite","scheduled_service":"no","keywords":"Fort Felipe, Cavite"},"geometry":{"type":"Point","coordinates":[120.917295,14.483864]}},{"id":"343738","type":"Feature","properties":{"ident":"PH-0373","type":"heliport","name":"Fort Legend Tower Helipad","continent":"AS","iso_country":"PH","iso_region":"PH-00","municipality":"Taguig","scheduled_service":"no"},"geometry":{"type":"Point","coordinates":[121.04693,14.5541]}},{"id":"5693","type":"Feature","properties":{"ident":"RPLV","type":"small_airport","name":"Fort Magsaysay Airport","elevation_ft":"200","continent":"AS","iso_country":"PH","iso_region":"PH-NUE","municipality":"Santa Rosa","scheduled_service":"no","icao_code":"RPLV","gps_code":"RPLV","wikipedia_link":"https://en.wikipedia.org/wiki/Fort_Magsaysay","keywords":"Fort Magsaysay"},"geometry":{"type":"Point","coordinates":[121.091003,15.4347]}},{"id":"343729","type":"Feature","properties":{"ident":"PH-0364","type":"heliport","name":"Fort Victoria Tower A Helipad","continent":"AS","iso_country":"PH","iso_region":"PH-00","municipality":"Taguig","scheduled_service":"no"},"geometry":{"type":"Point","coordinates":[121.04572,14.54727]}},{"id":"343730","type":"Feature","properties":{"ident":"PH-0365","type":"heliport","name":"Fort Victoria Tower B Helipad","continent":"AS","iso_country":"PH","iso_region":"PH-00","municipality":"Taguig","scheduled_service":"no"},"geometry":{"type":"Point","coordinates":[121.04552,14.54695]}},{"id":"343731","type":"Feature","properties":{"ident":"PH-0366","type":"heliport","name":"Fort Victoria Tower C Helipad","continent":"AS","iso_country":"PH","iso_region":"PH-00","municipality":"Taguig","scheduled_service":"no"},"geometry":{"type":"Point","coordinates":[121.04591,14.54686]}},{"id":"326042","type":"Feature","properties":{"ident":"PH-0126","type":"heliport","name":"Four Seasons Heliport","elevation_ft":"639","continent":"AS","iso_country":"PH","iso_region":"PH-00","municipality":"Makati","scheduled_service":"no","keywords":"Four Season, Makati"},"geometry":{"type":"Point","coordinates":[121.023097,14.560433]}},{"id":"326058","type":"Feature","properties":{"ident":"PH-0140","type":"heliport","name":"Frabella I Condominiums Heliport","continent":"AS","iso_country":"PH","iso_region":"PH-00","municipality":"Makati","scheduled_service":"no","keywords":"Frabelle I, Makati"},"geometry":{"type":"Point","coordinates":[121.01809,14.555952]}},{"id":"5749","type":"Feature","properties":{"ident":"RPVV","type":"medium_airport","name":"Francisco B. Reyes (Busuanga) Airport","elevation_ft":"148","continent":"AS","iso_country":"PH","iso_region":"PH-PLW","municipality":"Coron","scheduled_service":"yes","icao_code":"RPVV","iata_code":"USU","gps_code":"RPVV","wikipedia_link":"https://en.wikipedia.org/wiki/Busuanga_Airport","keywords":"Busuanga Airport"},"geometry":{"type":"Point","coordinates":[120.100801,12.121865]}},{"id":"5697","type":"Feature","properties":{"ident":"RPMD","type":"large_airport","name":"Francisco Bangoy International Airport","elevation_ft":"96","continent":"AS","iso_country":"PH","iso_region":"PH-DVO","municipality":"Davao","scheduled_service":"yes","icao_code":"RPMD","iata_code":"DVO","gps_code":"RPMD","wikipedia_link":"https://en.wikipedia.org/wiki/Francisco_Bangoy_International_Airport","keywords":"Davao International Airport"},"geometry":{"type":"Point","coordinates":[125.646004,7.12552]}},{"id":"325938","type":"Feature","properties":{"ident":"PH-0069","type":"small_airport","name":"Fuga Airstrip","continent":"AS","iso_country":"PH","iso_region":"PH-CAG","municipality":"Aparri","scheduled_service":"no","wikipedia_link":"https://en.wikipedia.org/wiki/Fuga_Island","keywords":"Fuga"},"geometry":{"type":"Point","coordinates":[121.283612,18.863326]}},{"id":"339276","type":"Feature","properties":{"ident":"PH-0273","type":"heliport","name":"Gapuzan Trucking Inc Helipad","continent":"AS","iso_country":"PH","iso_region":"PH-00","municipality":"Las Piñas","scheduled_service":"no"},"geometry":{"type":"Point","coordinates":[120.97913,14.44834]}},{"id":"577110","type":"Feature","properties":{"ident":"PH-0676","type":"heliport","name":"Gateway Mall Heliport","continent":"AS","iso_country":"PH","iso_region":"PH-00","municipality":"Quezon City","scheduled_service":"no"},"geometry":{"type":"Point","coordinates":[121.053178,14.621939]}},{"id":"337844","type":"Feature","properties":{"ident":"PH-0251","type":"small_airport","name":"General Emilio Aguinaldo Airstrip","continent":"AS","iso_country":"PH","iso_region":"PH-MDC","municipality":"Sablayan","scheduled_service":"no"},"geometry":{"type":"Point","coordinates":[120.88265,12.81818]}},{"id":"325912","type":"Feature","properties":{"ident":"PH-0064","type":"heliport","name":"General Gregorio Lim Marine Base Heliport","continent":"AS","iso_country":"PH","iso_region":"PH-CAV","municipality":"Ternate","scheduled_service":"no","keywords":"General Gregorio Lim Marine Base, Bucana"},"geometry":{"type":"Point","coordinates":[120.626543,14.267422]}},{"id":"5709","type":"Feature","properties":{"ident":"RPMR","type":"medium_airport","name":"General Santos International Airport","elevation_ft":"505","continent":"AS","iso_country":"PH","iso_region":"PH-SCO","municipality":"General Santos","scheduled_service":"yes","icao_code":"RPMR","iata_code":"GES","gps_code":"RPMR","wikipedia_link":"https://en.wikipedia.org/wiki/General_Santos_International_Airport","keywords":"Tambler Airport"},"geometry":{"type":"Point","coordinates":[125.096001,6.058]}},{"id":"508761","type":"Feature","properties":{"ident":"PH-0578","type":"heliport","name":"George Dewey Medical Center Heliport","elevation_ft":"594","continent":"AS","iso_country":"PH","iso_region":"PH-ZMB","municipality":"Subic","scheduled_service":"no"},"geometry":{"type":"Point","coordinates":[120.3067,14.77411]}},{"id":"326039","type":"Feature","properties":{"ident":"PH-0123","type":"heliport","name":"Gercon Plaza Heliport","continent":"AS","iso_country":"PH","iso_region":"PH-00","municipality":"Makati","scheduled_service":"no","keywords":"Gercon Plaza, Makati"},"geometry":{"type":"Point","coordinates":[121.026437,14.559525]}},{"id":"595192","type":"Feature","properties":{"ident":"PH-0730","type":"heliport","name":"GLAS Tower Heliport","continent":"AS","iso_country":"PH","iso_region":"PH-00","municipality":"Pasig","scheduled_service":"no"},"geometry":{"type":"Point","coordinates":[121.06069,14.58719]}},{"id":"343739","type":"Feature","properties":{"ident":"PH-0374","type":"heliport","name":"Globe Tower Helipad","continent":"AS","iso_country":"PH","iso_region":"PH-00","municipality":"Taguig","scheduled_service":"no"},"geometry":{"type":"Point","coordinates":[121.05003,14.55344]}},{"id":"341593","type":"Feature","properties":{"ident":"PH-0344","type":"heliport","name":"GMA Network Tower Helipad","continent":"AS","iso_country":"PH","iso_region":"PH-00","municipality":"Quezon City","scheduled_service":"no"},"geometry":{"type":"Point","coordinates":[121.04391,14.6334]}},{"id":"5736","type":"Feature","properties":{"ident":"RPVE","type":"medium_airport","name":"Godofredo P. Ramos Airport","elevation_ft":"7","continent":"AS","iso_country":"PH","iso_region":"PH-AKL","municipality":"Caticlan","scheduled_service":"yes","icao_code":"RPVE","iata_code":"MPH","gps_code":"RPVE","wikipedia_link":"https://en.wikipedia.org/wiki/Godofredo_P._Ramos_Airport","keywords":"Godofredo P. Ramos Airport"},"geometry":{"type":"Point","coordinates":[121.954002,11.9245]}},{"id":"326068","type":"Feature","properties":{"ident":"PH-0149","type":"heliport","name":"Government Arsenal Heliport","continent":"AS","iso_country":"PH","iso_region":"PH-BAN","municipality":"Lamao","scheduled_service":"no","wikipedia_link":"https://en.wikipedia.org/wiki/Government_Arsenal","keywords":"Government Arsenal, Lamao, Limay"},"geometry":{"type":"Point","coordinates":[120.586678,14.507939]}},{"id":"595197","type":"Feature","properties":{"ident":"PH-0732","type":"heliport","name":"Grand Hyatt Manila Residences South Tower Heliport","continent":"AS","iso_country":"PH","iso_region":"PH-00","municipality":"Taguig","scheduled_service":"no"},"geometry":{"type":"Point","coordinates":[121.05183,14.55647]}},{"id":"339322","type":"Feature","properties":{"ident":"PH-0314","type":"heliport","name":"Grand Soho Makati Heliport","continent":"AS","iso_country":"PH","iso_region":"PH-00","municipality":"Makati","scheduled_service":"no"},"geometry":{"type":"Point","coordinates":[121.023154,14.561679]}},{"id":"351883","type":"Feature","properties":{"ident":"PH-0470","type":"heliport","name":"GreenHeli Boracay Heliport","elevation_ft":"45","continent":"AS","iso_country":"PH","iso_region":"PH-AKL","municipality":"Malay","scheduled_service":"no"},"geometry":{"type":"Point","coordinates":[121.93209,11.95887]}},{"id":"351882","type":"Feature","properties":{"ident":"PH-0469","type":"heliport","name":"GreenHeli Boracay Heliport","continent":"AS","iso_country":"PH","iso_region":"PH-AKL","municipality":"Malay","scheduled_service":"no"},"geometry":{"type":"Point","coordinates":[121.93209,11.95887]}},{"id":"338288","type":"Feature","properties":{"ident":"PH-0266","type":"heliport","name":"GSIS Complex Helipad","continent":"AS","iso_country":"PH","iso_region":"PH-00","municipality":"Pasay","scheduled_service":"no"},"geometry":{"type":"Point","coordinates":[120.984036,14.546694]}},{"id":"344466","type":"Feature","properties":{"ident":"PH-0399","type":"heliport","name":"GT Tower Helipad","continent":"AS","iso_country":"PH","iso_region":"PH-00","municipality":"Makati","scheduled_service":"no"},"geometry":{"type":"Point","coordinates":[121.01691,14.56006]}},{"id":"337354","type":"Feature","properties":{"ident":"PH-0197","type":"small_airport","name":"Guianga Airstrip","elevation_ft":"2402","continent":"AS","iso_country":"PH","iso_region":"PH-DVO","municipality":"Davao","scheduled_service":"no"},"geometry":{"type":"Point","coordinates":[125.39023,7.09551]}},{"id":"504832","type":"Feature","properties":{"ident":"PH-0533","type":"small_airport","name":"Guimaras Airport","elevation_ft":"262","continent":"AS","iso_country":"PH","iso_region":"PH-GUI","municipality":"Buenavista","scheduled_service":"no"},"geometry":{"type":"Point","coordinates":[122.66521,10.69421]}},{"id":"562072","type":"Feature","properties":{"ident":"PH-0617","type":"heliport","name":"Guimaras Provincial Capitol Heliport","elevation_ft":"558","continent":"AS","iso_country":"PH","iso_region":"PH-GUI","municipality":"Jordan","scheduled_service":"no"},"geometry":{"type":"Point","coordinates":[122.58885,10.59856]}},{"id":"5738","type":"Feature","properties":{"ident":"RPVG","type":"small_airport","name":"Guiuan Airport","elevation_ft":"7","continent":"AS","iso_country":"PH","iso_region":"PH-EAS","municipality":"Guiuan","scheduled_service":"no","gps_code":"RPVG","local_code":"GUI","wikipedia_link":"https://en.wikipedia.org/wiki/Guiuan_Airport"},"geometry":{"type":"Point","coordinates":[125.741997,11.0355]}},{"id":"339311","type":"Feature","properties":{"ident":"PH-0303","type":"heliport","name":"Hamilo Coast Helipad","continent":"AS","iso_country":"PH","iso_region":"PH-BTG","municipality":"Nasugbu","scheduled_service":"no"},"geometry":{"type":"Point","coordinates":[120.61506,14.18891]}},{"id":"336816","type":"Feature","properties":{"ident":"PH-0182","type":"heliport","name":"Hanjin Heavy Industries Corporation Helipad","continent":"AS","iso_country":"PH","iso_region":"PH-ZMB","municipality":"Subic","scheduled_service":"no"},"geometry":{"type":"Point","coordinates":[120.20847,14.82267]}},{"id":"326000","type":"Feature","properties":{"ident":"PH-0096","type":"small_airport","name":"Hermana Mayor Island Airstrip","continent":"AS","iso_country":"PH","iso_region":"PH-ZMB","municipality":"Santa Cruz","scheduled_service":"no","wikipedia_link":"https://en.wikipedia.org/wiki/List_of_airports_in_the_Philippines","keywords":"RPBO"},"geometry":{"type":"Point","coordinates":[119.793205,15.781981]}},{"id":"326001","type":"Feature","properties":{"ident":"PH-0097","type":"small_airport","name":"Hermana Menor Island Airstrip","continent":"AS","iso_country":"PH","iso_region":"PH-ZMB","municipality":"Santa Cruz","scheduled_service":"no","wikipedia_link":"https://en.wikipedia.org/wiki/List_of_airports_in_the_Philippines","keywords":"RPBT"},"geometry":{"type":"Point","coordinates":[119.82478,15.735475]}},{"id":"32231","type":"Feature","properties":{"ident":"RPVH","type":"small_airport","name":"Hilongos Airport","elevation_ft":"12","continent":"AS","iso_country":"PH","iso_region":"PH-LEY","municipality":"Hilongos","scheduled_service":"no","gps_code":"RPVH","wikipedia_link":"https://en.wikipedia.org/wiki/Hilongos_Airport"},"geometry":{"type":"Point","coordinates":[124.7611,10.37567]}},{"id":"325566","type":"Feature","properties":{"ident":"PH-0014","type":"heliport","name":"Himmel Industries Tank Farm Heliport","continent":"AS","iso_country":"PH","iso_region":"PH-BTG","municipality":"Batangas","scheduled_service":"no","keywords":"Pinamucan, Himmel Industries"},"geometry":{"type":"Point","coordinates":[121.050983,13.687759]}},{"id":"341591","type":"Feature","properties":{"ident":"PH-0342","type":"heliport","name":"Holiday Inn Galleria Manila Helipad","continent":"AS","iso_country":"PH","iso_region":"PH-00","municipality":"Pasig","scheduled_service":"no"},"geometry":{"type":"Point","coordinates":[121.06019,14.59002]}},{"id":"508738","type":"Feature","properties":{"ident":"PH-0572","type":"heliport","name":"Honda Cars Pampanga Heliport","elevation_ft":"62","continent":"AS","iso_country":"PH","iso_region":"PH-PAM","municipality":"San Fernando","scheduled_service":"no"},"geometry":{"type":"Point","coordinates":[120.66596,15.05015]}},{"id":"430582","type":"Feature","properties":{"ident":"PH-0495","type":"seaplane_base","name":"Huma Island Resort Seaplane Terminal","continent":"AS","iso_country":"PH","iso_region":"PH-PLW","municipality":"Busuanga","scheduled_service":"no"},"geometry":{"type":"Point","coordinates":[119.90455,12.05337]}},{"id":"32226","type":"Feature","properties":{"ident":"RPUI","type":"small_airport","name":"Iba Airport","elevation_ft":"11","continent":"AS","iso_country":"PH","iso_region":"PH-ZMB","municipality":"Iba","scheduled_service":"no","gps_code":"RPUI","wikipedia_link":"https://en.wikipedia.org/wiki/Iba_Airport","keywords":"Paliparan ng Iba"},"geometry":{"type":"Point","coordinates":[119.969498,15.324756]}},{"id":"326002","type":"Feature","properties":{"ident":"PH-0098","type":"small_airport","name":"Ibonan Airstrip","continent":"AS","iso_country":"PH","iso_region":"PH-AUR","municipality":"Dingalan","scheduled_service":"no","keywords":"Ibonan, Dingalan"},"geometry":{"type":"Point","coordinates":[121.375591,15.304634]}},{"id":"5739","type":"Feature","properties":{"ident":"RPVI","type":"medium_airport","name":"Iloilo International Airport","elevation_ft":"27","continent":"AS","iso_country":"PH","iso_region":"PH-ILI","municipality":"Cabatuan","scheduled_service":"yes","icao_code":"RPVI","iata_code":"ILO","gps_code":"RPVI","wikipedia_link":"https://en.wikipedia.org/wiki/Iloilo_International_Airport"},"geometry":{"type":"Point","coordinates":[122.493358,10.833017]}},{"id":"562071","type":"Feature","properties":{"ident":"PH-0616","type":"small_airport","name":"Inampologan Island Private Airstrip","elevation_ft":"56","continent":"AS","iso_country":"PH","iso_region":"PH-GUI","municipality":"Sibunag","scheduled_service":"no","keywords":"RPSE, Inampulugan, Sebaste"},"geometry":{"type":"Point","coordinates":[122.6907,10.46654]}},{"id":"31683","type":"Feature","properties":{"ident":"RPMV","type":"small_airport","name":"Ipil Airport","continent":"AS","iso_country":"PH","iso_region":"PH-ZSI","municipality":"Ipil","scheduled_service":"no","icao_code":"RPMV","iata_code":"IPE","gps_code":"RPMV","wikipedia_link":"https://en.wikipedia.org/wiki/Ipil_Airport"},"geometry":{"type":"Point","coordinates":[122.6015,7.784898]}},{"id":"5438","type":"Feature","properties":{"ident":"RP15","type":"small_airport","name":"Isabel PASAR Airport","elevation_ft":"16","continent":"AS","iso_country":"PH","iso_region":"PH-LEY","municipality":"Isabel","scheduled_service":"no","gps_code":"RP15","local_code":"RP15","keywords":"RPJ78"},"geometry":{"type":"Point","coordinates":[124.437856,10.912339]}},{"id":"353720","type":"Feature","properties":{"ident":"PH-0480","type":"heliport","name":"Isabela Provincial Capitol Heliport","elevation_ft":"218","continent":"AS","iso_country":"PH","iso_region":"PH-ISA","municipality":"Ilagan","scheduled_service":"no"},"geometry":{"type":"Point","coordinates":[121.86579,17.10351]}},{"id":"341538","type":"Feature","properties":{"ident":"PH-0329","type":"heliport","name":"Island Cove Heliport","continent":"AS","iso_country":"PH","iso_region":"PH-CAV","municipality":"Kawit","scheduled_service":"no"},"geometry":{"type":"Point","coordinates":[120.92336,14.46306]}},{"id":"571485","type":"Feature","properties":{"ident":"PH-0654","type":"heliport","name":"Island Park Heliport","elevation_ft":"512","continent":"AS","iso_country":"PH","iso_region":"PH-CAV","municipality":"Dasmariñas","scheduled_service":"no","keywords":"RP8N4"},"geometry":{"type":"Point","coordinates":[120.98337,14.30078]}},{"id":"325884","type":"Feature","properties":{"ident":"PH-0047","type":"heliport","name":"iSquare Heliport","continent":"AS","iso_country":"PH","iso_region":"PH-00","municipality":"Pasig","scheduled_service":"no","keywords":"iSquare, Pasig"},"geometry":{"type":"Point","coordinates":[121.06338,14.5856]}},{"id":"504731","type":"Feature","properties":{"ident":"PH-0505","type":"small_airport","name":"Isugod Airstrip","continent":"AS","iso_country":"PH","iso_region":"PH-PLW","municipality":"Quezon","scheduled_service":"no"},"geometry":{"type":"Point","coordinates":[118.13615,9.3339]}},{"id":"32221","type":"Feature","properties":{"ident":"RPLT","type":"medium_airport","name":"Itbayat Jorge Abad Airport","elevation_ft":"328","continent":"AS","iso_country":"PH","iso_region":"PH-BTN","municipality":"Itbayat","scheduled_service":"yes","icao_code":"RPLT","gps_code":"RPLT","wikipedia_link":"https://en.wikipedia.org/wiki/Jorge_Abad_Airport","keywords":"Irport nu Jorge Abad, Paliparang Jorge Abad, Pagtayaban ti Jorge Abad"},"geometry":{"type":"Point","coordinates":[121.809969,20.722521]}},{"id":"341534","type":"Feature","properties":{"ident":"PH-0326","type":"heliport","name":"James Steelworks Heliport","continent":"AS","iso_country":"PH","iso_region":"PH-RIZ","municipality":"Tanay","scheduled_service":"no"},"geometry":{"type":"Point","coordinates":[121.36838,14.53525]}},{"id":"325565","type":"Feature","properties":{"ident":"PH-0013","type":"heliport","name":"JG Summit Olefins Corporation (Pinamucan) Helipad","continent":"AS","iso_country":"PH","iso_region":"PH-BTG","municipality":"Batangas","scheduled_service":"no","keywords":"Pinamucan, JG Summit Olefins Corp"},"geometry":{"type":"Point","coordinates":[121.056255,13.677734]}},{"id":"5703","type":"Feature","properties":{"ident":"RPMJ","type":"medium_airport","name":"Jolo Airport","elevation_ft":"118","continent":"AS","iso_country":"PH","iso_region":"PH-SLU","municipality":"Jolo","scheduled_service":"yes","icao_code":"RPMJ","iata_code":"JOL","gps_code":"RPMJ","wikipedia_link":"https://en.wikipedia.org/wiki/Jolo_Airport"},"geometry":{"type":"Point","coordinates":[121.011002,6.05367]}},{"id":"32220","type":"Feature","properties":{"ident":"RPLJ","type":"small_airport","name":"Jomalig Island Airport","elevation_ft":"36","continent":"AS","iso_country":"PH","iso_region":"PH-QUE","municipality":"Jomalig","scheduled_service":"no","icao_code":"RPLJ","gps_code":"RPLJ","wikipedia_link":"https://en.wikipedia.org/wiki/Jomalig_Airport","keywords":"Jomalig"},"geometry":{"type":"Point","coordinates":[122.331133,14.704161]}},{"id":"571387","type":"Feature","properties":{"ident":"PH-0646","type":"heliport","name":"Jose B Lingad Memorial General Hospital Heliport","continent":"AS","iso_country":"PH","iso_region":"PH-PAM","municipality":"San Fernando","scheduled_service":"no","keywords":"RP4WU"},"geometry":{"type":"Point","coordinates":[120.68487,15.03394]}},{"id":"325639","type":"Feature","properties":{"ident":"RPUP","type":"small_airport","name":"Jose Panganiban (Larap) Airstrip","continent":"AS","iso_country":"PH","iso_region":"PH-CAN","municipality":"Larap","scheduled_service":"no","gps_code":"RPUP","wikipedia_link":"https://en.wikipedia.org/wiki/Jose_Panganiban,_Camarines_Norte#Airport_and_Seaports","keywords":"Jose Panganiban, Larap"},"geometry":{"type":"Point","coordinates":[122.645659,14.293288]}},{"id":"325950","type":"Feature","properties":{"ident":"PH-0075","type":"small_airport","name":"Jose Paredes Airbase","continent":"AS","iso_country":"PH","iso_region":"PH-ILN","municipality":"Agaga","scheduled_service":"no","keywords":"Jose Parades, Agaga"},"geometry":{"type":"Point","coordinates":[120.666339,18.402542]}},{"id":"325865","type":"Feature","properties":{"ident":"PH-0035","type":"heliport","name":"Joy-Nostalg Heliport","continent":"AS","iso_country":"PH","iso_region":"PH-00","municipality":"Pasig","scheduled_service":"no","keywords":"Joy-Nostalg, San Antonio Rescue"},"geometry":{"type":"Point","coordinates":[121.060106,14.587555]}},{"id":"504870","type":"Feature","properties":{"ident":"PH-0554","type":"small_airport","name":"Kalamansig Airport","elevation_ft":"23","continent":"AS","iso_country":"PH","iso_region":"PH-SUK","municipality":"Kalamansig","scheduled_service":"no"},"geometry":{"type":"Point","coordinates":[124.05329,6.56]}},{"id":"5741","type":"Feature","properties":{"ident":"RPVK","type":"medium_airport","name":"Kalibo International Airport","elevation_ft":"14","continent":"AS","iso_country":"PH","iso_region":"PH-AKL","municipality":"Kalibo","scheduled_service":"yes","icao_code":"RPVK","iata_code":"KLO","gps_code":"RPVK","wikipedia_link":"https://en.wikipedia.org/wiki/Kalibo_International_Airport"},"geometry":{"type":"Point","coordinates":[122.375999,11.6794]}},{"id":"337350","type":"Feature","properties":{"ident":"PH-0193","type":"small_airport","name":"Kasapa Airstrip","elevation_ft":"577","continent":"AS","iso_country":"PH","iso_region":"PH-AGS","municipality":"La Paz","scheduled_service":"no"},"geometry":{"type":"Point","coordinates":[125.6345,8.1654]}},{"id":"342188","type":"Feature","properties":{"ident":"PH-0356","type":"small_airport","name":"Kasilak Airstrip","elevation_ft":"108","continent":"AS","iso_country":"PH","iso_region":"PH-DAV","municipality":"Panabo","scheduled_service":"no"},"geometry":{"type":"Point","coordinates":[125.5971,7.3335]}},{"id":"325574","type":"Feature","properties":{"ident":"PH-0015","type":"heliport","name":"KEPCO Ilijan Power Plant Heliport","continent":"AS","iso_country":"PH","iso_region":"PH-BTG","municipality":"Batangas","scheduled_service":"no","keywords":"Ilijan"},"geometry":{"type":"Point","coordinates":[121.076908,13.62061]}},{"id":"348388","type":"Feature","properties":{"ident":"PH-0419","type":"small_airport","name":"Kling Airport","elevation_ft":"128","continent":"AS","iso_country":"PH","iso_region":"PH-SAR","municipality":"Kiamba","scheduled_service":"no"},"geometry":{"type":"Point","coordinates":[124.74409,5.93761]}},{"id":"595224","type":"Feature","properties":{"ident":"PH-0737","type":"heliport","name":"Kota Island (Loaita Island) Heliport","continent":"AS","iso_country":"PH","iso_region":"PH-PLW","municipality":"Kalayaan (Kota Island / Loaita Island)","scheduled_service":"no"},"geometry":{"type":"Point","coordinates":[114.423556,10.66828]}},