{"type":"FeatureCollection","features":[{"id":"300307","type":"Feature","properties":{"ident":"AEE","type":"small_airport","name":"Adareil Airport","elevation_ft":"1301","continent":"AF","iso_country":"SS","iso_region":"SS-23","municipality":"Adar","scheduled_service":"no","gps_code":"HJAR","iata_code":"AEE","wikipedia_link":"https://en.wikipedia.org/wiki/Adareil_Airport"},"geometry":{"type":"Point","coordinates":[32.959444,10.053611]}},{"id":"351462","type":"Feature","properties":{"ident":"SS-0051","type":"small_airport","name":"Adok Airport","continent":"AF","iso_country":"SS","iso_region":"SS-22","municipality":"Adok","scheduled_service":"no"},"geometry":{"type":"Point","coordinates":[30.29131,8.20699]}},{"id":"308299","type":"Feature","properties":{"ident":"SS-0001","type":"small_airport","name":"Ajuini Airstrip","elevation_ft":"1354","continent":"AF","iso_country":"SS","iso_region":"SS-20","municipality":"Poktap","scheduled_service":"no","gps_code":"HJAJ"},"geometry":{"type":"Point","coordinates":[31.41499,7.457793]}},{"id":"43976","type":"Feature","properties":{"ident":"HSAK","type":"small_airport","name":"Akobo Airport","elevation_ft":"1352","continent":"AF","iso_country":"SS","iso_region":"SS-20","municipality":"Akobo","scheduled_service":"no","gps_code":"HJAK","wikipedia_link":"https://en.wikipedia.org/wiki/Akobo_Airport","keywords":"HSAK, Ahobo"},"geometry":{"type":"Point","coordinates":[33.0027,7.7779]}},{"id":"575131","type":"Feature","properties":{"ident":"SS-0064","type":"small_airport","name":"Alek Airfield","elevation_ft":"1355","continent":"AF","iso_country":"SS","iso_region":"SS-21","municipality":"Alek","scheduled_service":"no","keywords":"Marial Bai"},"geometry":{"type":"Point","coordinates":[28.15377,8.6662]}},{"id":"344056","type":"Feature","properties":{"ident":"SS-0030","type":"small_airport","name":"Athidwey Airport","continent":"AF","iso_country":"SS","iso_region":"SS-23","municipality":"Athidwey","scheduled_service":"no"},"geometry":{"type":"Point","coordinates":[32.22511,10.26976]}},{"id":"31614","type":"Feature","properties":{"ident":"HSAW","type":"small_airport","name":"Aweil Airport","elevation_ft":"1394","continent":"AF","iso_country":"SS","iso_region":"SS-15","municipality":"Aweil","scheduled_service":"no","gps_code":"HJAW","wikipedia_link":"https://en.wikipedia.org/wiki/Aweil_Airport","keywords":"HSAW"},"geometry":{"type":"Point","coordinates":[27.360151,8.791383]}},{"id":"575125","type":"Feature","properties":{"ident":"SS-0059","type":"small_airport","name":"Aweng Airstrip","elevation_ft":"1319","continent":"AF","iso_country":"SS","iso_region":"SS-21","municipality":"Aweng","scheduled_service":"no","keywords":"Tuic"},"geometry":{"type":"Point","coordinates":[28.56128,9.10337]}},{"id":"308309","type":"Feature","properties":{"ident":"SS-0011","type":"small_airport","name":"Ayod Airstrip","elevation_ft":"1330","continent":"AF","iso_country":"SS","iso_region":"SS-20","scheduled_service":"no","gps_code":"HJAY"},"geometry":{"type":"Point","coordinates":[31.406178,8.137948]}},{"id":"31616","type":"Feature","properties":{"ident":"HSBT","type":"small_airport","name":"Bentiu Airport","elevation_ft":"2000","continent":"AF","iso_country":"SS","iso_region":"SS-22","municipality":"Rubkona","scheduled_service":"no","gps_code":"HJBT","wikipedia_link":"https://en.wikipedia.org/wiki/Bentu_Airport","keywords":"HSBT"},"geometry":{"type":"Point","coordinates":[29.787316,9.308488]}},{"id":"344063","type":"Feature","properties":{"ident":"SS-0037","type":"small_airport","name":"Bieh Airport","continent":"AF","iso_country":"SS","iso_region":"SS-22","municipality":"Dhomor","scheduled_service":"no"},"geometry":{"type":"Point","coordinates":[30.13021,8.46238]}},{"id":"31615","type":"Feature","properties":{"ident":"HSBR","type":"small_airport","name":"Bor Airport","elevation_ft":"1394","continent":"AF","iso_country":"SS","iso_region":"SS-20","municipality":"Bor","scheduled_service":"no","gps_code":"HJBR","wikipedia_link":"https://en.wikipedia.org/wiki/Bor_Airport_(Sudan)","keywords":"HSBR"},"geometry":{"type":"Point","coordinates":[31.600408,6.191942]}},{"id":"308310","type":"Feature","properties":{"ident":"SS-0012","type":"small_airport","name":"Buk Airfield","continent":"AF","iso_country":"SS","iso_region":"SS-20","scheduled_service":"no"},"geometry":{"type":"Point","coordinates":[31.428108,8.010956]}},{"id":"351454","type":"Feature","properties":{"ident":"SS-0043","type":"small_airport","name":"Dablual Airport","elevation_ft":"1296","continent":"AF","iso_country":"SS","iso_region":"SS-22","municipality":"Dablual","scheduled_service":"no"},"geometry":{"type":"Point","coordinates":[30.01107,8.31798]}},{"id":"344029","type":"Feature","properties":{"ident":"SS-0023","type":"small_airport","name":"Doregh Airstrip","elevation_ft":"1314","continent":"AF","iso_country":"SS","iso_region":"SS-20","municipality":"Doregh","scheduled_service":"no"},"geometry":{"type":"Point","coordinates":[30.70938,9.04242]}},{"id":"308301","type":"Feature","properties":{"ident":"SS-0003","type":"small_airport","name":"Duk Kwenyakwol Airstrip","elevation_ft":"1345","continent":"AF","iso_country":"SS","iso_region":"SS-20","municipality":"Mareng","scheduled_service":"no","gps_code":"HJDK"},"geometry":{"type":"Point","coordinates":[31.45062,7.598693]}},{"id":"308303","type":"Feature","properties":{"ident":"SS-0005","type":"small_airport","name":"Duk Padiet Airstrip","elevation_ft":"1344","continent":"AF","iso_country":"SS","iso_region":"SS-20","municipality":"Duk Padiet","scheduled_service":"no","gps_code":"HJDF"},"geometry":{"type":"Point","coordinates":[31.399612,7.740431]}},{"id":"308300","type":"Feature","properties":{"ident":"SS-0002","type":"small_airport","name":"Duk Payuel Airstrip","elevation_ft":"1357","continent":"AF","iso_country":"SS","iso_region":"SS-20","municipality":"Duk Payuel","scheduled_service":"no","gps_code":"HJDP","keywords":"Duk Faiwil, Ager"},"geometry":{"type":"Point","coordinates":[31.51449,7.47704]}},{"id":"344061","type":"Feature","properties":{"ident":"SS-0035","type":"heliport","name":"Dwil Keil Heliport","continent":"AF","iso_country":"SS","iso_region":"SS-22","municipality":"Dwil Keil","scheduled_service":"no"},"geometry":{"type":"Point","coordinates":[29.9147,8.84604]}},{"id":"344052","type":"Feature","properties":{"ident":"SS-0026","type":"small_airport","name":"Ganyiel Airport","continent":"AF","iso_country":"SS","iso_region":"SS-22","municipality":"Ganyiel","scheduled_service":"no"},"geometry":{"type":"Point","coordinates":[30.4721,7.3989]}},{"id":"351460","type":"Feature","properties":{"ident":"SS-0049","type":"small_airport","name":"GPOC Unity Airstrip","continent":"AF","iso_country":"SS","iso_region":"SS-22","municipality":"Thepkeni","scheduled_service":"no","keywords":"Unity Airport"},"geometry":{"type":"Point","coordinates":[29.66566,9.47649]}},{"id":"319226","type":"Feature","properties":{"ident":"SS-0020","type":"small_airport","name":"Ibba Airstrip","elevation_ft":"2269","continent":"AF","iso_country":"SS","iso_region":"SS-16","municipality":"Ibba","scheduled_service":"no","gps_code":"HJBB"},"geometry":{"type":"Point","coordinates":[29.157161,4.791895]}},{"id":"3247","type":"Feature","properties":{"ident":"HJJJ","type":"large_airport","name":"Juba International Airport","elevation_ft":"1513","continent":"AF","iso_country":"SS","iso_region":"SS-17","municipality":"Juba","scheduled_service":"yes","gps_code":"HJJJ","iata_code":"JUB","wikipedia_link":"https://en.wikipedia.org/wiki/Juba_Airport","keywords":"JIA, HSSJ"},"geometry":{"type":"Point","coordinates":[31.601101,4.87201]}},{"id":"31620","type":"Feature","properties":{"ident":"HSKJ","type":"small_airport","name":"Kajo Keji Airport","elevation_ft":"2500","continent":"AF","iso_country":"SS","iso_region":"SS-17","municipality":"Kajo Keji","scheduled_service":"no","gps_code":"HJKK","wikipedia_link":"https://en.wikipedia.org/wiki/Kago_Kaju_Airport","keywords":"HSKJ, Kago Kaju"},"geometry":{"type":"Point","coordinates":[31.65652,3.85754]}},{"id":"31621","type":"Feature","properties":{"ident":"HSKP","type":"small_airport","name":"Kapoeta Airport","elevation_ft":"2220","continent":"AF","iso_country":"SS","iso_region":"SS-19","municipality":"Kapoeta","scheduled_service":"no","gps_code":"HJKP","wikipedia_link":"https://en.wikipedia.org/wiki/Kapoeta_Airport","keywords":"HSKP"},"geometry":{"type":"Point","coordinates":[33.586278,4.780812]}},{"id":"354107","type":"Feature","properties":{"ident":"HJKJ","type":"small_airport","name":"Kawjok Airport","elevation_ft":"1424","continent":"AF","iso_country":"SS","iso_region":"SS-21","municipality":"Kaujok","scheduled_service":"no","gps_code":"HJKJ","keywords":"Kuacjok, Kuajok"},"geometry":{"type":"Point","coordinates":[27.955828,8.279625]}},{"id":"344030","type":"Feature","properties":{"ident":"SS-0024","type":"small_airport","name":"Keew Airstrip","elevation_ft":"1319","continent":"AF","iso_country":"SS","iso_region":"SS-20","municipality":"Keew","scheduled_service":"no","local_code":"HSDD"},"geometry":{"type":"Point","coordinates":[30.63692,9.26371]}},{"id":"344062","type":"Feature","properties":{"ident":"SS-0036","type":"small_airport","name":"Koch Airport","continent":"AF","iso_country":"SS","iso_region":"SS-22","municipality":"Koch","scheduled_service":"no"},"geometry":{"type":"Point","coordinates":[29.98998,8.60289]}},{"id":"344058","type":"Feature","properties":{"ident":"SS-0032","type":"small_airport","name":"Kodok Airport","continent":"AF","iso_country":"SS","iso_region":"SS-23","municipality":"Kodok","scheduled_service":"no"},"geometry":{"type":"Point","coordinates":[32.12014,9.89608]}},{"id":"315284","type":"Feature","properties":{"ident":"SS-0018","type":"small_airport","name":"Kokuro Airport","elevation_ft":"1378","continent":"AF","iso_country":"SS","iso_region":"SS-19","municipality":"Kokuro","scheduled_service":"no"},"geometry":{"type":"Point","coordinates":[35.7116,4.6753]}},{"id":"351469","type":"Feature","properties":{"ident":"SS-0056","type":"small_airport","name":"Kolmarek Airport","continent":"AF","iso_country":"SS","iso_region":"SS-20","municipality":"Kolmarek","scheduled_service":"no"},"geometry":{"type":"Point","coordinates":[31.51511,6.6268]}},{"id":"351466","type":"Feature","properties":{"ident":"SS-0053","type":"small_airport","name":"Kongor Airport","continent":"AF","iso_country":"SS","iso_region":"SS-20","municipality":"Kongor","scheduled_service":"no"},"geometry":{"type":"Point","coordinates":[31.34867,7.14152]}},{"id":"351456","type":"Feature","properties":{"ident":"SS-0045","type":"small_airport","name":"Kuernyang Airport","continent":"AF","iso_country":"SS","iso_region":"SS-20","municipality":"Kuernyang","scheduled_service":"no"},"geometry":{"type":"Point","coordinates":[30.88816,9.32284]}},{"id":"354108","type":"Feature","properties":{"ident":"HJKR","type":"small_airport","name":"Kuron Airstrip","elevation_ft":"1713","continent":"AF","iso_country":"SS","iso_region":"SS-19","municipality":"Kuron","scheduled_service":"no","gps_code":"HJKR","keywords":"Peace Village"},"geometry":{"type":"Point","coordinates":[34.52724,5.714049]}},{"id":"308313","type":"Feature","properties":{"ident":"SS-0015","type":"small_airport","name":"Lankien Airstrip","elevation_ft":"1329","continent":"AF","iso_country":"SS","iso_region":"SS-23","municipality":"Lankien","scheduled_service":"no","gps_code":"HJLK"},"geometry":{"type":"Point","coordinates":[32.063835,8.529374]}},{"id":"351453","type":"Feature","properties":{"ident":"SS-0042","type":"small_airport","name":"Leer Airport","elevation_ft":"1296","continent":"AF","iso_country":"SS","iso_region":"SS-22","municipality":"Leer","scheduled_service":"no"},"geometry":{"type":"Point","coordinates":[30.11517,8.3081]}},{"id":"315282","type":"Feature","properties":{"ident":"SS-0017","type":"small_airport","name":"Lokwor Airport","elevation_ft":"1415","continent":"AF","iso_country":"SS","iso_region":"SS-19","municipality":"Kibbish","scheduled_service":"no","gps_code":"HJLW"},"geometry":{"type":"Point","coordinates":[35.8328,5.288]}},{"id":"344053","type":"Feature","properties":{"ident":"SS-0027","type":"small_airport","name":"Luri Airport","continent":"AF","iso_country":"SS","iso_region":"SS-17","municipality":"Luri","scheduled_service":"no"},"geometry":{"type":"Point","coordinates":[31.39548,4.85299]}},{"id":"351467","type":"Feature","properties":{"ident":"SS-0054","type":"small_airport","name":"Makwar Airport","continent":"AF","iso_country":"SS","iso_region":"SS-20","municipality":"Makwar","scheduled_service":"no"},"geometry":{"type":"Point","coordinates":[31.36751,7.09195]}},{"id":"3248","type":"Feature","properties":{"ident":"HSSM","type":"medium_airport","name":"Malakal Airport","elevation_ft":"1291","continent":"AF","iso_country":"SS","iso_region":"SS-23","municipality":"Malakal","scheduled_service":"yes","gps_code":"HJMK","iata_code":"MAK","wikipedia_link":"https://en.wikipedia.org/wiki/Malakal_Airport","keywords":"HSSM"},"geometry":{"type":"Point","coordinates":[31.652201,9.55897]}},{"id":"351457","type":"Feature","properties":{"ident":"SS-0046","type":"small_airport","name":"Manajang Airport","continent":"AF","iso_country":"SS","iso_region":"SS-20","municipality":"Manajang","scheduled_service":"no"},"geometry":{"type":"Point","coordinates":[30.71316,9.32928]}},{"id":"575121","type":"Feature","properties":{"ident":"SS-0058","type":"small_airport","name":"Mankien Airstrip","elevation_ft":"1302","continent":"AF","iso_country":"SS","iso_region":"SS-22","municipality":"Mankien","scheduled_service":"no"},"geometry":{"type":"Point","coordinates":[29.0835,9.04958]}},{"id":"31622","type":"Feature","properties":{"ident":"HSMD","type":"small_airport","name":"Marida Airport","elevation_ft":"1901","continent":"AF","iso_country":"SS","iso_region":"SS-16","municipality":"Marida","scheduled_service":"no","gps_code":"HJMD","keywords":"HSMD"},"geometry":{"type":"Point","coordinates":[29.443263,4.902851]}},{"id":"344055","type":"Feature","properties":{"ident":"SS-0029","type":"small_airport","name":"Melut Airport","continent":"AF","iso_country":"SS","iso_region":"SS-23","municipality":"Melut","scheduled_service":"no"},"geometry":{"type":"Point","coordinates":[32.26825,10.3342]}},{"id":"308308","type":"Feature","properties":{"ident":"SS-0010","type":"small_airport","name":"Mogok Airstrip","elevation_ft":"1331","continent":"AF","iso_country":"SS","iso_region":"SS-20","scheduled_service":"no","gps_code":"HJMG"},"geometry":{"type":"Point","coordinates":[31.33333,8.413961]}},{"id":"319225","type":"Feature","properties":{"ident":"SS-0019","type":"small_airport","name":"Mundri West Airport","elevation_ft":"1907","continent":"AF","iso_country":"SS","iso_region":"SS-16","municipality":"Mundri West","scheduled_service":"no","gps_code":"HJMI"},"geometry":{"type":"Point","coordinates":[30.346927,5.359401]}},{"id":"319228","type":"Feature","properties":{"ident":"SS-0022","type":"small_airport","name":"Mvolo Airport","elevation_ft":"1609","continent":"AF","iso_country":"SS","iso_region":"SS-16","municipality":"Mvolo","scheduled_service":"no","gps_code":"HJMV"},"geometry":{"type":"Point","coordinates":[29.956666,6.06388]}},{"id":"351459","type":"Feature","properties":{"ident":"SS-0048","type":"small_airport","name":"Nimni Airport","continent":"AF","iso_country":"SS","iso_region":"SS-20","municipality":"Nimni","scheduled_service":"no"},"geometry":{"type":"Point","coordinates":[30.01904,9.31332]}},{"id":"31626","type":"Feature","properties":{"ident":"HSNM","type":"small_airport","name":"Nimule Airport","elevation_ft":"2059","continent":"AF","iso_country":"SS","iso_region":"SS-19","municipality":"Nimule","scheduled_service":"no","gps_code":"HJNM","wikipedia_link":"https://en.wikipedia.org/wiki/Nimule_Airport","keywords":"HSNM"},"geometry":{"type":"Point","coordinates":[32.090278,3.597659]}},{"id":"344066","type":"Feature","properties":{"ident":"SS-0040","type":"small_airport","name":"Nyal Airport","continent":"AF","iso_country":"SS","iso_region":"SS-22","municipality":"Nyal","scheduled_service":"no"},"geometry":{"type":"Point","coordinates":[30.24454,7.72751]}},{"id":"319227","type":"Feature","properties":{"ident":"SS-0021","type":"small_airport","name":"Nzara Airport","elevation_ft":"2057","continent":"AF","iso_country":"SS","iso_region":"SS-16","municipality":"Nzara","scheduled_service":"no","gps_code":"HJNZ"},"geometry":{"type":"Point","coordinates":[28.26757,4.635486]}},{"id":"351470","type":"Feature","properties":{"ident":"SS-0057","type":"small_airport","name":"Padak Airport","elevation_ft":"1398","continent":"AF","iso_country":"SS","iso_region":"SS-18","municipality":"Padak","scheduled_service":"no"},"geometry":{"type":"Point","coordinates":[31.55676,6.4241]}},{"id":"344064","type":"Feature","properties":{"ident":"SS-0038","type":"small_airport","name":"Padeah Airport","continent":"AF","iso_country":"SS","iso_region":"SS-22","municipality":"Padeah","scheduled_service":"no"},"geometry":{"type":"Point","coordinates":[30.18628,8.4094]}},{"id":"351455","type":"Feature","properties":{"ident":"SS-0044","type":"small_airport","name":"Paguir Airport","continent":"AF","iso_country":"SS","iso_region":"SS-20","municipality":"Paguir","scheduled_service":"no"},"geometry":{"type":"Point","coordinates":[30.76653,9.11176]}},{"id":"308302","type":"Feature","properties":{"ident":"SS-0004","type":"small_airport","name":"Pajut Airstrip","elevation_ft":"1352","continent":"AF","iso_country":"SS","iso_region":"SS-20","municipality":"Pajut","scheduled_service":"no","gps_code":"HJPJ","keywords":"Panjut"},"geometry":{"type":"Point","coordinates":[31.690504,7.746592]}},{"id":"351465","type":"Feature","properties":{"ident":"SS-0052","type":"small_airport","name":"Pakuor Airport","continent":"AF","iso_country":"SS","iso_region":"SS-20","municipality":"Pakuor","scheduled_service":"no"},"geometry":{"type":"Point","coordinates":[31.36519,7.12922]}},{"id":"351468","type":"Feature","properties":{"ident":"SS-0055","type":"small_airport","name":"Paliau Airport","continent":"AF","iso_country":"SS","iso_region":"SS-20","municipality":"Paliau","scheduled_service":"no"},"geometry":{"type":"Point","coordinates":[31.36796,6.96466]}},{"id":"300862","type":"Feature","properties":{"ident":"HSFA","type":"medium_airport","name":"Paloich Airport","elevation_ft":"1290","continent":"AF","iso_country":"SS","iso_region":"SS-23","municipality":"Higleig","scheduled_service":"no","gps_code":"HJPH","wikipedia_link":"https://en.wikipedia.org/wiki/Paloich_Airport","keywords":"HSFA, Palouge, DPOC"},"geometry":{"type":"Point","coordinates":[32.500556,10.529167]}},{"id":"575130","type":"Feature","properties":{"ident":"SS-0063","type":"small_airport","name":"Panliet Airstrip","elevation_ft":"1342","continent":"AF","iso_country":"SS","iso_region":"SS-21","municipality":"Kwoit","scheduled_service":"no"},"geometry":{"type":"Point","coordinates":[28.2321,8.84716]}},{"id":"344067","type":"Feature","properties":{"ident":"SS-0041","type":"small_airport","name":"Panyagor Airport","continent":"AF","iso_country":"SS","iso_region":"SS-20","municipality":"Mabior","scheduled_service":"no","gps_code":"HJPG"},"geometry":{"type":"Point","coordinates":[31.409011,7.163788]}},{"id":"308314","type":"Feature","properties":{"ident":"SS-0016","type":"small_airport","name":"Panyagor Airstrip","continent":"AF","iso_country":"SS","iso_region":"SS-20","scheduled_service":"no"},"geometry":{"type":"Point","coordinates":[31.422261,7.329981]}},{"id":"308311","type":"Feature","properties":{"ident":"SS-0013","type":"small_airport","name":"Pathai Airstrip","continent":"AF","iso_country":"SS","iso_region":"SS-20","scheduled_service":"no"},"geometry":{"type":"Point","coordinates":[31.838636,8.069767]}},{"id":"344057","type":"Feature","properties":{"ident":"SS-0031","type":"small_airport","name":"Payuer Airport","continent":"AF","iso_country":"SS","iso_region":"SS-23","municipality":"Payuer","scheduled_service":"no"},"geometry":{"type":"Point","coordinates":[32.28504,10.07147]}},{"id":"299485","type":"Feature","properties":{"ident":"HSPI","type":"small_airport","name":"Pibor Airport","elevation_ft":"1377","continent":"AF","iso_country":"SS","iso_region":"SS-20","municipality":"Pibor Post","scheduled_service":"no","gps_code":"HJPB","wikipedia_link":"https://en.wikipedia.org/wiki/Pibor_Airport","keywords":"HSPI"},"geometry":{"type":"Point","coordinates":[33.125904,6.798561]}},{"id":"308305","type":"Feature","properties":{"ident":"SS-0007","type":"small_airport","name":"Pieri Airstrip","elevation_ft":"1347","continent":"AF","iso_country":"SS","iso_region":"SS-23","scheduled_service":"no","gps_code":"HJPR"},"geometry":{"type":"Point","coordinates":[32.028816,8.04048]}},{"id":"31627","type":"Feature","properties":{"ident":"HSPA","type":"small_airport","name":"Pochalla Airport","elevation_ft":"2000","continent":"AF","iso_country":"SS","iso_region":"SS-20","municipality":"Pochalla","scheduled_service":"no","gps_code":"HJPO","wikipedia_link":"https://en.wikipedia.org/wiki/Pochalla_Airport","keywords":"HSPA, Pachella"},"geometry":{"type":"Point","coordinates":[34.097359,7.178563]}},{"id":"344054","type":"Feature","properties":{"ident":"SS-0028","type":"small_airport","name":"Pulmok Airport","continent":"AF","iso_country":"SS","iso_region":"SS-22","municipality":"Pulmok","scheduled_service":"no"},"geometry":{"type":"Point","coordinates":[30.41285,7.3367]}},{"id":"308312","type":"Feature","properties":{"ident":"SS-0014","type":"small_airport","name":"Pulturuk Airstrip","elevation_ft":"1328","continent":"AF","iso_country":"SS","iso_region":"SS-23","municipality":"Pulturuk","scheduled_service":"no","gps_code":"HJPU"},"geometry":{"type":"Point","coordinates":[31.949819,8.595353]}},{"id":"31628","type":"Feature","properties":{"ident":"HSRJ","type":"small_airport","name":"Raga Airport","elevation_ft":"1788","continent":"AF","iso_country":"SS","iso_region":"SS-14","municipality":"Raga","scheduled_service":"no","gps_code":"HSRJ","wikipedia_link":"https://en.wikipedia.org/wiki/Raga_Airport"},"geometry":{"type":"Point","coordinates":[25.681101,8.46111]}},{"id":"299486","type":"Feature","properties":{"ident":"HSRN","type":"small_airport","name":"Renk Airport","elevation_ft":"1278","continent":"AF","iso_country":"SS","iso_region":"SS-23","municipality":"Renk","scheduled_service":"no","gps_code":"HSRN","wikipedia_link":"https://en.wikipedia.org/wiki/Renk_Airport","keywords":"Renk City"},"geometry":{"type":"Point","coordinates":[32.81045,11.644773]}},{"id":"351461","type":"Feature","properties":{"ident":"SS-0050","type":"small_airport","name":"Riangther Airport","continent":"AF","iso_country":"SS","iso_region":"SS-22","municipality":"Riangther","scheduled_service":"no"},"geometry":{"type":"Point","coordinates":[30.15421,9.70275]}},{"id":"31623","type":"Feature","properties":{"ident":"HSMK","type":"small_airport","name":"Rumbek Airport","elevation_ft":"1378","continent":"AF","iso_country":"SS","iso_region":"SS-18","municipality":"Rumbek","scheduled_service":"yes","gps_code":"HJRB","iata_code":"RBX","wikipedia_link":"https://en.wikipedia.org/wiki/Rumbek_Airport","keywords":"HSMK"},"geometry":{"type":"Point","coordinates":[29.669073,6.831074]}},{"id":"344060","type":"Feature","properties":{"ident":"SS-0034","type":"small_airport","name":"Thar Jath Airport","continent":"AF","iso_country":"SS","iso_region":"SS-22","municipality":"Duar","scheduled_service":"no"},"geometry":{"type":"Point","coordinates":[30.13077,8.78311]}},{"id":"351458","type":"Feature","properties":{"ident":"SS-0047","type":"small_airport","name":"Thokchak Airport","continent":"AF","iso_country":"SS","iso_region":"SS-20","municipality":"Thokchak","scheduled_service":"no"},"geometry":{"type":"Point","coordinates":[30.74859,9.17726]}},{"id":"344065","type":"Feature","properties":{"ident":"SS-0039","type":"small_airport","name":"Thornyor Airfield","continent":"AF","iso_country":"SS","iso_region":"SS-22","municipality":"Thar Cheng","scheduled_service":"no"},"geometry":{"type":"Point","coordinates":[30.22138,8.22396]}},{"id":"344059","type":"Feature","properties":{"ident":"SS-0033","type":"small_airport","name":"Tondiak Airport","continent":"AF","iso_country":"SS","iso_region":"SS-20","municipality":"Tondiak","scheduled_service":"no"},"geometry":{"type":"Point","coordinates":[31.15106,9.39786]}},{"id":"31630","type":"Feature","properties":{"ident":"HSTO","type":"small_airport","name":"Tong Airport","elevation_ft":"1413","continent":"AF","iso_country":"SS","iso_region":"SS-21","municipality":"Tong","scheduled_service":"no","gps_code":"HSTO"},"geometry":{"type":"Point","coordinates":[28.983,7.267]}},{"id":"31631","type":"Feature","properties":{"ident":"HSTR","type":"small_airport","name":"Torit Airport","elevation_ft":"2050","continent":"AF","iso_country":"SS","iso_region":"SS-19","municipality":"Torit","scheduled_service":"no","gps_code":"HJTR","wikipedia_link":"https://en.wikipedia.org/wiki/Torit_Airport","keywords":"HSTR"},"geometry":{"type":"Point","coordinates":[32.575707,4.416769]}},{"id":"344031","type":"Feature","properties":{"ident":"SS-0025","type":"small_airport","name":"Tuai Bur Airstrip","elevation_ft":"1316","continent":"AF","iso_country":"SS","iso_region":"SS-20","municipality":"Tuai Bur","scheduled_service":"no"},"geometry":{"type":"Point","coordinates":[30.66912,9.39234]}},{"id":"31632","type":"Feature","properties":{"ident":"HSTU","type":"small_airport","name":"Tumbura Airport","elevation_ft":"2230","continent":"AF","iso_country":"SS","iso_region":"SS-16","municipality":"Tumbura","scheduled_service":"no","gps_code":"HJTB","wikipedia_link":"https://en.wikipedia.org/wiki/Tumbura_Airport","keywords":"HSTU"},"geometry":{"type":"Point","coordinates":[27.473212,5.602137]}},{"id":"575128","type":"Feature","properties":{"ident":"SS-0061","type":"small_airport","name":"Turalei Airstrip","elevation_ft":"1329","continent":"AF","iso_country":"SS","iso_region":"SS-21","municipality":"Turalei","scheduled_service":"no"},"geometry":{"type":"Point","coordinates":[28.4359,9.08177]}},{"id":"308307","type":"Feature","properties":{"ident":"SS-0009","type":"small_airport","name":"Turuk Airstrip","continent":"AF","iso_country":"SS","iso_region":"SS-23","scheduled_service":"no"},"geometry":{"type":"Point","coordinates":[31.967554,7.988008]}},{"id":"308304","type":"Feature","properties":{"ident":"SS-0006","type":"small_airport","name":"Waat Airstrip","elevation_ft":"1329","continent":"AF","iso_country":"SS","iso_region":"SS-23","municipality":"Waat","scheduled_service":"no","gps_code":"HJWT"},"geometry":{"type":"Point","coordinates":[32.152873,8.189647]}},{"id":"30553","type":"Feature","properties":{"ident":"HSWW","type":"medium_airport","name":"Wau Airport","elevation_ft":"1529","continent":"AF","iso_country":"SS","iso_region":"SS-14","municipality":"Wau","scheduled_service":"yes","gps_code":"HJWW","iata_code":"WUU","wikipedia_link":"https://en.wikipedia.org/wiki/Wau_Airport"},"geometry":{"type":"Point","coordinates":[27.975,7.72583]}},{"id":"575127","type":"Feature","properties":{"ident":"SS-0060","type":"heliport","name":"Worldvision Field Office Heliport","elevation_ft":"1332","continent":"AF","iso_country":"SS","iso_region":"SS-21","municipality":"Turalei","scheduled_service":"no"},"geometry":{"type":"Point","coordinates":[28.41241,9.06958]}},{"id":"575129","type":"Feature","properties":{"ident":"SS-0062","type":"small_airport","name":"Wunrock Airport","elevation_ft":"1335","continent":"AF","iso_country":"SS","iso_region":"SS-21","municipality":"Wunrock","scheduled_service":"no"},"geometry":{"type":"Point","coordinates":[28.29813,8.97826]}},{"id":"31633","type":"Feature","properties":{"ident":"HSYA","type":"small_airport","name":"Yambio Airport","elevation_ft":"2375","continent":"AF","iso_country":"SS","iso_region":"SS-16","municipality":"Yambio","scheduled_service":"no","gps_code":"HJYB","wikipedia_link":"https://en.wikipedia.org/wiki/Yambio_Airport","keywords":"HSYA"},"geometry":{"type":"Point","coordinates":[28.424106,4.567066]}},{"id":"31634","type":"Feature","properties":{"ident":"HSYE","type":"small_airport","name":"Yei Airport","elevation_ft":"2000","continent":"AF","iso_country":"SS","iso_region":"SS-17","municipality":"Yei","scheduled_service":"no","gps_code":"HJYE","wikipedia_link":"https://en.wikipedia.org/wiki/Yei_Airport","keywords":"HSYE"},"geometry":{"type":"Point","coordinates":[30.731817,4.128965]}},{"id":"31635","type":"Feature","properties":{"ident":"HSYL","type":"small_airport","name":"Yirol Airport","elevation_ft":"1424","continent":"AF","iso_country":"SS","iso_region":"SS-18","municipality":"Yirol","scheduled_service":"no","gps_code":"HJYL","wikipedia_link":"https://en.wikipedia.org/wiki/Yirol_Airport","keywords":"HSYL"},"geometry":{"type":"Point","coordinates":[30.509892,6.561571]}},{"id":"308306","type":"Feature","properties":{"ident":"SS-0008","type":"small_airport","name":"Yuai Airstrip","elevation_ft":"1341","continent":"AF","iso_country":"SS","iso_region":"SS-23","municipality":"Yuai","scheduled_service":"no","gps_code":"HJYU"},"geometry":{"type":"Point","coordinates":[31.888386,7.904872]}}]}