{"type":"FeatureCollection","features":[{"id":"540694","type":"Feature","properties":{"ident":"SY-0026","type":"small_airport","name":"...at Tanf","continent":"AS","iso_country":"SY","iso_region":"SY-U-A","scheduled_service":"no"},"geometry":{"type":"Point","coordinates":[38.642435,33.532953]}},{"id":"6339","type":"Feature","properties":{"ident":"OS57","type":"medium_airport","name":"Abu ad Duhur Air Base","elevation_ft":"846","continent":"AS","iso_country":"SY","iso_region":"SY-HL","municipality":"Abu ad Duhur","scheduled_service":"no","keywords":"OS57, Abu ad Duhor"},"geometry":{"type":"Point","coordinates":[37.104198,35.732201]}},{"id":"507476","type":"Feature","properties":{"ident":"SY-0020","type":"small_airport","name":"Abu Hajar Rumeilan","continent":"AS","iso_country":"SY","iso_region":"SY-U-A","scheduled_service":"no"},"geometry":{"type":"Point","coordinates":[41.997737,36.898207]}},{"id":"512005","type":"Feature","properties":{"ident":"SY-0027","type":"small_airport","name":"Al Futasiyah","elevation_ft":"16","continent":"AS","iso_country":"SY","iso_region":"SY-TA","municipality":"Al Fuţāsīyah","scheduled_service":"no","keywords":"الفطاسية"},"geometry":{"type":"Point","coordinates":[35.915108,34.80908]}},{"id":"6352","type":"Feature","properties":{"ident":"OS70","type":"medium_airport","name":"Al Qusayr Air Base","elevation_ft":"1768","continent":"AS","iso_country":"SY","iso_region":"SY-HI","municipality":"Al-Qusayr","scheduled_service":"no","keywords":"OS70, القصير"},"geometry":{"type":"Point","coordinates":[36.5728,34.569099]}},{"id":"314636","type":"Feature","properties":{"ident":"SOR","type":"small_airport","name":"Al Thaurah Airport","elevation_ft":"1278","continent":"AS","iso_country":"SY","iso_region":"SY-DY","municipality":"T2","scheduled_service":"no","iata_code":"SOR"},"geometry":{"type":"Point","coordinates":[40.15256,34.390394]}},{"id":"520539","type":"Feature","properties":{"ident":"SY-0030","type":"heliport","name":"al-Hasakah","continent":"AS","iso_country":"SY","iso_region":"SY-HA","scheduled_service":"no"},"geometry":{"type":"Point","coordinates":[40.587208,36.590992]}},{"id":"349454","type":"Feature","properties":{"ident":"SY-0010","type":"small_airport","name":"Al-Mayadin Airport","elevation_ft":"755","continent":"AS","iso_country":"SY","iso_region":"SY-DY","municipality":"Al-Mayadin","scheduled_service":"no"},"geometry":{"type":"Point","coordinates":[40.42123,34.99724]}},{"id":"349450","type":"Feature","properties":{"ident":"SY-0008","type":"small_airport","name":"Al-Muhaddad Agricultural Airport","elevation_ft":"1119","continent":"AS","iso_country":"SY","iso_region":"SY-RA","municipality":"Dibsi 'Afnan","scheduled_service":"no"},"geometry":{"type":"Point","coordinates":[38.284836,35.838829]}},{"id":"355287","type":"Feature","properties":{"ident":"SY-0014","type":"small_airport","name":"Al-Tahaluf Airport","continent":"AS","iso_country":"SY","iso_region":"SY-HA","municipality":"Ash-Shaddadi","scheduled_service":"no"},"geometry":{"type":"Point","coordinates":[40.732825,36.040253]}},{"id":"342023","type":"Feature","properties":{"ident":"SY-0006","type":"heliport","name":"Aleppo Air Defense Base Helipad","elevation_ft":"1542","continent":"AS","iso_country":"SY","iso_region":"SY-HL","municipality":"Aleppo","scheduled_service":"no"},"geometry":{"type":"Point","coordinates":[37.0819,36.2236]}},{"id":"5302","type":"Feature","properties":{"ident":"OSAP","type":"medium_airport","name":"Aleppo International Airport","elevation_ft":"1276","continent":"AS","iso_country":"SY","iso_region":"SY-HL","municipality":"Aleppo","scheduled_service":"yes","icao_code":"OSAP","iata_code":"ALP","gps_code":"OSAP","home_link":"http://www.aleppo-airport.com/en/","wikipedia_link":"https://en.wikipedia.org/wiki/Aleppo_International_Airport","keywords":"مطار حلب الدولي"},"geometry":{"type":"Point","coordinates":[37.2244,36.180698]}},{"id":"342027","type":"Feature","properties":{"ident":"SY-0007","type":"heliport","name":"Aleppo Municipal Council Helipad","elevation_ft":"1572","continent":"AS","iso_country":"SY","iso_region":"SY-HL","municipality":"Aleppo","scheduled_service":"no"},"geometry":{"type":"Point","coordinates":[37.1463,36.203]}},{"id":"6346","type":"Feature","properties":{"ident":"OS64","type":"medium_airport","name":"An Nasiriyah Air Base","elevation_ft":"2727","continent":"AS","iso_country":"SY","iso_region":"SY-DI","scheduled_service":"no","keywords":"OS64"},"geometry":{"type":"Point","coordinates":[36.8666,33.918999]}},{"id":"6342","type":"Feature","properties":{"ident":"OS60","type":"small_airport","name":"As Suwayda West Air Base","elevation_ft":"2460","continent":"AS","iso_country":"SY","iso_region":"SY-SU","municipality":"As Suwayda","scheduled_service":"no","keywords":"OS60"},"geometry":{"type":"Point","coordinates":[36.412899,32.7052]}},{"id":"349455","type":"Feature","properties":{"ident":"SY-0011","type":"small_airport","name":"As-Saliniyah Airport","elevation_ft":"747","continent":"AS","iso_country":"SY","iso_region":"SY-DY","municipality":"As-Saliniyah","scheduled_service":"no"},"geometry":{"type":"Point","coordinates":[40.71139,34.73309]}},{"id":"519566","type":"Feature","properties":{"ident":"SY-0029","type":"small_airport","name":"Ayyash","continent":"AS","iso_country":"SY","iso_region":"SY-U-A","scheduled_service":"no"},"geometry":{"type":"Point","coordinates":[40.042355,35.409112]}},{"id":"5303","type":"Feature","properties":{"ident":"OSDI","type":"large_airport","name":"Damascus International Airport","elevation_ft":"2020","continent":"AS","iso_country":"SY","iso_region":"SY-DI","municipality":"Damascus","scheduled_service":"yes","icao_code":"OSDI","iata_code":"DAM","gps_code":"OSDI","wikipedia_link":"https://en.wikipedia.org/wiki/Damascus_International_Airport","keywords":"مطار دمشق الدولي"},"geometry":{"type":"Point","coordinates":[36.515598,33.411499]}},{"id":"507962","type":"Feature","properties":{"ident":"SY-0021","type":"small_airport","name":"Darbasiyah Airstrip","continent":"AS","iso_country":"SY","iso_region":"SY-HA","municipality":"Ghanamiyah","scheduled_service":"no"},"geometry":{"type":"Point","coordinates":[40.630511,37.036099]}},{"id":"5304","type":"Feature","properties":{"ident":"OSDZ","type":"medium_airport","name":"Deir ez-Zor Airport","elevation_ft":"700","continent":"AS","iso_country":"SY","iso_region":"SY-DY","municipality":"Deir ez-Zor","scheduled_service":"no","icao_code":"OSDZ","iata_code":"DEZ","gps_code":"OSDZ","wikipedia_link":"https://en.wikipedia.org/wiki/Deir_ez-Zor_Airport","keywords":"Al Jafrah Airport, مطار دير الزور"},"geometry":{"type":"Point","coordinates":[40.175999,35.2854]}},{"id":"511968","type":"Feature","properties":{"ident":"SY-0023","type":"small_airport","name":"Dimas Airport","elevation_ft":"2871","continent":"AS","iso_country":"SY","iso_region":"SY-RD","scheduled_service":"no"},"geometry":{"type":"Point","coordinates":[36.174996,33.559254]}},{"id":"511970","type":"Feature","properties":{"ident":"SY-0024","type":"heliport","name":"Dimass Heliport","elevation_ft":"4281","continent":"AS","iso_country":"SY","iso_region":"SY-RD","municipality":"Dīmās","scheduled_service":"no"},"geometry":{"type":"Point","coordinates":[36.089629,33.605427]}},{"id":"6343","type":"Feature","properties":{"ident":"OS61","type":"small_airport","name":"Dumayr Air Base","elevation_ft":"2060","continent":"AS","iso_country":"SY","iso_region":"SY-DI","scheduled_service":"no","gps_code":"OS61","local_code":"OS61"},"geometry":{"type":"Point","coordinates":[36.749001,33.6096]}},{"id":"349679","type":"Feature","properties":{"ident":"SY-0012","type":"heliport","name":"El Lani Borderpost Helipad","continent":"AS","iso_country":"SY","iso_region":"SY-ID","municipality":"El Lani","scheduled_service":"no"},"geometry":{"type":"Point","coordinates":[36.369263,36.165839]}},{"id":"598973","type":"Feature","properties":{"ident":"SY-0037","type":"small_airport","name":"Emergency Airstrip","continent":"AS","iso_country":"SY","iso_region":"SY-U-A","scheduled_service":"no"},"geometry":{"type":"Point","coordinates":[36.494286,32.777371]}},{"id":"349453","type":"Feature","properties":{"ident":"SY-0009","type":"small_airport","name":"Green Village Airport","elevation_ft":"676","continent":"AS","iso_country":"SY","iso_region":"SY-DY","municipality":"Green Village","scheduled_service":"no"},"geometry":{"type":"Point","coordinates":[40.58405,35.04855]}},{"id":"6340","type":"Feature","properties":{"ident":"OS58","type":"small_airport","name":"Hamah Air Base","elevation_ft":"1014","continent":"AS","iso_country":"SY","iso_region":"SY-HM","scheduled_service":"no","gps_code":"OS58","local_code":"OS58"},"geometry":{"type":"Point","coordinates":[36.711201,35.118198]}},{"id":"5306","type":"Feature","properties":{"ident":"OSLK","type":"medium_airport","name":"Hmeimim Air Base","elevation_ft":"157","continent":"AS","iso_country":"SY","iso_region":"SY-LA","municipality":"Latakia","scheduled_service":"no","icao_code":"OSLK","iata_code":"LTK","gps_code":"OSLK","wikipedia_link":"https://en.wikipedia.org/wiki/Bassel_Al-Assad_International_Airport","keywords":"مطار الشهيد باسل الأسد الدولي"},"geometry":{"type":"Point","coordinates":[35.9487,35.4011]}},{"id":"565972","type":"Feature","properties":{"ident":"SY-0033","type":"heliport","name":"Istamo Heliport","continent":"AS","iso_country":"SY","iso_region":"SY-LA","municipality":"Istamo","scheduled_service":"no"},"geometry":{"type":"Point","coordinates":[35.91913,35.470253]}},{"id":"540779","type":"Feature","properties":{"ident":"SY-0032","type":"small_airport","name":"Jabal Ghoul","continent":"AS","iso_country":"SY","iso_region":"SY-U-A","scheduled_service":"no"},"geometry":{"type":"Point","coordinates":[40.510626,36.707995]}},{"id":"6344","type":"Feature","properties":{"ident":"OS62","type":"small_airport","name":"Jirah Air Base","elevation_ft":"1145","continent":"AS","iso_country":"SY","iso_region":"SY-HL","municipality":"Al Mahdum","scheduled_service":"no","gps_code":"OS62","local_code":"OS62"},"geometry":{"type":"Point","coordinates":[37.936501,36.096699]}},{"id":"6351","type":"Feature","properties":{"ident":"OS69","type":"medium_airport","name":"Khalkhalah Air Base","elevation_ft":"2310","continent":"AS","iso_country":"SY","iso_region":"SY-SU","municipality":"Buraq","scheduled_service":"no","keywords":"OS69"},"geometry":{"type":"Point","coordinates":[36.558208,33.077301]}},{"id":"507474","type":"Feature","properties":{"ident":"SY-0018","type":"small_airport","name":"Malikiyah","continent":"AS","iso_country":"SY","iso_region":"SY-U-A","scheduled_service":"no"},"geometry":{"type":"Point","coordinates":[42.2321,37.185815]}},{"id":"309976","type":"Feature","properties":{"ident":"SY-0003","type":"heliport","name":"Marj al-Sultan Heliport (North)","elevation_ft":"2038","continent":"AS","iso_country":"SY","iso_region":"SY-RD","municipality":"Marj al-Sultan","scheduled_service":"no"},"geometry":{"type":"Point","coordinates":[36.4671,33.50026]}},{"id":"309977","type":"Feature","properties":{"ident":"SY-0004","type":"heliport","name":"Marj al-Sultan Heliport (South)","elevation_ft":"2037","continent":"AS","iso_country":"SY","iso_region":"SY-RD","municipality":"Marj al-Sultan","scheduled_service":"no"},"geometry":{"type":"Point","coordinates":[36.475288,33.487116]}},{"id":"6345","type":"Feature","properties":{"ident":"OS63","type":"small_airport","name":"Marj Ruhayyil Air Base","elevation_ft":"2190","continent":"AS","iso_country":"SY","iso_region":"SY-DI","municipality":"Marj Ruhayyil","scheduled_service":"no","gps_code":"OS63","local_code":"OS63"},"geometry":{"type":"Point","coordinates":[36.457401,33.286499]}},{"id":"6349","type":"Feature","properties":{"ident":"OS67","type":"small_airport","name":"Mezzeh Airport","elevation_ft":"2407","continent":"AS","iso_country":"SY","iso_region":"SY-RD","municipality":"Mezzeh","scheduled_service":"no","gps_code":"OS67","local_code":"OS67","wikipedia_link":"https://en.wikipedia.org/wiki/Mezzeh_Military_Airport"},"geometry":{"type":"Point","coordinates":[36.2234,33.4775]}},{"id":"6353","type":"Feature","properties":{"ident":"OS71","type":"small_airport","name":"Minaq Air Base","elevation_ft":"1613","continent":"AS","iso_country":"SY","iso_region":"SY-HL","municipality":"Minaq","scheduled_service":"no","wikipedia_link":"https://en.wikipedia.org/wiki/Menagh_Military_Airbase","keywords":"OS71"},"geometry":{"type":"Point","coordinates":[37.0415,36.521599]}},{"id":"350783","type":"Feature","properties":{"ident":"SY-0013","type":"small_airport","name":"Murshid Sarhan Agricultural Airport","elevation_ft":"1079","continent":"AS","iso_country":"SY","iso_region":"SY-ID","municipality":"Ma'arrat Misrin","scheduled_service":"no"},"geometry":{"type":"Point","coordinates":[36.68491,36.03552]}},{"id":"339013","type":"Feature","properties":{"ident":"SY-0005","type":"heliport","name":"Nayrab Military Heliport","elevation_ft":"1276","continent":"AS","iso_country":"SY","iso_region":"SY-HL","municipality":"Aleppo","scheduled_service":"no"},"geometry":{"type":"Point","coordinates":[37.22041,36.1787]}},{"id":"507436","type":"Feature","properties":{"ident":"SY-0016","type":"small_airport","name":"Omar","continent":"AS","iso_country":"SY","iso_region":"SY-U-A","scheduled_service":"no"},"geometry":{"type":"Point","coordinates":[40.601932,35.083835]}},{"id":"5307","type":"Feature","properties":{"ident":"OSPR","type":"medium_airport","name":"Palmyra Airport","elevation_ft":"1322","continent":"AS","iso_country":"SY","iso_region":"SY-HI","municipality":"Tadmur","scheduled_service":"no","icao_code":"OSPR","iata_code":"PMS","gps_code":"OSPR","wikipedia_link":"https://en.wikipedia.org/wiki/Palmyra_Airport"},"geometry":{"type":"Point","coordinates":[38.316898,34.5574]}},{"id":"309975","type":"Feature","properties":{"ident":"SY-0002","type":"heliport","name":"Qabr al-Sitt Heliport","elevation_ft":"2148","continent":"AS","iso_country":"SY","iso_region":"SY-RD","municipality":"Beit Sahem","scheduled_service":"no"},"geometry":{"type":"Point","coordinates":[36.3577,33.45873]}},{"id":"5305","type":"Feature","properties":{"ident":"OSKL","type":"medium_airport","name":"Qamishli Airport","elevation_ft":"1480","continent":"AS","iso_country":"SY","iso_region":"SY-HA","municipality":"Qamishly","scheduled_service":"yes","icao_code":"OSKL","iata_code":"KAC","gps_code":"OSKL","wikipedia_link":"https://en.wikipedia.org/wiki/Qamishli_Airport","keywords":"مطار القامشلي‎, Kamishly"},"geometry":{"type":"Point","coordinates":[41.191399,37.020599]}},{"id":"511971","type":"Feature","properties":{"ident":"SY-0025","type":"heliport","name":"Qudsaya","elevation_ft":"2844","continent":"AS","iso_country":"SY","iso_region":"SY-RD","scheduled_service":"no"},"geometry":{"type":"Point","coordinates":[36.184114,33.553016]}},{"id":"507475","type":"Feature","properties":{"ident":"SY-0019","type":"small_airport","name":"Rahiba Airport","elevation_ft":"1640","continent":"AS","iso_country":"SY","iso_region":"SY-RD","municipality":"Ar Ruhaybah","scheduled_service":"no","keywords":"مطار الرحيبة"},"geometry":{"type":"Point","coordinates":[42.084018,37.115865]}},{"id":"6348","type":"Feature","properties":{"ident":"OS66","type":"small_airport","name":"Rasm Al-Abboud Air Base","elevation_ft":"1207","continent":"AS","iso_country":"SY","iso_region":"SY-HL","municipality":"Kuweires Sharqi","scheduled_service":"no","gps_code":"OS66","local_code":"OS66","keywords":"Kuweires, Rasin El Abboud"},"geometry":{"type":"Point","coordinates":[37.583199,36.187099]}},{"id":"6350","type":"Feature","properties":{"ident":"OS68","type":"small_airport","name":"Saiqal Air Base","elevation_ft":"2300","continent":"AS","iso_country":"SY","iso_region":"SY-DI","municipality":"Saiqal","scheduled_service":"no","gps_code":"OS68","local_code":"OS68","keywords":"Sayqal"},"geometry":{"type":"Point","coordinates":[37.213902,33.6824]}},{"id":"6347","type":"Feature","properties":{"ident":"OS65","type":"small_airport","name":"Shayrat Air Base","elevation_ft":"2644","continent":"AS","iso_country":"SY","iso_region":"SY-HI","municipality":"Shayrat","scheduled_service":"no","gps_code":"OS65","local_code":"OS65","wikipedia_link":"https://en.wikipedia.org/wiki/Shayrat_Air_Base"},"geometry":{"type":"Point","coordinates":[36.909004,34.490299]}},{"id":"571086","type":"Feature","properties":{"ident":"SY-0034","type":"small_airport","name":"T3","continent":"AS","iso_country":"SY","iso_region":"SY-U-A","scheduled_service":"no"},"geometry":{"type":"Point","coordinates":[38.733823,34.528179]}},{"id":"35317","type":"Feature","properties":{"ident":"SY-0001","type":"heliport","name":"Taftanaz Airbase","elevation_ft":"1031","continent":"AS","iso_country":"SY","iso_region":"SY-ID","municipality":"Taftanaz","scheduled_service":"no","wikipedia_link":"https://en.wikipedia.org/wiki/Taftanaz_Military_Airbase","keywords":"Afis Air Base"},"geometry":{"type":"Point","coordinates":[36.7831,35.972099]}},{"id":"507473","type":"Feature","properties":{"ident":"SY-0017","type":"small_airport","name":"Tall Hadi","continent":"AS","iso_country":"SY","iso_region":"SY-U-A","scheduled_service":"no"},"geometry":{"type":"Point","coordinates":[41.828522,36.891914]}},{"id":"355288","type":"Feature","properties":{"ident":"SY-0015","type":"heliport","name":"Tarek Heliport","continent":"AS","iso_country":"SY","iso_region":"SY-DY","municipality":"Al-Bukamal","scheduled_service":"no"},"geometry":{"type":"Point","coordinates":[40.913862,34.434067]}},{"id":"507976","type":"Feature","properties":{"ident":"SY-0022","type":"small_airport","name":"Tel Qulib","continent":"AS","iso_country":"SY","iso_region":"SY-U-A","scheduled_service":"no"},"geometry":{"type":"Point","coordinates":[36.660739,32.647004]}},{"id":"540777","type":"Feature","properties":{"ident":"SY-0031","type":"small_airport","name":"Tell Beydar","continent":"AS","iso_country":"SY","iso_region":"SY-U-A","scheduled_service":"no"},"geometry":{"type":"Point","coordinates":[40.570879,36.744043]}},{"id":"6354","type":"Feature","properties":{"ident":"OS72","type":"small_airport","name":"Tiyas Air Base","elevation_ft":"1805","continent":"AS","iso_country":"SY","iso_region":"SY-HI","municipality":"Tiyas","scheduled_service":"no","keywords":"OS72"},"geometry":{"type":"Point","coordinates":[37.629902,34.522598]}}]}