{"type":"FeatureCollection","features":[{"id":"29704","type":"Feature","properties":{"ident":"FDBS","type":"small_airport","name":"Big Bend Sugar E Airport","elevation_ft":"541","continent":"AF","iso_country":"SZ","iso_region":"SZ-LU","municipality":"Big Bend","scheduled_service":"no","gps_code":"FDBS"},"geometry":{"type":"Point","coordinates":[31.92,-26.836111]}},{"id":"308033","type":"Feature","properties":{"ident":"FDSK","type":"large_airport","name":"King Mswati III International Airport","elevation_ft":"1092","continent":"AF","iso_country":"SZ","iso_region":"SZ-LU","municipality":"Mpaka","scheduled_service":"yes","gps_code":"FDSK","iata_code":"SHO","home_link":"http://www.eswacaa.co.sz/airports/kingmswatiIII/","wikipedia_link":"https://en.wikipedia.org/wiki/King_Mswati_III_International_Airport","keywords":"Sikhuphe International Airport"},"geometry":{"type":"Point","coordinates":[31.716944,-26.358611]}},{"id":"41311","type":"Feature","properties":{"ident":"FDKB","type":"small_airport","name":"Kubuta Airport","elevation_ft":"1555","continent":"AF","iso_country":"SZ","iso_region":"SZ-SH","municipality":"Kubuta B","scheduled_service":"no","gps_code":"FDKB","wikipedia_link":"https://en.wikipedia.org/wiki/Kubuta_Airfield"},"geometry":{"type":"Point","coordinates":[31.488889,-26.881528]}},{"id":"41310","type":"Feature","properties":{"ident":"FDGL","type":"small_airport","name":"Lavumisa Airport","elevation_ft":"563","continent":"AF","iso_country":"SZ","iso_region":"SZ-SH","municipality":"Lavumisa","scheduled_service":"no","gps_code":"FDGL"},"geometry":{"type":"Point","coordinates":[31.889799,-27.320101]}},{"id":"31105","type":"Feature","properties":{"ident":"FDBM","type":"small_airport","name":"Matata Airport","elevation_ft":"500","continent":"AF","iso_country":"SZ","iso_region":"SZ-LU","municipality":"Big Bend","scheduled_service":"no","gps_code":"FDBM"},"geometry":{"type":"Point","coordinates":[31.933001,-26.867001]}},{"id":"2872","type":"Feature","properties":{"ident":"FDMS","type":"medium_airport","name":"Matsapha Airport","elevation_ft":"2075","continent":"AF","iso_country":"SZ","iso_region":"SZ-MA","municipality":"Manzini","scheduled_service":"no","gps_code":"FDMS","iata_code":"MTS","home_link":"http://www.eswacaa.co.sz/airports/matsapha/index.php","wikipedia_link":"https://en.wikipedia.org/wiki/Matsapha_Airport"},"geometry":{"type":"Point","coordinates":[31.307501,-26.528999]}},{"id":"550112","type":"Feature","properties":{"ident":"SZ-0001","type":"heliport","name":"Mbabane Hospital Helipad","elevation_ft":"3865","continent":"AF","iso_country":"SZ","iso_region":"SZ-HH","municipality":"Mbabane","scheduled_service":"no"},"geometry":{"type":"Point","coordinates":[31.143942,-26.330818]}},{"id":"30135","type":"Feature","properties":{"ident":"FDMH","type":"small_airport","name":"Mhlume Airport","elevation_ft":"926","continent":"AF","iso_country":"SZ","iso_region":"SZ-LU","municipality":"Mhlume","scheduled_service":"no","gps_code":"FDMH","wikipedia_link":"https://en.wikipedia.org/wiki/Mhlume_Airfield"},"geometry":{"type":"Point","coordinates":[31.809999,-26.0242]}},{"id":"30185","type":"Feature","properties":{"ident":"FDNH","type":"small_airport","name":"Nhlangano Airport","elevation_ft":"3522","continent":"AF","iso_country":"SZ","iso_region":"SZ-SH","municipality":"Nhlangano","scheduled_service":"no","gps_code":"FDNH","wikipedia_link":"https://en.wikipedia.org/wiki/Nhlangano_Airfield"},"geometry":{"type":"Point","coordinates":[31.212118,-27.119494]}},{"id":"31108","type":"Feature","properties":{"ident":"FDNS","type":"small_airport","name":"Nsoko Airport","elevation_ft":"614","continent":"AF","iso_country":"SZ","iso_region":"SZ-LU","municipality":"Nsoko","scheduled_service":"no","gps_code":"FDNS","wikipedia_link":"https://en.wikipedia.org/wiki/Nsoko_Airfield"},"geometry":{"type":"Point","coordinates":[31.937222,-26.987222]}},{"id":"30259","type":"Feature","properties":{"ident":"FDNG","type":"small_airport","name":"Piggs Peak Airport","elevation_ft":"1410","continent":"AF","iso_country":"SZ","iso_region":"SZ-HH","municipality":"Ngonini","scheduled_service":"no","gps_code":"FDNG","wikipedia_link":"https://en.wikipedia.org/wiki/Piggs_Peak_Airfield"},"geometry":{"type":"Point","coordinates":[31.4125,-25.798056]}},{"id":"30416","type":"Feature","properties":{"ident":"FDSM","type":"small_airport","name":"Simunye Airport","elevation_ft":"673","continent":"AF","iso_country":"SZ","iso_region":"SZ-LU","municipality":"Simunye","scheduled_service":"no","gps_code":"FDSM","wikipedia_link":"https://en.wikipedia.org/wiki/Simunye_Airfield"},"geometry":{"type":"Point","coordinates":[31.933332,-26.200001]}},{"id":"31109","type":"Feature","properties":{"ident":"FDST","type":"small_airport","name":"Siteki Airport","elevation_ft":"2220","continent":"AF","iso_country":"SZ","iso_region":"SZ-LU","municipality":"Siteki","scheduled_service":"no","gps_code":"FDST"},"geometry":{"type":"Point","coordinates":[31.942567,-26.471957]}},{"id":"30466","type":"Feature","properties":{"ident":"FDTM","type":"small_airport","name":"Tambankulu Airport","elevation_ft":"811","continent":"AF","iso_country":"SZ","iso_region":"SZ-LU","municipality":"Tambankulu","scheduled_service":"no","gps_code":"FDTM","wikipedia_link":"https://en.wikipedia.org/wiki/Tambankulu_Airfield"},"geometry":{"type":"Point","coordinates":[31.919489,-26.106429]}},{"id":"31106","type":"Feature","properties":{"ident":"FDBT","type":"small_airport","name":"Tambuti Airport","elevation_ft":"595","continent":"AF","iso_country":"SZ","iso_region":"SZ-LU","municipality":"Big Bend","scheduled_service":"no","gps_code":"FDBT","wikipedia_link":"https://en.wikipedia.org/wiki/Tambuti_Airfield"},"geometry":{"type":"Point","coordinates":[31.7759,-26.735201]}},{"id":"30495","type":"Feature","properties":{"ident":"FDTS","type":"small_airport","name":"Tshaneni Airport","elevation_ft":"1020","continent":"AF","iso_country":"SZ","iso_region":"SZ-HH","municipality":"Tshaneni","scheduled_service":"no","gps_code":"FDTS","wikipedia_link":"https://en.wikipedia.org/wiki/Tshaneni_Airfield"},"geometry":{"type":"Point","coordinates":[31.200001,-25.983334]}},{"id":"41312","type":"Feature","properties":{"ident":"FDUB","type":"small_airport","name":"Ubombo Ranches Airport","continent":"AF","iso_country":"SZ","iso_region":"SZ-LU","municipality":"Big Bend","scheduled_service":"no","gps_code":"FDUB","wikipedia_link":"https://en.wikipedia.org/wiki/Ubombo_Ranches_Airfield"},"geometry":{"type":"Point","coordinates":[31.936399,-26.7708]}}]}