{"type":"FeatureCollection","features":[{"id":"355959","type":"Feature","properties":{"ident":"TD-0018","type":"small_airport","name":"Salal Airport","elevation_ft":"984","continent":"AF","iso_country":"TD","iso_region":"TD-BG","municipality":"Salal","scheduled_service":"no","wikipedia_link":"https://en.wikipedia.org/wiki/Salal_Airport"},"geometry":{"type":"Point","coordinates":[17.226667,14.843333]}},{"id":"355957","type":"Feature","properties":{"ident":"TD-0017","type":"small_airport","name":"Kouba Olanga Airstrip","elevation_ft":"875","continent":"AF","iso_country":"TD","iso_region":"TD-BO","municipality":"Kouba Olanga","scheduled_service":"no"},"geometry":{"type":"Point","coordinates":[18.311667,15.718333]}},{"id":"355945","type":"Feature","properties":{"ident":"TD-0016","type":"small_airport","name":"Adré Airport","elevation_ft":"2582","continent":"AF","iso_country":"TD","iso_region":"TD-OD","municipality":"Adré","scheduled_service":"no","wikipedia_link":"https://en.wikipedia.org/wiki/Adr%C3%A9_Airport"},"geometry":{"type":"Point","coordinates":[22.179734,13.481042]}},{"id":"319232","type":"Feature","properties":{"ident":"TD-0015","type":"small_airport","name":"Moussoro Airport","elevation_ft":"984","continent":"AF","iso_country":"TD","iso_region":"TD-BG","municipality":"Moussoro","scheduled_service":"no","wikipedia_link":"https://en.wikipedia.org/wiki/Moussoro_Airport"},"geometry":{"type":"Point","coordinates":[16.501386,13.645663]}},{"id":"348668","type":"Feature","properties":{"ident":"TD-0014","type":"small_airport","name":"Amdjarass Airport","elevation_ft":"2960","continent":"AF","iso_country":"TD","iso_region":"TD-EE","municipality":"Amdjarass","scheduled_service":"no"},"geometry":{"type":"Point","coordinates":[22.770932,15.972705]}},{"id":"348667","type":"Feature","properties":{"ident":"TD-0013","type":"small_airport","name":"Guéréda Airport","elevation_ft":"3291","continent":"AF","iso_country":"TD","iso_region":"TD-WF","municipality":"Guéréda","scheduled_service":"no"},"geometry":{"type":"Point","coordinates":[22.07495,14.5642]}},{"id":"325963","type":"Feature","properties":{"ident":"TD-0011","type":"small_airport","name":"Iriba Airport","elevation_ft":"3061","continent":"AF","iso_country":"TD","iso_region":"TD-WF","municipality":"Iriba","scheduled_service":"no","wikipedia_link":"https://en.wikipedia.org/wiki/Iriba_Airport"},"geometry":{"type":"Point","coordinates":[22.221355,15.134124]}},{"id":"319234","type":"Feature","properties":{"ident":"TD-0010","type":"small_airport","name":"Usine Sugar Plantation Airstrip","continent":"AF","iso_country":"TD","iso_region":"TD-MC","municipality":"Sarh","scheduled_service":"no"},"geometry":{"type":"Point","coordinates":[18.496038,8.974228]}},{"id":"319210","type":"Feature","properties":{"ident":"TD-0009","type":"small_airport","name":"Haraze Airport","elevation_ft":"1358","continent":"AF","iso_country":"TD","iso_region":"TD-SA","municipality":"Haraze","scheduled_service":"no","wikipedia_link":"https://en.wikipedia.org/wiki/Haraze_Airport"},"geometry":{"type":"Point","coordinates":[20.90368,9.918697]}},{"id":"319209","type":"Feature","properties":{"ident":"TD-0008","type":"small_airport","name":"Kyabé Airport","elevation_ft":"1240","continent":"AF","iso_country":"TD","iso_region":"TD-MC","municipality":"Kyabé","scheduled_service":"no","wikipedia_link":"https://en.wikipedia.org/wiki/Kyab%C3%A9_Airport"},"geometry":{"type":"Point","coordinates":[18.927636,9.447491]}},{"id":"319206","type":"Feature","properties":{"ident":"TD-0007","type":"small_airport","name":"Goundi Airport","continent":"AF","iso_country":"TD","iso_region":"TD-MA","municipality":"Goundi","scheduled_service":"no"},"geometry":{"type":"Point","coordinates":[17.380952,9.382597]}},{"id":"319205","type":"Feature","properties":{"ident":"TD-0006","type":"small_airport","name":"Koumra Airport","elevation_ft":"1401","continent":"AF","iso_country":"TD","iso_region":"TD-MA","municipality":"Koumra","scheduled_service":"no","wikipedia_link":"https://en.wikipedia.org/wiki/Koumra_Airport"},"geometry":{"type":"Point","coordinates":[17.635592,8.958891]}},{"id":"319204","type":"Feature","properties":{"ident":"TD-0005","type":"small_airport","name":"Kélo Airport","elevation_ft":"1240","continent":"AF","iso_country":"TD","iso_region":"TD-TA","municipality":"Kélo","scheduled_service":"no","wikipedia_link":"https://en.wikipedia.org/wiki/K%C3%A9lo_Airport"},"geometry":{"type":"Point","coordinates":[15.786463,9.31408]}},{"id":"319203","type":"Feature","properties":{"ident":"TD-0004","type":"small_airport","name":"Léré Airport","elevation_ft":"787","continent":"AF","iso_country":"TD","iso_region":"TD-MO","municipality":"Léré","scheduled_service":"no","wikipedia_link":"https://en.wikipedia.org/wiki/L%C3%A9r%C3%A9_Airport"},"geometry":{"type":"Point","coordinates":[14.173201,9.645894]}},{"id":"319201","type":"Feature","properties":{"ident":"TD-0003","type":"small_airport","name":"Baïbokoum Airport","elevation_ft":"1476","continent":"AF","iso_country":"TD","iso_region":"TD-LR","municipality":"Baïbokoum","scheduled_service":"no","wikipedia_link":"https://en.wikipedia.org/wiki/Ba%C3%AFbokoum_Airport"},"geometry":{"type":"Point","coordinates":[15.703935,7.765304]}},{"id":"319200","type":"Feature","properties":{"ident":"TD-0002","type":"small_airport","name":"Doba Airport","elevation_ft":"1296","continent":"AF","iso_country":"TD","iso_region":"TD-LR","municipality":"Doba","scheduled_service":"no","wikipedia_link":"https://en.wikipedia.org/wiki/Doba_Airport"},"geometry":{"type":"Point","coordinates":[16.834947,8.701775]}},{"id":"308250","type":"Feature","properties":{"ident":"TD-0001","type":"small_airport","name":"Aozou Airstrip","continent":"AF","iso_country":"TD","iso_region":"TD-TI","scheduled_service":"no"},"geometry":{"type":"Point","coordinates":[17.696527,22.645195]}},{"id":"319233","type":"Feature","properties":{"ident":"OUM","type":"small_airport","name":"Oum Hadjer Airport","elevation_ft":"1198","continent":"AF","iso_country":"TD","iso_region":"TD-BA","municipality":"Oum Hadjer","scheduled_service":"no","iata_code":"OUM","wikipedia_link":"https://en.wikipedia.org/wiki/Oum_Hadjer_Airport"},"geometry":{"type":"Point","coordinates":[19.710256,13.278244]}},{"id":"319207","type":"Feature","properties":{"ident":"MEF","type":"small_airport","name":"Melfi Airport","elevation_ft":"1293","continent":"AF","iso_country":"TD","iso_region":"TD-GR","municipality":"Melfi","scheduled_service":"no","iata_code":"MEF","wikipedia_link":"https://en.wikipedia.org/wiki/Melfi_Airport"},"geometry":{"type":"Point","coordinates":[17.944495,11.060192]}},{"id":"31214","type":"Feature","properties":{"ident":"FTTZ","type":"small_airport","name":"Bardai Zougra Airport","elevation_ft":"3524","continent":"AF","iso_country":"TD","iso_region":"TD-TI","municipality":"Bardai Zougra","scheduled_service":"no","gps_code":"FTTZ"},"geometry":{"type":"Point","coordinates":[17.053271,21.448426]}},{"id":"2999","type":"Feature","properties":{"ident":"FTTY","type":"medium_airport","name":"Faya Largeau Airport","elevation_ft":"771","continent":"AF","iso_country":"TD","iso_region":"TD-BO","scheduled_service":"no","gps_code":"FTTY","iata_code":"FYT","wikipedia_link":"https://en.wikipedia.org/wiki/Faya-Largeau_Airport"},"geometry":{"type":"Point","coordinates":[19.111099,17.917101]}},{"id":"30641","type":"Feature","properties":{"ident":"FTTU","type":"small_airport","name":"Mao Airport","elevation_ft":"1072","continent":"AF","iso_country":"TD","iso_region":"TD-KA","municipality":"Mao","scheduled_service":"no","gps_code":"FTTU","iata_code":"AMO"},"geometry":{"type":"Point","coordinates":[15.3144,14.1456]}},{"id":"32134","type":"Feature","properties":{"ident":"FTTS","type":"small_airport","name":"Bousso Airport","elevation_ft":"1099","continent":"AF","iso_country":"TD","iso_region":"TD-CB","municipality":"Bousso","scheduled_service":"no","gps_code":"FTTS","iata_code":"OUT"},"geometry":{"type":"Point","coordinates":[16.716999,10.483]}},{"id":"31213","type":"Feature","properties":{"ident":"FTTR","type":"small_airport","name":"Zouar Airport","elevation_ft":"2655","continent":"AF","iso_country":"TD","iso_region":"TD-TI","municipality":"Zouar","scheduled_service":"no","gps_code":"FTTR"},"geometry":{"type":"Point","coordinates":[16.57185,20.44813]}},{"id":"32163","type":"Feature","properties":{"ident":"FTTP","type":"small_airport","name":"Pala Airport","elevation_ft":"1532","continent":"AF","iso_country":"TD","iso_region":"TD-MO","municipality":"Pala","scheduled_service":"no","gps_code":"FTTP","iata_code":"PLF"},"geometry":{"type":"Point","coordinates":[14.925,9.37806]}},{"id":"30639","type":"Feature","properties":{"ident":"FTTN","type":"small_airport","name":"Am Timan Airport","elevation_ft":"1420","continent":"AF","iso_country":"TD","iso_region":"TD-SA","municipality":"Am Timan","scheduled_service":"no","gps_code":"FTTN","iata_code":"AMC","wikipedia_link":"https://en.wikipedia.org/wiki/Am_Timan_Airport"},"geometry":{"type":"Point","coordinates":[20.274,11.034]}},{"id":"31975","type":"Feature","properties":{"ident":"FTTM","type":"small_airport","name":"Mongo Airport","elevation_ft":"1414","continent":"AF","iso_country":"TD","iso_region":"TD-GR","municipality":"Mongo","scheduled_service":"no","gps_code":"FTTM","iata_code":"MVO","wikipedia_link":"https://en.wikipedia.org/wiki/Mongo_Airport"},"geometry":{"type":"Point","coordinates":[18.675642,12.17048]}},{"id":"32130","type":"Feature","properties":{"ident":"FTTL","type":"small_airport","name":"Bol-Berim Airport","elevation_ft":"955","continent":"AF","iso_country":"TD","iso_region":"TD-LC","municipality":"Bol","scheduled_service":"no","gps_code":"FTTL","iata_code":"OTC","wikipedia_link":"https://en.wikipedia.org/wiki/Bol-B%C3%A9rim_Airport"},"geometry":{"type":"Point","coordinates":[14.739254,13.443574]}},{"id":"30765","type":"Feature","properties":{"ident":"FTTK","type":"small_airport","name":"Bokoro Airport","elevation_ft":"984","continent":"AF","iso_country":"TD","iso_region":"TD-HL","municipality":"Bokoro","scheduled_service":"no","gps_code":"FTTK","iata_code":"BKR","wikipedia_link":"https://en.wikipedia.org/wiki/Bokoro_Airport"},"geometry":{"type":"Point","coordinates":[17.070989,12.385511]}},{"id":"2998","type":"Feature","properties":{"ident":"FTTJ","type":"large_airport","name":"N'Djamena International Airport","elevation_ft":"968","continent":"AF","iso_country":"TD","iso_region":"TD-ND","municipality":"N'Djamena","scheduled_service":"yes","gps_code":"FTTJ","iata_code":"NDJ","wikipedia_link":"https://en.wikipedia.org/wiki/N'Djamena_International_Airport","keywords":"Ndjamena Hassan Djamous"},"geometry":{"type":"Point","coordinates":[15.034,12.1337]}},{"id":"30658","type":"Feature","properties":{"ident":"FTTI","type":"small_airport","name":"Ati Airport","elevation_ft":"1089","continent":"AF","iso_country":"TD","iso_region":"TD-BA","municipality":"Ati","scheduled_service":"no","gps_code":"FTTI","iata_code":"ATV","wikipedia_link":"https://en.wikipedia.org/wiki/Ati_Airport"},"geometry":{"type":"Point","coordinates":[18.315893,13.239778]}},{"id":"31855","type":"Feature","properties":{"ident":"FTTH","type":"small_airport","name":"Lai Airport","elevation_ft":"1171","continent":"AF","iso_country":"TD","iso_region":"TD-TA","municipality":"Lai","scheduled_service":"no","gps_code":"FTTH","iata_code":"LTC","wikipedia_link":"https://en.wikipedia.org/wiki/La%C3%AF_Airport"},"geometry":{"type":"Point","coordinates":[16.3125,9.3979]}},{"id":"31212","type":"Feature","properties":{"ident":"FTTG","type":"small_airport","name":"Goz-Beida Airport","elevation_ft":"1765","continent":"AF","iso_country":"TD","iso_region":"TD-SI","municipality":"Goz-Beida","scheduled_service":"no","gps_code":"FTTG","wikipedia_link":"https://en.wikipedia.org/wiki/Goz_Be%C3%AFda_Airport"},"geometry":{"type":"Point","coordinates":[21.458472,12.210946]}},{"id":"31211","type":"Feature","properties":{"ident":"FTTF","type":"small_airport","name":"Fada Airport","elevation_ft":"1788","continent":"AF","iso_country":"TD","iso_region":"TD-EO","municipality":"Fada","scheduled_service":"no","gps_code":"FTTF","wikipedia_link":"https://en.wikipedia.org/wiki/Fada_Airport"},"geometry":{"type":"Point","coordinates":[21.50353,17.19126]}},{"id":"31210","type":"Feature","properties":{"ident":"FTTE","type":"small_airport","name":"Biltine Airport","elevation_ft":"1680","continent":"AF","iso_country":"TD","iso_region":"TD-WF","municipality":"Biltine","scheduled_service":"no","gps_code":"FTTE"},"geometry":{"type":"Point","coordinates":[20.841834,14.551908]}},{"id":"2997","type":"Feature","properties":{"ident":"FTTD","type":"medium_airport","name":"Moundou Airport","elevation_ft":"1407","continent":"AF","iso_country":"TD","iso_region":"TD-LO","municipality":"Moundou","scheduled_service":"yes","gps_code":"FTTD","iata_code":"MQQ","wikipedia_link":"https://en.wikipedia.org/wiki/Moundou_Airport"},"geometry":{"type":"Point","coordinates":[16.0714,8.62441]}},{"id":"2996","type":"Feature","properties":{"ident":"FTTC","type":"medium_airport","name":"Abeche Airport","elevation_ft":"1788","continent":"AF","iso_country":"TD","iso_region":"TD-OD","municipality":"Abeche","scheduled_service":"yes","gps_code":"FTTC","iata_code":"AEH","wikipedia_link":"https://en.wikipedia.org/wiki/Ab%C3%A9ch%C3%A9_Airport"},"geometry":{"type":"Point","coordinates":[20.844299,13.847]}},{"id":"32099","type":"Feature","properties":{"ident":"FTTB","type":"small_airport","name":"Bongor Airport","elevation_ft":"1076","continent":"AF","iso_country":"TD","iso_region":"TD-ME","municipality":"Bongor","scheduled_service":"no","gps_code":"FTTB","iata_code":"OGR","wikipedia_link":"https://en.wikipedia.org/wiki/Bongor_Airport"},"geometry":{"type":"Point","coordinates":[15.379561,10.288345]}},{"id":"32383","type":"Feature","properties":{"ident":"FTTA","type":"small_airport","name":"Sarh Airport","elevation_ft":"1198","continent":"AF","iso_country":"TD","iso_region":"TD-MC","municipality":"Sarh","scheduled_service":"yes","gps_code":"FTTA","iata_code":"SRH","wikipedia_link":"https://en.wikipedia.org/wiki/Sarh_Airport"},"geometry":{"type":"Point","coordinates":[18.374399,9.14444]}},{"id":"507351","type":"Feature","properties":{"ident":"FTFY","type":"medium_airport","name":"Ouadi Doum Air Base","elevation_ft":"1308","continent":"AF","iso_country":"TD","iso_region":"TD-EO","municipality":"Wadi Doum","scheduled_service":"no","gps_code":"FTFY"},"geometry":{"type":"Point","coordinates":[20.188644,18.52793]}},{"id":"312362","type":"Feature","properties":{"ident":"AOD","type":"small_airport","name":"Abou-Deïa Airport","elevation_ft":"1592","continent":"AF","iso_country":"TD","iso_region":"TD-SA","municipality":"Abou-Deïa","scheduled_service":"no","iata_code":"AOD","wikipedia_link":"https://en.wikipedia.org/wiki/Abou-De%C3%AFa_Airport"},"geometry":{"type":"Point","coordinates":[19.2874,11.4773]}},{"id":"301754","type":"Feature","properties":{"ident":"AKM","type":"small_airport","name":"Zakuoma Airport","elevation_ft":"1370","continent":"AF","iso_country":"TD","iso_region":"TD-SA","municipality":"ZaKouma","scheduled_service":"no","iata_code":"AKM","wikipedia_link":"https://en.wikipedia.org/wiki/Zakouma_Airport"},"geometry":{"type":"Point","coordinates":[19.817222,10.890278]}}]}