{"type":"FeatureCollection","features":[{"id":"341497","type":"Feature","properties":{"ident":"TF-0004","type":"heliport","name":"Amsterdam Island Heliport","continent":"AN","iso_country":"TF","iso_region":"TF-U-A","municipality":"Martin-de-Viviès","scheduled_service":"no"},"geometry":{"type":"Point","coordinates":[77.57229,-37.79807]}},{"id":"341267","type":"Feature","properties":{"ident":"TF-0003","type":"heliport","name":"Base Alfred Faure Heliport","continent":"AN","iso_country":"TF","iso_region":"TF-U-A","municipality":"Base Alfred Faure","scheduled_service":"no"},"geometry":{"type":"Point","coordinates":[51.857784,-46.431689]}},{"id":"44902","type":"Feature","properties":{"ident":"FR-0314","type":"small_airport","name":"Europa Island Airstrip","continent":"AF","iso_country":"TF","iso_region":"TF-U-A","municipality":"Europa Island","scheduled_service":"no","wikipedia_link":"https://en.wikipedia.org/wiki/Europa_Island","keywords":"Île Europa"},"geometry":{"type":"Point","coordinates":[40.351501,-22.3487]}},{"id":"307326","type":"Feature","properties":{"ident":"ZZ-0002","type":"small_airport","name":"Glorioso Islands Airstrip","elevation_ft":"11","continent":"AF","iso_country":"TF","iso_region":"TF-U-A","municipality":"Grande Glorieuse","scheduled_service":"no"},"geometry":{"type":"Point","coordinates":[47.296389,-11.584278]}},{"id":"313725","type":"Feature","properties":{"ident":"FMZJ","type":"small_airport","name":"Juan de Nova Airstrip","elevation_ft":"3","continent":"AF","iso_country":"TF","iso_region":"TF-U-A","municipality":"Juan de Nova","scheduled_service":"no","gps_code":"FMZJ"},"geometry":{"type":"Point","coordinates":[42.7193,-17.05396]}},{"id":"341266","type":"Feature","properties":{"ident":"TF-0002","type":"heliport","name":"Port-aux-Français Heliport","continent":"AN","iso_country":"TF","iso_region":"TF-U-A","municipality":"Port-aux-Français","scheduled_service":"no"},"geometry":{"type":"Point","coordinates":[70.22033,-49.35033]}},{"id":"307336","type":"Feature","properties":{"ident":"TF-0001","type":"small_airport","name":"Tromelin Island Airstrip","elevation_ft":"20","continent":"AF","iso_country":"TF","iso_region":"TF-U-A","municipality":"Ile Tromelin","scheduled_service":"no"},"geometry":{"type":"Point","coordinates":[54.522222,-15.891667]}}]}