{"type":"FeatureCollection","features":[{"id":"30953","type":"Feature","properties":{"ident":"DXAK","type":"small_airport","name":"Akpaka Airport","elevation_ft":"689","continent":"AF","iso_country":"TG","iso_region":"TG-P","municipality":"Atakpamé","scheduled_service":"no","icao_code":"DXAK","gps_code":"DXAK","wikipedia_link":"https://en.wikipedia.org/wiki/Akpaka_Airport"},"geometry":{"type":"Point","coordinates":[1.117,7.583]}},{"id":"30954","type":"Feature","properties":{"ident":"DXDP","type":"small_airport","name":"Djangou Airport","elevation_ft":"886","continent":"AF","iso_country":"TG","iso_region":"TG-S","municipality":"Dapaong","scheduled_service":"no","icao_code":"DXDP","gps_code":"DXDP","wikipedia_link":"https://en.wikipedia.org/wiki/Djangou_Airport"},"geometry":{"type":"Point","coordinates":[0.242372,10.800417]}},{"id":"30955","type":"Feature","properties":{"ident":"DXKP","type":"small_airport","name":"Kolokope Airport","elevation_ft":"591","continent":"AF","iso_country":"TG","iso_region":"TG-P","municipality":"Anié","scheduled_service":"no","icao_code":"DXKP","gps_code":"DXKP","wikipedia_link":"https://en.wikipedia.org/wiki/Kolokope_Airport"},"geometry":{"type":"Point","coordinates":[1.295966,7.803451]}},{"id":"2144","type":"Feature","properties":{"ident":"DXXX","type":"large_airport","name":"Lomé–Tokoin International Airport","elevation_ft":"72","continent":"AF","iso_country":"TG","iso_region":"TG-M","municipality":"Lomé","scheduled_service":"yes","icao_code":"DXXX","iata_code":"LFW","gps_code":"DXXX","wikipedia_link":"https://en.wikipedia.org/wiki/Lom%C3%A9%E2%80%93Tokoin_International_Airport","keywords":"Gnassingbe Eyadema International Airport"},"geometry":{"type":"Point","coordinates":[1.25451,6.16561]}},{"id":"2143","type":"Feature","properties":{"ident":"DXNG","type":"large_airport","name":"Niamtougou International Airport","elevation_ft":"1515","continent":"AF","iso_country":"TG","iso_region":"TG-K","municipality":"Niamtougou","scheduled_service":"no","icao_code":"DXNG","iata_code":"LRL","gps_code":"DXNG","wikipedia_link":"https://en.wikipedia.org/wiki/Niamtougou_International_Airport"},"geometry":{"type":"Point","coordinates":[1.090944,9.766675]}},{"id":"30956","type":"Feature","properties":{"ident":"DXMG","type":"small_airport","name":"Sansanné-Mango Airport","elevation_ft":"460","continent":"AF","iso_country":"TG","iso_region":"TG-S","municipality":"Mango","scheduled_service":"no","icao_code":"DXMG","gps_code":"DXMG","wikipedia_link":"https://en.wikipedia.org/wiki/Sansann%C3%A9-Mango_Airport"},"geometry":{"type":"Point","coordinates":[0.471382,10.373011]}},{"id":"30957","type":"Feature","properties":{"ident":"DXSK","type":"small_airport","name":"Sokodé Airport","elevation_ft":"1214","continent":"AF","iso_country":"TG","iso_region":"TG-C","municipality":"Sokodé","scheduled_service":"no","icao_code":"DXSK","gps_code":"DXSK","wikipedia_link":"https://en.wikipedia.org/wiki/Sokode_Airport"},"geometry":{"type":"Point","coordinates":[1.153004,8.994275]}}]}