{"type":"FeatureCollection","features":[{"id":"4964","type":"Feature","properties":{"ident":"NFTV","type":"medium_airport","name":"Vava'u International Airport","elevation_ft":"236","continent":"OC","iso_country":"TO","iso_region":"TO-05","municipality":"Vava'u Island","scheduled_service":"yes","gps_code":"NFTV","iata_code":"VAV","wikipedia_link":"https://en.wikipedia.org/wiki/Vava'u_International_Airport","keywords":"Vavau, Lupepau'u"},"geometry":{"type":"Point","coordinates":[-173.962006,-18.5853]}},{"id":"32052","type":"Feature","properties":{"ident":"NFTP","type":"small_airport","name":"Kuini Lavenia Airport","elevation_ft":"30","continent":"OC","iso_country":"TO","iso_region":"TO-03","municipality":"Niuatoputapu","scheduled_service":"yes","gps_code":"NFTP","iata_code":"NTT","wikipedia_link":"https://en.wikipedia.org/wiki/Niuatoputapu_Airport"},"geometry":{"type":"Point","coordinates":[-173.791089,-15.977297]}},{"id":"32024","type":"Feature","properties":{"ident":"NFTO","type":"small_airport","name":"Mata'aho Airport","elevation_ft":"160","continent":"OC","iso_country":"TO","iso_region":"TO-03","municipality":"Angaha, Niuafo'ou Island","scheduled_service":"yes","gps_code":"NFTO","iata_code":"NFO","wikipedia_link":"https://en.wikipedia.org/wiki/Mata'aho_Airport"},"geometry":{"type":"Point","coordinates":[-175.632996,-15.5708]}},{"id":"4963","type":"Feature","properties":{"ident":"NFTL","type":"medium_airport","name":"Lifuka Island Airport","elevation_ft":"31","continent":"OC","iso_country":"TO","iso_region":"TO-02","municipality":"Lifuka","scheduled_service":"yes","gps_code":"NFTL","iata_code":"HPA","wikipedia_link":"https://en.wikipedia.org/wiki/Lifuka_Island_Airport","keywords":"Salote Pilolevu Airport, Haapai"},"geometry":{"type":"Point","coordinates":[-174.341003,-19.777]}},{"id":"4962","type":"Feature","properties":{"ident":"NFTF","type":"medium_airport","name":"Fua'amotu International Airport","elevation_ft":"126","continent":"OC","iso_country":"TO","iso_region":"TO-04","municipality":"Nuku'alofa","scheduled_service":"yes","gps_code":"NFTF","iata_code":"TBU","wikipedia_link":"https://en.wikipedia.org/wiki/Fua'amotu_International_Airport"},"geometry":{"type":"Point","coordinates":[-175.149994,-21.241199]}},{"id":"31024","type":"Feature","properties":{"ident":"NFTE","type":"small_airport","name":"Kaufana Airport","elevation_ft":"325","continent":"OC","iso_country":"TO","iso_region":"TO-01","municipality":"Eua Island","scheduled_service":"yes","gps_code":"NFTE","iata_code":"EUA","wikipedia_link":"https://en.wikipedia.org/wiki/'Eua_Airport"},"geometry":{"type":"Point","coordinates":[-174.957993,-21.3783]}}]}