{"type":"FeatureCollection","features":[{"id":"3262","type":"Feature","properties":{"ident":"HUAJ","type":"small_airport","name":"Adjumani Airport","elevation_ft":"2611","continent":"AF","iso_country":"UG","iso_region":"UG-N","municipality":"Adjumani","scheduled_service":"no","gps_code":"HUAJ","wikipedia_link":"https://en.wikipedia.org/wiki/Adjumani_Airport"},"geometry":{"type":"Point","coordinates":[31.763854,3.339239]}},{"id":"32234","type":"Feature","properties":{"ident":"HUAR","type":"medium_airport","name":"Arua Airport","elevation_ft":"3951","continent":"AF","iso_country":"UG","iso_region":"UG-N","municipality":"Arua","scheduled_service":"yes","icao_code":"HUAR","iata_code":"RUA","gps_code":"HUAR","wikipedia_link":"https://en.wikipedia.org/wiki/Arua_Airport"},"geometry":{"type":"Point","coordinates":[30.911714,3.049152]}},{"id":"302288","type":"Feature","properties":{"ident":"HUPA","type":"small_airport","name":"Bugungu Airport","elevation_ft":"2472","continent":"AF","iso_country":"UG","iso_region":"UG-W","municipality":"Bujenje","scheduled_service":"no","gps_code":"HUGG","wikipedia_link":"https://en.wikipedia.org/wiki/Bugungu_Airstrip"},"geometry":{"type":"Point","coordinates":[31.554341,2.202788]}},{"id":"319084","type":"Feature","properties":{"ident":"UG-0010","type":"small_airport","name":"Buhuka Airport","continent":"AF","iso_country":"UG","iso_region":"UG-W","municipality":"Buhuka","scheduled_service":"no"},"geometry":{"type":"Point","coordinates":[30.747939,1.246181]}},{"id":"505673","type":"Feature","properties":{"ident":"UG-0014","type":"small_airport","name":"Bukasa Airport","continent":"AF","iso_country":"UG","iso_region":"UG-C","municipality":"Kyamuswa","scheduled_service":"no"},"geometry":{"type":"Point","coordinates":[32.50876,-0.40721]}},{"id":"505674","type":"Feature","properties":{"ident":"UG-0015","type":"small_airport","name":"Bulago Airport","continent":"AF","iso_country":"UG","iso_region":"UG-C","municipality":"Mukono","scheduled_service":"no"},"geometry":{"type":"Point","coordinates":[32.66506,-0.02421]}},{"id":"318929","type":"Feature","properties":{"ident":"HUBU","type":"small_airport","name":"Bundibugyo Airport","elevation_ft":"3100","continent":"AF","iso_country":"UG","iso_region":"UG-W","municipality":"Bundibugyo","scheduled_service":"no","gps_code":"HUBU","wikipedia_link":"https://en.wikipedia.org/wiki/Bundibugyo_Airport"},"geometry":{"type":"Point","coordinates":[30.025483,0.67349]}},{"id":"319085","type":"Feature","properties":{"ident":"UG-0011","type":"small_airport","name":"Buseruka Airport","continent":"AF","iso_country":"UG","iso_region":"UG-W","municipality":"Buseruka","scheduled_service":"no"},"geometry":{"type":"Point","coordinates":[31.094862,1.555726]}},{"id":"319086","type":"Feature","properties":{"ident":"UG-0012","type":"small_airport","name":"Butiaba Airport","continent":"AF","iso_country":"UG","iso_region":"UG-W","municipality":"Butiaba","scheduled_service":"no"},"geometry":{"type":"Point","coordinates":[31.342983,1.80863]}},{"id":"318930","type":"Feature","properties":{"ident":"UG-0007","type":"small_airport","name":"Chobe Safari Lodge Airport","elevation_ft":"3140","continent":"AF","iso_country":"UG","iso_region":"UG-W","municipality":"Lolim","scheduled_service":"no","local_code":"HUOY","wikipedia_link":"https://en.wikipedia.org/wiki/Chobe_Safari_Lodge_Airport"},"geometry":{"type":"Point","coordinates":[32.14468,2.239199]}},{"id":"3263","type":"Feature","properties":{"ident":"HUEN","type":"large_airport","name":"Entebbe International Airport","elevation_ft":"3782","continent":"AF","iso_country":"UG","iso_region":"UG-C","municipality":"Kampala","scheduled_service":"yes","icao_code":"HUEN","iata_code":"EBB","gps_code":"HUEN","home_link":"https://entebbe-airport.com/","wikipedia_link":"https://en.wikipedia.org/wiki/Entebbe_International_Airport"},"geometry":{"type":"Point","coordinates":[32.443501,0.042386]}},{"id":"315268","type":"Feature","properties":{"ident":"HUFP","type":"small_airport","name":"Fort Portal Airport","elevation_ft":"5255","continent":"AF","iso_country":"UG","iso_region":"UG-W","municipality":"Fort Portal","scheduled_service":"no","gps_code":"HUFP","local_code":"HUFP","wikipedia_link":"https://en.wikipedia.org/wiki/Fort_Portal_Airport"},"geometry":{"type":"Point","coordinates":[30.2493,0.7063]}},{"id":"3264","type":"Feature","properties":{"ident":"HUGU","type":"medium_airport","name":"Gulu Airport","elevation_ft":"3510","continent":"AF","iso_country":"UG","iso_region":"UG-N","municipality":"Gulu","scheduled_service":"yes","icao_code":"HUGU","iata_code":"ULU","gps_code":"HUGU","wikipedia_link":"https://en.wikipedia.org/wiki/Gulu_Airport"},"geometry":{"type":"Point","coordinates":[32.271801,2.80556]}},{"id":"31702","type":"Feature","properties":{"ident":"HUJI","type":"small_airport","name":"Jinja Airport","elevation_ft":"3855","continent":"AF","iso_country":"UG","iso_region":"UG-E","municipality":"Jinja","scheduled_service":"no","icao_code":"HUJI","iata_code":"JIN","gps_code":"HUJI","wikipedia_link":"https://en.wikipedia.org/wiki/Jinja_Airport"},"geometry":{"type":"Point","coordinates":[33.19356,0.453094]}},{"id":"302298","type":"Feature","properties":{"ident":"HUKB","type":"small_airport","name":"Kabale Airport","elevation_ft":"6000","continent":"AF","iso_country":"UG","iso_region":"UG-W","scheduled_service":"no","gps_code":"HUKB","wikipedia_link":"https://en.wikipedia.org/wiki/Kabale_Airport"},"geometry":{"type":"Point","coordinates":[29.96,-1.226111]}},{"id":"31724","type":"Feature","properties":{"ident":"HUKF","type":"small_airport","name":"Kabalega Falls Airport","elevation_ft":"2365","continent":"AF","iso_country":"UG","iso_region":"UG-W","municipality":"Pakuba","scheduled_service":"no","icao_code":"HUPA","iata_code":"PAF","gps_code":"HUPA","wikipedia_link":"https://en.wikipedia.org/wiki/Pakuba_Airfield"},"geometry":{"type":"Point","coordinates":[31.497698,2.326563]}},{"id":"313431","type":"Feature","properties":{"ident":"HUKJ","type":"small_airport","name":"Kajjansi Airfield","elevation_ft":"3743","continent":"AF","iso_country":"UG","iso_region":"UG-C","municipality":"Kampala","scheduled_service":"no","iata_code":"KJJ","gps_code":"HUKJ","wikipedia_link":"https://en.wikipedia.org/wiki/Kajjansi_Airfield"},"geometry":{"type":"Point","coordinates":[32.55297,0.1968]}},{"id":"315269","type":"Feature","properties":{"ident":"HUKK","type":"small_airport","name":"Kakira Airport","elevation_ft":"3962","continent":"AF","iso_country":"UG","iso_region":"UG-E","municipality":"Kakira","scheduled_service":"no","gps_code":"HUKK","wikipedia_link":"https://en.wikipedia.org/wiki/Kakira_Airport"},"geometry":{"type":"Point","coordinates":[33.281,0.4933]}},{"id":"318431","type":"Feature","properties":{"ident":"UG-0006","type":"small_airport","name":"Kalongo Airport","continent":"AF","iso_country":"UG","iso_region":"UG-N","municipality":"Kalongo","scheduled_service":"no"},"geometry":{"type":"Point","coordinates":[33.379279,3.044704]}},{"id":"31776","type":"Feature","properties":{"ident":"HUKS","type":"small_airport","name":"Kasese Airport","elevation_ft":"3146","continent":"AF","iso_country":"UG","iso_region":"UG-W","municipality":"Kasese","scheduled_service":"no","icao_code":"HUKS","iata_code":"KSE","gps_code":"HUKS","wikipedia_link":"https://en.wikipedia.org/wiki/Kasese_Airport"},"geometry":{"type":"Point","coordinates":[30.1,0.183]}},{"id":"505675","type":"Feature","properties":{"ident":"UG-0016","type":"small_airport","name":"Kayonza Airport","elevation_ft":"3800","continent":"AF","iso_country":"UG","iso_region":"UG-W","municipality":"Kyabuyorwa","scheduled_service":"no"},"geometry":{"type":"Point","coordinates":[29.639553,-0.862163]}},{"id":"315270","type":"Feature","properties":{"ident":"HUKD","type":"small_airport","name":"Kidepo Airport","elevation_ft":"4033","continent":"AF","iso_country":"UG","iso_region":"UG-N","municipality":"Kidepo Valley National Park","scheduled_service":"no","gps_code":"HUKD","wikipedia_link":"https://en.wikipedia.org/wiki/Kidepo_Airport","keywords":"Kipepo"},"geometry":{"type":"Point","coordinates":[33.7487,3.7176]}},{"id":"313726","type":"Feature","properties":{"ident":"UG-0001","type":"small_airport","name":"Kisoro Airport","elevation_ft":"6200","continent":"AF","iso_country":"UG","iso_region":"UG-W","municipality":"Kisoro","scheduled_service":"yes","iata_code":"KXO","gps_code":"HUKI","wikipedia_link":"https://en.wikipedia.org/wiki/Kisoro_Airport"},"geometry":{"type":"Point","coordinates":[29.7197,-1.2837]}},{"id":"315272","type":"Feature","properties":{"ident":"HUKT","type":"small_airport","name":"Kitgum Airport","elevation_ft":"3130","continent":"AF","iso_country":"UG","iso_region":"UG-N","municipality":"Kitgum","scheduled_service":"no","gps_code":"HUKT","wikipedia_link":"https://en.wikipedia.org/wiki/Kitgum_Airport"},"geometry":{"type":"Point","coordinates":[32.8882,3.2817]}},{"id":"318430","type":"Feature","properties":{"ident":"UG-0005","type":"small_airport","name":"Koboko Airport","continent":"AF","iso_country":"UG","iso_region":"UG-N","municipality":"Koboko","scheduled_service":"no"},"geometry":{"type":"Point","coordinates":[30.969793,3.409147]}},{"id":"315273","type":"Feature","properties":{"ident":"HUKO","type":"small_airport","name":"Kotido Airport","elevation_ft":"4020","continent":"AF","iso_country":"UG","iso_region":"UG-N","municipality":"Kotido","scheduled_service":"no","gps_code":"HUKO","wikipedia_link":"https://en.wikipedia.org/wiki/Kotido_Airport"},"geometry":{"type":"Point","coordinates":[34.1232,2.953]}},{"id":"319083","type":"Feature","properties":{"ident":"UG-0009","type":"small_airport","name":"Lake Albert Lodge Airstrip","continent":"AF","iso_country":"UG","iso_region":"UG-W","municipality":"Munihoro","scheduled_service":"no"},"geometry":{"type":"Point","coordinates":[30.93749,1.47099]}},{"id":"31655","type":"Feature","properties":{"ident":"HULI","type":"small_airport","name":"Lira Airport","elevation_ft":"3580","continent":"AF","iso_country":"UG","iso_region":"UG-N","municipality":"Lira","scheduled_service":"no","gps_code":"HULI","wikipedia_link":"https://en.wikipedia.org/wiki/Lira_Airport"},"geometry":{"type":"Point","coordinates":[32.917,2.25]}},{"id":"31733","type":"Feature","properties":{"ident":"HUMI","type":"small_airport","name":"Masindi Airport","elevation_ft":"3850","continent":"AF","iso_country":"UG","iso_region":"UG-W","municipality":"Masindi","scheduled_service":"no","icao_code":"HUMI","iata_code":"KCU","gps_code":"HUMI","wikipedia_link":"https://en.wikipedia.org/wiki/Masindi_Airport"},"geometry":{"type":"Point","coordinates":[31.7367,1.75806]}},{"id":"318931","type":"Feature","properties":{"ident":"UG-0008","type":"small_airport","name":"Matany Airstrip","elevation_ft":"3895","continent":"AF","iso_country":"UG","iso_region":"UG-N","municipality":"Matany","scheduled_service":"no","wikipedia_link":"https://en.wikipedia.org/wiki/Matany_Airstrip"},"geometry":{"type":"Point","coordinates":[34.396493,2.449456]}},{"id":"31884","type":"Feature","properties":{"ident":"HUMA","type":"small_airport","name":"Mbarara Airport","elevation_ft":"4600","continent":"AF","iso_country":"UG","iso_region":"UG-W","municipality":"Mbarara","scheduled_service":"no","icao_code":"HUMA","iata_code":"MBQ","gps_code":"HUMA","wikipedia_link":"https://en.wikipedia.org/wiki/Mbarara_Airport","keywords":"Nyakisharara Airport"},"geometry":{"type":"Point","coordinates":[30.5994,-0.555278]}},{"id":"315274","type":"Feature","properties":{"ident":"HUMO","type":"small_airport","name":"Moroto Airport","elevation_ft":"4170","continent":"AF","iso_country":"UG","iso_region":"UG-N","municipality":"Moroto","scheduled_service":"no","gps_code":"HUMO","wikipedia_link":"https://en.wikipedia.org/wiki/Moroto_Airport"},"geometry":{"type":"Point","coordinates":[34.5946,2.5051]}},{"id":"35165","type":"Feature","properties":{"ident":"UG-OYG","type":"small_airport","name":"Moyo Airport","elevation_ft":"3250","continent":"AF","iso_country":"UG","iso_region":"UG-N","municipality":"Moyo","scheduled_service":"no","iata_code":"OYG","gps_code":"HUMY","wikipedia_link":"https://en.wikipedia.org/wiki/Moyo_Airport"},"geometry":{"type":"Point","coordinates":[31.762762,3.6444]}},{"id":"315276","type":"Feature","properties":{"ident":"UG-0003","type":"small_airport","name":"Mutukula Airport","elevation_ft":"3820","continent":"AF","iso_country":"UG","iso_region":"UG-C","municipality":"Mutukula","scheduled_service":"no","wikipedia_link":"https://en.wikipedia.org/wiki/Mutukula_Airport"},"geometry":{"type":"Point","coordinates":[31.4417,-0.9273]}},{"id":"315277","type":"Feature","properties":{"ident":"HUMW","type":"small_airport","name":"Mweya Airport","elevation_ft":"3160","continent":"AF","iso_country":"UG","iso_region":"UG-W","municipality":"Mweya","scheduled_service":"no","gps_code":"HUMW","wikipedia_link":"https://en.wikipedia.org/wiki/Mweya_Airport"},"geometry":{"type":"Point","coordinates":[29.8941,-0.194]}},{"id":"315278","type":"Feature","properties":{"ident":"UG-0004","type":"small_airport","name":"Nakasongola Airport","elevation_ft":"3565","continent":"AF","iso_country":"UG","iso_region":"UG-C","municipality":"Nakasongola","scheduled_service":"no","wikipedia_link":"https://en.wikipedia.org/wiki/Nakasongola_Airport"},"geometry":{"type":"Point","coordinates":[32.4642,1.4077]}},{"id":"315271","type":"Feature","properties":{"ident":"UG-0002","type":"small_airport","name":"Savannah Airstrip","elevation_ft":"3600","continent":"AF","iso_country":"UG","iso_region":"UG-W","municipality":"Kihihi","scheduled_service":"no","iata_code":"KHX","wikipedia_link":"https://en.wikipedia.org/wiki/Savannah_Airstrip"},"geometry":{"type":"Point","coordinates":[29.6997,-0.7165]}},{"id":"3265","type":"Feature","properties":{"ident":"HUSO","type":"medium_airport","name":"Soroti Airport","elevation_ft":"3697","continent":"AF","iso_country":"UG","iso_region":"UG-E","municipality":"Soroti","scheduled_service":"yes","icao_code":"HUSO","iata_code":"SRT","gps_code":"HUSO","wikipedia_link":"https://en.wikipedia.org/wiki/Soroti_Airport"},"geometry":{"type":"Point","coordinates":[33.622799,1.72769]}},{"id":"32476","type":"Feature","properties":{"ident":"HUTO","type":"small_airport","name":"Tororo Airport","elevation_ft":"3840","continent":"AF","iso_country":"UG","iso_region":"UG-E","municipality":"Tororo","scheduled_service":"no","icao_code":"HUTO","iata_code":"TRY","gps_code":"HUTO","wikipedia_link":"https://en.wikipedia.org/wiki/Tororo_Airport"},"geometry":{"type":"Point","coordinates":[34.167,0.683]}}]}