{"type":"FeatureCollection","features":[{"id":"41747","type":"Feature","properties":{"ident":"UZ-0060","type":"small_airport","name":"Alhi Airport","elevation_ft":"1091","continent":"AS","iso_country":"UZ","iso_region":"UZ-TO","municipality":"Alhi","scheduled_service":"no"},"geometry":{"type":"Point","coordinates":[69.13819,40.93299]}},{"id":"30672","type":"Feature","properties":{"ident":"UTKA","type":"medium_airport","name":"Andizhan Airport","elevation_ft":"1515","continent":"AS","iso_country":"UZ","iso_region":"UZ-AN","municipality":"Andizhan","scheduled_service":"yes","icao_code":"UZFA","iata_code":"AZN","gps_code":"UZFA","wikipedia_link":"https://en.wikipedia.org/wiki/Andizhan_Airport","keywords":"UTKA, Andijan Airport"},"geometry":{"type":"Point","coordinates":[72.293999,40.727699]}},{"id":"41748","type":"Feature","properties":{"ident":"UZ-0061","type":"small_airport","name":"Aradzhi Airport","elevation_ft":"311","continent":"AS","iso_country":"UZ","iso_region":"UZ-XO","municipality":"Aradzhi","scheduled_service":"no"},"geometry":{"type":"Point","coordinates":[60.421799,41.507984]}},{"id":"41707","type":"Feature","properties":{"ident":"UZ-0020","type":"small_airport","name":"Aranchi Airfield","elevation_ft":"1132","continent":"AS","iso_country":"UZ","iso_region":"UZ-TO","municipality":"Aranchi","scheduled_service":"no","keywords":"Angren, Kalinovka"},"geometry":{"type":"Point","coordinates":[69.199536,41.026817]}},{"id":"41752","type":"Feature","properties":{"ident":"UZ-0065","type":"small_airport","name":"Beruni Airport","elevation_ft":"318","continent":"AS","iso_country":"UZ","iso_region":"UZ-QR","municipality":"Beruni","scheduled_service":"no"},"geometry":{"type":"Point","coordinates":[60.715794,41.685322]}},{"id":"41693","type":"Feature","properties":{"ident":"UZ-0006","type":"small_airport","name":"Besh Kotan Airport","elevation_ft":"1063","continent":"AS","iso_country":"UZ","iso_region":"UZ-SU","municipality":"Besh Kotan","scheduled_service":"no"},"geometry":{"type":"Point","coordinates":[66.978463,37.493271]}},{"id":"26388","type":"Feature","properties":{"ident":"UTSB","type":"medium_airport","name":"Bukhara International Airport","elevation_ft":"751","continent":"AS","iso_country":"UZ","iso_region":"UZ-BU","municipality":"Bukhara","scheduled_service":"yes","icao_code":"UTSB","iata_code":"BHK","gps_code":"UTSB","wikipedia_link":"https://en.wikipedia.org/wiki/Bukhara_International_Airport","keywords":"Buhara Airport"},"geometry":{"type":"Point","coordinates":[64.483299,39.775002]}},{"id":"41753","type":"Feature","properties":{"ident":"UZ-0066","type":"small_airport","name":"Chambel Airport","elevation_ft":"2198","continent":"AS","iso_country":"UZ","iso_region":"UZ-JI","municipality":"Khatcha","scheduled_service":"no"},"geometry":{"type":"Point","coordinates":[67.143373,40.023572]}},{"id":"41696","type":"Feature","properties":{"ident":"UZ-0009","type":"small_airport","name":"Chinaz Highway Airstrip","elevation_ft":"923","continent":"AS","iso_country":"UZ","iso_region":"UZ-TO","municipality":"Chinaz","scheduled_service":"no"},"geometry":{"type":"Point","coordinates":[68.792198,40.9795]}},{"id":"26413","type":"Feature","properties":{"ident":"UA66","type":"small_airport","name":"Chirchik Airport","elevation_ft":"2296","continent":"AS","iso_country":"UZ","iso_region":"UZ-TO","municipality":"Chirchik","scheduled_service":"no","gps_code":"UTTC","local_code":"UA66"},"geometry":{"type":"Point","coordinates":[69.575401,41.5168]}},{"id":"41711","type":"Feature","properties":{"ident":"UZ-0024","type":"heliport","name":"Dehqonobod Heliport","continent":"AS","iso_country":"UZ","iso_region":"UZ-QA","municipality":"Dehqonobod","scheduled_service":"no"},"geometry":{"type":"Point","coordinates":[66.447908,38.343389]}},{"id":"41700","type":"Feature","properties":{"ident":"UZ-0013","type":"small_airport","name":"Dzhar-Tepe Airport","elevation_ft":"2022","continent":"AS","iso_country":"UZ","iso_region":"UZ-QA","municipality":"Dzhar-Tepe","scheduled_service":"no"},"geometry":{"type":"Point","coordinates":[66.7145,39.1674]}},{"id":"41764","type":"Feature","properties":{"ident":"UZ-0077","type":"small_airport","name":"Dzharkurgan East Airport","elevation_ft":"1138","continent":"AS","iso_country":"UZ","iso_region":"UZ-SU","municipality":"Dzharkurgan","scheduled_service":"no"},"geometry":{"type":"Point","coordinates":[67.472298,37.508999]}},{"id":"31118","type":"Feature","properties":{"ident":"UTKF","type":"medium_airport","name":"Fergana International Airport","elevation_ft":"1980","continent":"AS","iso_country":"UZ","iso_region":"UZ-FA","municipality":"Fergana","scheduled_service":"yes","icao_code":"UZFF","iata_code":"FEG","gps_code":"UZFF","wikipedia_link":"https://en.wikipedia.org/wiki/Fergana_International_Airport","keywords":"UTKF"},"geometry":{"type":"Point","coordinates":[71.745003,40.358799]}},{"id":"41766","type":"Feature","properties":{"ident":"UZ-0079","type":"small_airport","name":"Gilyambor Airport","elevation_ft":"1024","continent":"AS","iso_country":"UZ","iso_region":"UZ-SU","municipality":"Gilyambor","scheduled_service":"no"},"geometry":{"type":"Point","coordinates":[67.183701,37.407001]}},{"id":"41768","type":"Feature","properties":{"ident":"UZ-0081","type":"small_airport","name":"Gulistan North Airport","elevation_ft":"893","continent":"AS","iso_country":"UZ","iso_region":"UZ-SI","municipality":"Gulistan","scheduled_service":"no"},"geometry":{"type":"Point","coordinates":[68.798999,40.51276]}},{"id":"41706","type":"Feature","properties":{"ident":"UZ-0019","type":"small_airport","name":"Imeni Kirova Airport","elevation_ft":"875","continent":"AS","iso_country":"UZ","iso_region":"UZ-SI","municipality":"Imeni Kirova","scheduled_service":"no"},"geometry":{"type":"Point","coordinates":[68.617562,40.633514]}},{"id":"26416","type":"Feature","properties":{"ident":"UT1M","type":"small_airport","name":"Kakaydy Airport","elevation_ft":"1207","continent":"AS","iso_country":"UZ","iso_region":"UZ-SU","municipality":"Goran","scheduled_service":"no","gps_code":"UT1M","local_code":"UT1M"},"geometry":{"type":"Point","coordinates":[67.517601,37.624298]}},{"id":"41708","type":"Feature","properties":{"ident":"UZ-0021","type":"small_airport","name":"Kamashi Airport","elevation_ft":"1780","continent":"AS","iso_country":"UZ","iso_region":"UZ-QA","municipality":"Kamashi","scheduled_service":"no"},"geometry":{"type":"Point","coordinates":[66.529602,38.804401]}},{"id":"41709","type":"Feature","properties":{"ident":"UZ-0022","type":"small_airport","name":"Kara Kalpak Airport","elevation_ft":"1229","continent":"AS","iso_country":"UZ","iso_region":"UZ-NG","municipality":"Kara Kalpak","scheduled_service":"no"},"geometry":{"type":"Point","coordinates":[71.189201,40.803398]}},{"id":"26417","type":"Feature","properties":{"ident":"UTSK","type":"small_airport","name":"Karshi Airport","elevation_ft":"1230","continent":"AS","iso_country":"UZ","iso_region":"UZ-QA","municipality":"Karshi","scheduled_service":"yes","icao_code":"UTSK","iata_code":"KSQ","gps_code":"UTSK","local_code":"UT1N","wikipedia_link":"https://en.wikipedia.org/wiki/Karshi_Airport","keywords":"Qarshi Airport"},"geometry":{"type":"Point","coordinates":[65.773068,38.802246]}},{"id":"26389","type":"Feature","properties":{"ident":"UTSL","type":"small_airport","name":"Karshi-Khanabad Air Base","elevation_ft":"1365","continent":"AS","iso_country":"UZ","iso_region":"UZ-QA","municipality":"Khanabad","scheduled_service":"no","gps_code":"UTSL","wikipedia_link":"https://en.wikipedia.org/wiki/Karshi-Khanabad_Air_Base","keywords":"UTSL, K2 Air Base, Qarshi Khanabad Airport"},"geometry":{"type":"Point","coordinates":[65.921501,38.833599]}},{"id":"41782","type":"Feature","properties":{"ident":"UZ-0095","type":"small_airport","name":"Karyz Airport","elevation_ft":"1674","continent":"AS","iso_country":"UZ","iso_region":"UZ-QA","municipality":"Ayman","scheduled_service":"no"},"geometry":{"type":"Point","coordinates":[66.518898,39.0186]}},{"id":"41783","type":"Feature","properties":{"ident":"UZ-0096","type":"small_airport","name":"Kasan Southwest Airport","elevation_ft":"1113","continent":"AS","iso_country":"UZ","iso_region":"UZ-QA","municipality":"Kasan","scheduled_service":"no"},"geometry":{"type":"Point","coordinates":[65.533699,39.021198]}},{"id":"41710","type":"Feature","properties":{"ident":"UZ-0023","type":"small_airport","name":"Kayki Airport","elevation_ft":"1570","continent":"AS","iso_country":"UZ","iso_region":"UZ-NG","municipality":"Kayki","scheduled_service":"no"},"geometry":{"type":"Point","coordinates":[72.028289,41.078374]}},{"id":"41788","type":"Feature","properties":{"ident":"UZ-0101","type":"small_airport","name":"Khavast Airport","elevation_ft":"1230","continent":"AS","iso_country":"UZ","iso_region":"UZ-SI","municipality":"Kahvast","scheduled_service":"no"},"geometry":{"type":"Point","coordinates":[68.853511,40.199849]}},{"id":"26419","type":"Feature","properties":{"ident":"UT1P","type":"small_airport","name":"Kogon South Airport","elevation_ft":"689","continent":"AS","iso_country":"UZ","iso_region":"UZ-BU","municipality":"Kogon","scheduled_service":"no","gps_code":"UT1P","local_code":"UT1P"},"geometry":{"type":"Point","coordinates":[64.548161,39.686776]}},{"id":"41794","type":"Feature","properties":{"ident":"UTKK","type":"small_airport","name":"Kokand Airport","elevation_ft":"1357","continent":"AS","iso_country":"UZ","iso_region":"UZ-FA","municipality":"Kokand","scheduled_service":"no","iata_code":"OQN","gps_code":"UTKK","keywords":"Kokand South"},"geometry":{"type":"Point","coordinates":[70.989144,40.447183]}},{"id":"41712","type":"Feature","properties":{"ident":"UZ-0025","type":"small_airport","name":"Kokand Southeast Airport","elevation_ft":"1890","continent":"AS","iso_country":"UZ","iso_region":"UZ-FA","municipality":"Kokand","scheduled_service":"no"},"geometry":{"type":"Point","coordinates":[71.093859,40.377905]}},{"id":"26429","type":"Feature","properties":{"ident":"UZ-UT77","type":"small_airport","name":"Kungirot Airport","elevation_ft":"180","continent":"AS","iso_country":"UZ","iso_region":"UZ-QR","municipality":"Kungirot","scheduled_service":"no","local_code":"UT77","keywords":"Kungrad"},"geometry":{"type":"Point","coordinates":[58.885077,43.082662]}},{"id":"41699","type":"Feature","properties":{"ident":"UZ-0012","type":"small_airport","name":"Kunkhodzha Airport","elevation_ft":"300","continent":"AS","iso_country":"UZ","iso_region":"UZ-QR","municipality":"Kunkhodzha","scheduled_service":"no","keywords":"Dzhangabirlyk West"},"geometry":{"type":"Point","coordinates":[58.3736,43.118801]}},{"id":"41715","type":"Feature","properties":{"ident":"UZ-0028","type":"small_airport","name":"Kuva Southeast Airport","elevation_ft":"1973","continent":"AS","iso_country":"UZ","iso_region":"UZ-AN","municipality":"Markhamat","scheduled_service":"no","keywords":"AG3808, FR38715"},"geometry":{"type":"Point","coordinates":[72.280825,40.483441]}},{"id":"41716","type":"Feature","properties":{"ident":"UZ-0029","type":"small_airport","name":"Kuva West Airport","elevation_ft":"1591","continent":"AS","iso_country":"UZ","iso_region":"UZ-FA","municipality":"Ramadan","scheduled_service":"no"},"geometry":{"type":"Point","coordinates":[71.902458,40.504785]}},{"id":"351310","type":"Feature","properties":{"ident":"UZ-0151","type":"heliport","name":"Maidanak Training Base Heliport","elevation_ft":"8904","continent":"AS","iso_country":"UZ","iso_region":"UZ-QA","municipality":"Chit","scheduled_service":"no"},"geometry":{"type":"Point","coordinates":[66.94912,38.68432]}},{"id":"41800","type":"Feature","properties":{"ident":"UZ-0112","type":"small_airport","name":"Malekskaya Airport","elevation_ft":"865","continent":"AS","iso_country":"UZ","iso_region":"UZ-SI","municipality":"Malekskaya","scheduled_service":"no"},"geometry":{"type":"Point","coordinates":[68.581698,40.709064]}},{"id":"26427","type":"Feature","properties":{"ident":"UZ-UT73","type":"small_airport","name":"Maymanak Airport","elevation_ft":"1047","continent":"AS","iso_country":"UZ","iso_region":"UZ-QA","municipality":"Maynanak","scheduled_service":"no","local_code":"UT73"},"geometry":{"type":"Point","coordinates":[65.165298,39.137798]}},{"id":"41717","type":"Feature","properties":{"ident":"UZ-0030","type":"small_airport","name":"Muglan Airport","elevation_ft":"1050","continent":"AS","iso_country":"UZ","iso_region":"UZ-QA","municipality":"Muglan","scheduled_service":"no"},"geometry":{"type":"Point","coordinates":[65.396698,38.901798]}},{"id":"41718","type":"Feature","properties":{"ident":"UZ-0031","type":"small_airport","name":"Muruntau Southeast Airport","elevation_ft":"1340","continent":"AS","iso_country":"UZ","iso_region":"UZ-NW","municipality":"Muruntau","scheduled_service":"no"},"geometry":{"type":"Point","coordinates":[64.666077,41.471165]}},{"id":"32558","type":"Feature","properties":{"ident":"UTNM","type":"small_airport","name":"Muynak Airport","elevation_ft":"177","continent":"AS","iso_country":"UZ","iso_region":"UZ-QR","municipality":"Muynak","scheduled_service":"no","icao_code":"UTNM","iata_code":"MOK","gps_code":"UTNM","wikipedia_link":"https://en.wikipedia.org/wiki/Muynak_Airport"},"geometry":{"type":"Point","coordinates":[59.029884,43.753636]}},{"id":"41804","type":"Feature","properties":{"ident":"UZ-0116","type":"small_airport","name":"Nadezhdinskoye Airport","elevation_ft":"886","continent":"AS","iso_country":"UZ","iso_region":"UZ-SI","municipality":"Obetovanni","scheduled_service":"no"},"geometry":{"type":"Point","coordinates":[68.939903,40.623501]}},{"id":"32038","type":"Feature","properties":{"ident":"UTFN","type":"small_airport","name":"Namangan Airport","elevation_ft":"1555","continent":"AS","iso_country":"UZ","iso_region":"UZ-NG","municipality":"Namangan","scheduled_service":"yes","icao_code":"UTFN","iata_code":"NMA","gps_code":"UTFN","wikipedia_link":"https://en.wikipedia.org/wiki/Namangan_Airport"},"geometry":{"type":"Point","coordinates":[71.556702,40.9846]}},{"id":"41719","type":"Feature","properties":{"ident":"UZ-0032","type":"small_airport","name":"Namangan Northeast Airport","elevation_ft":"1591","continent":"AS","iso_country":"UZ","iso_region":"UZ-NG","municipality":"Namangan","scheduled_service":"no"},"geometry":{"type":"Point","coordinates":[71.786989,41.044891]}},{"id":"41720","type":"Feature","properties":{"ident":"UZ-0033","type":"small_airport","name":"Naubag Airport","elevation_ft":"1264","continent":"AS","iso_country":"UZ","iso_region":"UZ-SU","municipality":"Akkurgan","scheduled_service":"no"},"geometry":{"type":"Point","coordinates":[66.973801,37.652901]}},{"id":"32561","type":"Feature","properties":{"ident":"UTSA","type":"medium_airport","name":"Navoi Airport","elevation_ft":"1140","continent":"AS","iso_country":"UZ","iso_region":"UZ-NW","municipality":"Navoi","scheduled_service":"yes","icao_code":"UTSA","iata_code":"NVI","gps_code":"UTSA","wikipedia_link":"https://en.wikipedia.org/wiki/Navoi_International_Airport"},"geometry":{"type":"Point","coordinates":[65.170799,40.117199]}},{"id":"41721","type":"Feature","properties":{"ident":"UZ-0034","type":"small_airport","name":"Nishan Airport","elevation_ft":"1165","continent":"AS","iso_country":"UZ","iso_region":"UZ-QA","municipality":"Nishan","scheduled_service":"no"},"geometry":{"type":"Point","coordinates":[65.609703,38.589199]}},{"id":"32013","type":"Feature","properties":{"ident":"UTNN","type":"medium_airport","name":"Nukus Airport","elevation_ft":"246","continent":"AS","iso_country":"UZ","iso_region":"UZ-QR","municipality":"Nukus","scheduled_service":"yes","icao_code":"UTNN","iata_code":"NCU","gps_code":"UTNN","wikipedia_link":"https://en.m.wikipedia.org/wiki/Nukus_Airport"},"geometry":{"type":"Point","coordinates":[59.623299,42.4884]}},{"id":"41722","type":"Feature","properties":{"ident":"UZ-0035","type":"small_airport","name":"Nukus South Airport","elevation_ft":"240","continent":"AS","iso_country":"UZ","iso_region":"UZ-QR","municipality":"Nukus","scheduled_service":"no"},"geometry":{"type":"Point","coordinates":[59.516998,42.363602]}},{"id":"41724","type":"Feature","properties":{"ident":"UZ-0037","type":"small_airport","name":"Ostrov Vozrozhdeniya Airport","elevation_ft":"232","continent":"AS","iso_country":"UZ","iso_region":"UZ-QR","municipality":"Kantubek","scheduled_service":"no"},"geometry":{"type":"Point","coordinates":[59.301882,45.159148]}},{"id":"26420","type":"Feature","properties":{"ident":"UT1Q","type":"small_airport","name":"Pakhtakor Airport","elevation_ft":"1023","continent":"AS","iso_country":"UZ","iso_region":"UZ-JI","municipality":"Pakhtakor","scheduled_service":"no","gps_code":"UT1Q","local_code":"UT1Q"},"geometry":{"type":"Point","coordinates":[67.910797,40.252701]}},{"id":"41807","type":"Feature","properties":{"ident":"UZ-0119","type":"small_airport","name":"Pap East Airport","elevation_ft":"1410","continent":"AS","iso_country":"UZ","iso_region":"UZ-NG","municipality":"Khalkabad","scheduled_service":"no"},"geometry":{"type":"Point","coordinates":[71.181217,40.88519]}},{"id":"26390","type":"Feature","properties":{"ident":"UTSS","type":"medium_airport","name":"Samarkand Airport","elevation_ft":"2224","continent":"AS","iso_country":"UZ","iso_region":"UZ-SA","municipality":"Samarkand","scheduled_service":"yes","icao_code":"UTSS","iata_code":"SKD","gps_code":"UTSS","wikipedia_link":"https://en.wikipedia.org/wiki/Samarkand_Airport"},"geometry":{"type":"Point","coordinates":[66.983803,39.7005]}},{"id":"41686","type":"Feature","properties":{"ident":"UTSR","type":"small_airport","name":"Sariasiya Airport","elevation_ft":"1949","continent":"AS","iso_country":"UZ","iso_region":"UZ-SU","municipality":"Sariasiya","scheduled_service":"no","gps_code":"UTSR"},"geometry":{"type":"Point","coordinates":[67.945198,38.410599]}},{"id":"41812","type":"Feature","properties":{"ident":"UTSH","type":"small_airport","name":"Shahrisabz Airport","elevation_ft":"1900","continent":"AS","iso_country":"UZ","iso_region":"UZ-QA","municipality":"Shahrisabz","scheduled_service":"no","gps_code":"UTSH"},"geometry":{"type":"Point","coordinates":[66.758388,39.068003]}},{"id":"41813","type":"Feature","properties":{"ident":"UZ-0124","type":"small_airport","name":"Shahrisabz Southwest Airport","elevation_ft":"1940","continent":"AS","iso_country":"UZ","iso_region":"UZ-QA","municipality":"Shahrisabz","scheduled_service":"no","iata_code":"RBZ"},"geometry":{"type":"Point","coordinates":[66.775825,39.030067]}},{"id":"41815","type":"Feature","properties":{"ident":"UZ-0126","type":"small_airport","name":"Shamenay Airport","elevation_ft":"218","continent":"AS","iso_country":"UZ","iso_region":"UZ-QR","municipality":"Shamenay","scheduled_service":"no"},"geometry":{"type":"Point","coordinates":[58.917198,42.638599]}},{"id":"41729","type":"Feature","properties":{"ident":"UZ-0042","type":"small_airport","name":"Shirabad Northeast Airport","elevation_ft":"1313","continent":"AS","iso_country":"UZ","iso_region":"UZ-SU","municipality":"Shirabad","scheduled_service":"no"},"geometry":{"type":"Point","coordinates":[67.0504,37.690399]}},{"id":"41730","type":"Feature","properties":{"ident":"UZ-0043","type":"small_airport","name":"Shur Ob East Airport","elevation_ft":"936","continent":"AS","iso_country":"UZ","iso_region":"UZ-SU","municipality":"Shur Ob","scheduled_service":"no"},"geometry":{"type":"Point","coordinates":[67.039902,37.3951]}},{"id":"41733","type":"Feature","properties":{"ident":"UZ-0046","type":"small_airport","name":"Statsiya Yakkabag Airport","elevation_ft":"1970","continent":"AS","iso_country":"UZ","iso_region":"UZ-QA","municipality":"Yakkabag","scheduled_service":"no"},"geometry":{"type":"Point","coordinates":[66.726805,38.975366]}},{"id":"41685","type":"Feature","properties":{"ident":"UTSN","type":"small_airport","name":"Sugraly Airport","elevation_ft":"1396","continent":"AS","iso_country":"UZ","iso_region":"UZ-NW","municipality":"Zarafshan","scheduled_service":"yes","icao_code":"UTSN","iata_code":"AFS","gps_code":"UTSN","wikipedia_link":"https://en.wikipedia.org/wiki/Zarafshan_Airport"},"geometry":{"type":"Point","coordinates":[64.2332,41.613899]}},{"id":"429865","type":"Feature","properties":{"ident":"UZ-0153","type":"small_airport","name":"Suh airport","continent":"AS","iso_country":"UZ","iso_region":"UZ-FA","scheduled_service":"no"},"geometry":{"type":"Point","coordinates":[71.124615,39.987179]}},{"id":"41819","type":"Feature","properties":{"ident":"UZ-0130","type":"small_airport","name":"Surkhany Airport","elevation_ft":"1305","continent":"AS","iso_country":"UZ","iso_region":"UZ-SU","municipality":"Surkhany","scheduled_service":"no"},"geometry":{"type":"Point","coordinates":[67.577003,37.730598]}},{"id":"41734","type":"Feature","properties":{"ident":"UZ-0047","type":"small_airport","name":"Syrdarya Airport","elevation_ft":"858","continent":"AS","iso_country":"UZ","iso_region":"UZ-SI","municipality":"Syrdarya","scheduled_service":"no"},"geometry":{"type":"Point","coordinates":[68.687698,40.809101]}},{"id":"41735","type":"Feature","properties":{"ident":"UZ-0048","type":"small_airport","name":"Syrdarya Highway Southwest Airstrip","elevation_ft":"864","continent":"AS","iso_country":"UZ","iso_region":"UZ-JI","municipality":"Syrdaya","scheduled_service":"no"},"geometry":{"type":"Point","coordinates":[68.563599,40.772499]}},{"id":"351309","type":"Feature","properties":{"ident":"UZ-0150","type":"heliport","name":"Tahtakupir Heliport","elevation_ft":"190","continent":"AS","iso_country":"UZ","iso_region":"UZ-QR","municipality":"Tahtakupir","scheduled_service":"no"},"geometry":{"type":"Point","coordinates":[60.25968,43.03831]}},{"id":"41821","type":"Feature","properties":{"ident":"UTSM","type":"small_airport","name":"Tandy Bulak Airport","elevation_ft":"716","continent":"AS","iso_country":"UZ","iso_region":"UZ-NW","municipality":"Tandy Bulak","scheduled_service":"no","gps_code":"UTSM"},"geometry":{"type":"Point","coordinates":[64.602402,41.760792]}},{"id":"41738","type":"Feature","properties":{"ident":"UZ-0051","type":"small_airport","name":"Tashkent Angor Airport","elevation_ft":"1041","continent":"AS","iso_country":"UZ","iso_region":"UZ-SU","municipality":"Tashkent","scheduled_service":"no"},"geometry":{"type":"Point","coordinates":[67.078743,37.464258]}},{"id":"41687","type":"Feature","properties":{"ident":"UTTP","type":"medium_airport","name":"Tashkent East Airport","elevation_ft":"1574","continent":"AS","iso_country":"UZ","iso_region":"UZ-TO","municipality":"Tashkent","scheduled_service":"yes","icao_code":"UZTP","gps_code":"UZTP","wikipedia_link":"https://uz.wikipedia.org/wiki/Toshkent-sharqiy_aerodromi","keywords":"Tashkent Vostochny Airport"},"geometry":{"type":"Point","coordinates":[69.395535,41.312889]}},{"id":"26392","type":"Feature","properties":{"ident":"UTTT","type":"large_airport","name":"Tashkent International Airport","elevation_ft":"1417","continent":"AS","iso_country":"UZ","iso_region":"UZ-TO","municipality":"Tashkent","scheduled_service":"yes","icao_code":"UZTT","iata_code":"TAS","gps_code":"UZTT","wikipedia_link":"https://en.wikipedia.org/wiki/Tashkent_International_Airport"},"geometry":{"type":"Point","coordinates":[69.281197,41.2579]}},{"id":"26391","type":"Feature","properties":{"ident":"UTST","type":"medium_airport","name":"Termez Airport","elevation_ft":"1027","continent":"AS","iso_country":"UZ","iso_region":"UZ-SU","municipality":"Termez","scheduled_service":"yes","icao_code":"UTST","iata_code":"TMJ","gps_code":"UTST","wikipedia_link":"https://en.wikipedia.org/wiki/Termez_Airport"},"geometry":{"type":"Point","coordinates":[67.311869,37.287261]}},{"id":"319901","type":"Feature","properties":{"ident":"UZ-0147","type":"small_airport","name":"Tomar Ozek Airport","elevation_ft":"185","continent":"AS","iso_country":"UZ","iso_region":"UZ-QR","municipality":"Potlatau","scheduled_service":"no"},"geometry":{"type":"Point","coordinates":[59.267,43.615]}},{"id":"32559","type":"Feature","properties":{"ident":"UTNT","type":"small_airport","name":"Turtkul Airport","elevation_ft":"305","continent":"AS","iso_country":"UZ","iso_region":"UZ-QR","municipality":"Turtkul","scheduled_service":"no","gps_code":"UTNT"},"geometry":{"type":"Point","coordinates":[60.966599,41.575001]}},{"id":"32562","type":"Feature","properties":{"ident":"UTSU","type":"small_airport","name":"Uchkuduk Airport","elevation_ft":"416","continent":"AS","iso_country":"UZ","iso_region":"UZ-NW","municipality":"Uchkuduk","scheduled_service":"no","gps_code":"UTSU"},"geometry":{"type":"Point","coordinates":[63.449299,42.083099]}},{"id":"41741","type":"Feature","properties":{"ident":"UZ-0054","type":"small_airport","name":"Uchkurgan Southeast Airport","elevation_ft":"1562","continent":"AS","iso_country":"UZ","iso_region":"UZ-NG","municipality":"Uchkurgan","scheduled_service":"no"},"geometry":{"type":"Point","coordinates":[72.116494,41.046854]}},{"id":"26387","type":"Feature","properties":{"ident":"UTNU","type":"medium_airport","name":"Urgench Airport","elevation_ft":"320","continent":"AS","iso_country":"UZ","iso_region":"UZ-XO","municipality":"Urgench","scheduled_service":"yes","icao_code":"UTNU","iata_code":"UGC","gps_code":"UTNU","wikipedia_link":"https://en.wikipedia.org/wiki/Urgench_Airport"},"geometry":{"type":"Point","coordinates":[60.641701,41.584301]}},{"id":"41743","type":"Feature","properties":{"ident":"UZ-0056","type":"small_airport","name":"Uychi Southeast Airport","elevation_ft":"1440","continent":"AS","iso_country":"UZ","iso_region":"UZ-NG","municipality":"Uychi","scheduled_service":"no"},"geometry":{"type":"Point","coordinates":[71.9487,41.0098]}},{"id":"41826","type":"Feature","properties":{"ident":"UZ-0136","type":"small_airport","name":"Yangi Aryn Airport","elevation_ft":"311","continent":"AS","iso_country":"UZ","iso_region":"UZ-XO","municipality":"Yangi Aryn","scheduled_service":"no"},"geometry":{"type":"Point","coordinates":[60.599308,41.356091]}},{"id":"41833","type":"Feature","properties":{"ident":"UZ-0143","type":"small_airport","name":"Yangiturmysh Airport","elevation_ft":"980","continent":"AS","iso_country":"UZ","iso_region":"UZ-TO","municipality":"Yangiturmish","scheduled_service":"no"},"geometry":{"type":"Point","coordinates":[69.080399,40.716099]}},{"id":"598248","type":"Feature","properties":{"ident":"UTTZ","type":"medium_airport","name":"Zomin Airport","elevation_ft":"1760","continent":"AS","iso_country":"UZ","iso_region":"UZ-JI","municipality":"Zaamin","scheduled_service":"yes","icao_code":"UTTZ","iata_code":"OMN","gps_code":"UTTZ","wikipedia_link":"https://en.wikipedia.org/wiki/Zomin_Airport"},"geometry":{"type":"Point","coordinates":[68.41103,40.01402]}}]}