{"type":"FeatureCollection","features":[{"id":"40352","type":"Feature","properties":{"ident":"VE-0003","type":"heliport","name":"Acarigua Heliport","elevation_ft":"705","continent":"SA","iso_country":"VE","iso_region":"VE-P","municipality":"Acarigua","scheduled_service":"no"},"geometry":{"type":"Point","coordinates":[-69.241566,9.542195]}},{"id":"40350","type":"Feature","properties":{"ident":"VE-0001","type":"small_airport","name":"Acañana Airport","elevation_ft":"418","continent":"SA","iso_country":"VE","iso_region":"VE-Z","scheduled_service":"no"},"geometry":{"type":"Point","coordinates":[-65.949997,3.233333]}},{"id":"40351","type":"Feature","properties":{"ident":"VE-0002","type":"heliport","name":"Acañana Heliport","elevation_ft":"460","continent":"SA","iso_country":"VE","iso_region":"VE-Z","scheduled_service":"no"},"geometry":{"type":"Point","coordinates":[-65.949997,3.233333]}},{"id":"40353","type":"Feature","properties":{"ident":"VE-0004","type":"heliport","name":"Accro  Heliport","elevation_ft":"643","continent":"SA","iso_country":"VE","iso_region":"VE-N","scheduled_service":"no"},"geometry":{"type":"Point","coordinates":[-63.635166,9.58]}},{"id":"40099","type":"Feature","properties":{"ident":"SVCH","type":"small_airport","name":"Achaguas Airport","elevation_ft":"187","continent":"SA","iso_country":"VE","iso_region":"VE-C","scheduled_service":"no","gps_code":"SVCH"},"geometry":{"type":"Point","coordinates":[-68.239998,7.74]}},{"id":"32393","type":"Feature","properties":{"ident":"SVAR","type":"small_airport","name":"Adícora Airport","elevation_ft":"7","continent":"SA","iso_country":"VE","iso_region":"VE-I","municipality":"Adícora","scheduled_service":"no","gps_code":"SVAD"},"geometry":{"type":"Point","coordinates":[-69.811965,11.936079]}},{"id":"40354","type":"Feature","properties":{"ident":"VE-0005","type":"heliport","name":"Aeroatun  Heliport","elevation_ft":"11","continent":"SA","iso_country":"VE","iso_region":"VE-R","municipality":"Cumaná","scheduled_service":"no"},"geometry":{"type":"Point","coordinates":[-64.184998,10.471667]}},{"id":"341794","type":"Feature","properties":{"ident":"VE-0214","type":"small_airport","name":"Aerofumigaciones Campo Alegre Airstrip","continent":"SA","iso_country":"VE","iso_region":"VE-H","municipality":"Campo Alegre","scheduled_service":"no"},"geometry":{"type":"Point","coordinates":[-68.677618,9.453367]}},{"id":"40355","type":"Feature","properties":{"ident":"VE-0006","type":"heliport","name":"Aeroservicios Ranger  Heliport","elevation_ft":"525","continent":"SA","iso_country":"VE","iso_region":"VE-F","municipality":"Tumeremo","scheduled_service":"no"},"geometry":{"type":"Point","coordinates":[-61.501389,7.300556]}},{"id":"40356","type":"Feature","properties":{"ident":"VE-0007","type":"heliport","name":"Aerotécnica  Heliport","elevation_ft":"720","continent":"SA","iso_country":"VE","iso_region":"VE-P","municipality":"Acarigua","scheduled_service":"no"},"geometry":{"type":"Point","coordinates":[-69.223776,9.538128]}},{"id":"40357","type":"Feature","properties":{"ident":"VE-0008","type":"small_airport","name":"Agropecuaria Cuajarote Airport","elevation_ft":"400","continent":"SA","iso_country":"VE","iso_region":"VE-J","scheduled_service":"no"},"geometry":{"type":"Point","coordinates":[-67.558334,9.258333]}},{"id":"40141","type":"Feature","properties":{"ident":"SVGA","type":"small_airport","name":"Agropecuaria Gamma Airport","elevation_ft":"495","continent":"SA","iso_country":"VE","iso_region":"VE-E","scheduled_service":"no","gps_code":"SVGA"},"geometry":{"type":"Point","coordinates":[-70,8.75]}},{"id":"40143","type":"Feature","properties":{"ident":"SVGG","type":"small_airport","name":"Agropecuaria Los Araguaneyes Airport","elevation_ft":"507","continent":"SA","iso_country":"VE","iso_region":"VE-N","scheduled_service":"no","gps_code":"SVGG"},"geometry":{"type":"Point","coordinates":[-63.049999,9.583333]}},{"id":"40304","type":"Feature","properties":{"ident":"SVSI","type":"small_airport","name":"Agropecuaria San Francisco Airport","elevation_ft":"249","continent":"SA","iso_country":"VE","iso_region":"VE-H","scheduled_service":"no","gps_code":"SVSI"},"geometry":{"type":"Point","coordinates":[-68.083336,8.95]}},{"id":"40079","type":"Feature","properties":{"ident":"SVAU","type":"small_airport","name":"Agua Clara Airport","elevation_ft":"328","continent":"SA","iso_country":"VE","iso_region":"VE-C","scheduled_service":"no","gps_code":"SVAU"},"geometry":{"type":"Point","coordinates":[-68.333336,6.75]}},{"id":"40145","type":"Feature","properties":{"ident":"SVGL","type":"small_airport","name":"Agua Linda Airport","elevation_ft":"417","continent":"SA","iso_country":"VE","iso_region":"VE-E","scheduled_service":"no","gps_code":"SVGL"},"geometry":{"type":"Point","coordinates":[-70.849998,7.635]}},{"id":"40358","type":"Feature","properties":{"ident":"VE-0009","type":"heliport","name":"Aguasay  Heliport","elevation_ft":"634","continent":"SA","iso_country":"VE","iso_region":"VE-N","municipality":"Aguasay","scheduled_service":"no"},"geometry":{"type":"Point","coordinates":[-63.738335,9.421667]}},{"id":"6298","type":"Feature","properties":{"ident":"SVMD","type":"medium_airport","name":"Alberto Carnevalli Airport","elevation_ft":"5007","continent":"SA","iso_country":"VE","iso_region":"VE-L","municipality":"Mérida","scheduled_service":"no","icao_code":"SVMD","iata_code":"MRD","gps_code":"SVMD","wikipedia_link":"https://en.wikipedia.org/wiki/Alberto_Carnevalli_Airport"},"geometry":{"type":"Point","coordinates":[-71.161041,8.582078]}},{"id":"40074","type":"Feature","properties":{"ident":"SVAL","type":"small_airport","name":"Algodonal Airport","elevation_ft":"574","continent":"SA","iso_country":"VE","iso_region":"VE-E","scheduled_service":"no","gps_code":"SVAL"},"geometry":{"type":"Point","coordinates":[-69.51667,8.35]}},{"id":"40076","type":"Feature","properties":{"ident":"SVAO","type":"small_airport","name":"Altagracia de Orituco Airport","elevation_ft":"1148","continent":"SA","iso_country":"VE","iso_region":"VE-J","scheduled_service":"no","gps_code":"SVAO"},"geometry":{"type":"Point","coordinates":[-66.293335,9.863333]}},{"id":"40359","type":"Feature","properties":{"ident":"VE-0010","type":"heliport","name":"Alto Ipare  Heliport","elevation_ft":"1278","continent":"SA","iso_country":"VE","iso_region":"VE-J","municipality":"Altagracia de Orituco","scheduled_service":"no"},"geometry":{"type":"Point","coordinates":[-66.308334,9.871667]}},{"id":"6251","type":"Feature","properties":{"ident":"SVAN","type":"medium_airport","name":"Anaco Airport","elevation_ft":"721","continent":"SA","iso_country":"VE","iso_region":"VE-B","municipality":"Anaco","scheduled_service":"no","icao_code":"SVAN","iata_code":"AAO","gps_code":"SVAN","wikipedia_link":"https://en.wikipedia.org/wiki/Anaco_Airport"},"geometry":{"type":"Point","coordinates":[-64.470726,9.430225]}},{"id":"6291","type":"Feature","properties":{"ident":"SVIE","type":"small_airport","name":"Andrés Miguel Salazar Marcano Airport","elevation_ft":"10","continent":"SA","iso_country":"VE","iso_region":"VE-O","municipality":"Isla de Coche","scheduled_service":"yes","icao_code":"SVIE","iata_code":"ICC","gps_code":"SVIE","wikipedia_link":"https://en.wikipedia.org/wiki/Andr%C3%A9s_Miguel_Salazar_Marcano_Airport"},"geometry":{"type":"Point","coordinates":[-63.98159,10.794432]}},{"id":"40318","type":"Feature","properties":{"ident":"SVTE","type":"small_airport","name":"Antabare Airport","elevation_ft":"1204","continent":"SA","iso_country":"VE","iso_region":"VE-F","scheduled_service":"no","gps_code":"SVTE"},"geometry":{"type":"Point","coordinates":[-62.883331,6.483333]}},{"id":"341702","type":"Feature","properties":{"ident":"VE-0212","type":"heliport","name":"Apartaderos Heliport","continent":"SA","iso_country":"VE","iso_region":"VE-P","municipality":"Apartaderos","scheduled_service":"no"},"geometry":{"type":"Point","coordinates":[-68.952097,9.687776]}},{"id":"40077","type":"Feature","properties":{"ident":"SVAP","type":"small_airport","name":"Apurito Airport","elevation_ft":"295","continent":"SA","iso_country":"VE","iso_region":"VE-C","municipality":"Apurito","scheduled_service":"no","gps_code":"SVAP"},"geometry":{"type":"Point","coordinates":[-68.483002,7.91885]}},{"id":"40281","type":"Feature","properties":{"ident":"SVRE","type":"small_airport","name":"Aracay Abajo Airport","elevation_ft":"420","continent":"SA","iso_country":"VE","iso_region":"VE-J","scheduled_service":"no","gps_code":"SVRE"},"geometry":{"type":"Point","coordinates":[-65.866669,8.393333]}},{"id":"40360","type":"Feature","properties":{"ident":"VE-0011","type":"heliport","name":"Araguay Mujo  Heliport","elevation_ft":"757","continent":"SA","iso_country":"VE","iso_region":"VE-N","municipality":"Aragua de Maturín","scheduled_service":"no"},"geometry":{"type":"Point","coordinates":[-63.5,9.933333]}},{"id":"40082","type":"Feature","properties":{"ident":"SVAY","type":"small_airport","name":"Araya Airport","elevation_ft":"33","continent":"SA","iso_country":"VE","iso_region":"VE-R","scheduled_service":"no","icao_code":"SVAA","gps_code":"SVAA"},"geometry":{"type":"Point","coordinates":[-64.272011,10.597324]}},{"id":"40361","type":"Feature","properties":{"ident":"VE-0012","type":"small_airport","name":"Arekuna Airport","elevation_ft":"1192","continent":"SA","iso_country":"VE","iso_region":"VE-F","municipality":"Canaima","scheduled_service":"no"},"geometry":{"type":"Point","coordinates":[-62.891666,6.483333]}},{"id":"26484","type":"Feature","properties":{"ident":"SV74","type":"small_airport","name":"Aricuaisa Airport","elevation_ft":"165","continent":"SA","iso_country":"VE","iso_region":"VE-V","scheduled_service":"no","gps_code":"SV74"},"geometry":{"type":"Point","coordinates":[-72.788002,9.58187]}},{"id":"40362","type":"Feature","properties":{"ident":"VE-0013","type":"heliport","name":"Aripao  Heliport","elevation_ft":"259","continent":"SA","iso_country":"VE","iso_region":"VE-F","scheduled_service":"no"},"geometry":{"type":"Point","coordinates":[-65.167503,7.039167]}},{"id":"40363","type":"Feature","properties":{"ident":"VE-0014","type":"small_airport","name":"Arismendi Airport","elevation_ft":"225","continent":"SA","iso_country":"VE","iso_region":"VE-E","municipality":"Arismendi","scheduled_service":"no"},"geometry":{"type":"Point","coordinates":[-68.366943,8.484167]}},{"id":"6252","type":"Feature","properties":{"ident":"SVAS","type":"small_airport","name":"Armando Schwarck Airport","elevation_ft":"266","continent":"SA","iso_country":"VE","iso_region":"VE-F","municipality":"Guayabal","scheduled_service":"no","iata_code":"LPJ","gps_code":"SVAS","wikipedia_link":"https://es.wikipedia.org/wiki/Aeropuerto_Armando_Schwarck"},"geometry":{"type":"Point","coordinates":[-66.816902,6.57805]}},{"id":"6334","type":"Feature","properties":{"ident":"SVVA","type":"medium_airport","name":"Arturo Michelena International Airport","elevation_ft":"1411","continent":"SA","iso_country":"VE","iso_region":"VE-G","municipality":"Valencia","scheduled_service":"yes","icao_code":"SVVA","iata_code":"VLN","gps_code":"SVVA","wikipedia_link":"https://en.wikipedia.org/wiki/Arturo_Michelena_International_Airport"},"geometry":{"type":"Point","coordinates":[-67.928398,10.149733]}},{"id":"40364","type":"Feature","properties":{"ident":"VE-0015","type":"small_airport","name":"Asisa (Alto Asisa) Airpòrt","elevation_ft":"786","continent":"SA","iso_country":"VE","iso_region":"VE-Z","scheduled_service":"no"},"geometry":{"type":"Point","coordinates":[-65.769165,4.468889]}},{"id":"40365","type":"Feature","properties":{"ident":"VE-0016","type":"small_airport","name":"Asita Airport","elevation_ft":"690","continent":"SA","iso_country":"VE","iso_region":"VE-Z","scheduled_service":"no"},"geometry":{"type":"Point","coordinates":[-65.583336,5.2]}},{"id":"40366","type":"Feature","properties":{"ident":"VE-0017","type":"heliport","name":"Avila  Heliport","elevation_ft":"1808","continent":"SA","iso_country":"VE","iso_region":"VE-M","municipality":"Caracas","scheduled_service":"no"},"geometry":{"type":"Point","coordinates":[-66.706497,10.481333]}},{"id":"40333","type":"Feature","properties":{"ident":"SVVB","type":"small_airport","name":"Bajo Verde Airport","elevation_ft":"492","continent":"SA","iso_country":"VE","iso_region":"VE-J","scheduled_service":"no","gps_code":"SVVB"},"geometry":{"type":"Point","coordinates":[-66.467499,9.051389]}},{"id":"40367","type":"Feature","properties":{"ident":"VE-0018","type":"heliport","name":"Balgres  Heliport","elevation_ft":"600","continent":"SA","iso_country":"VE","iso_region":"VE-M","municipality":"San Francisco de Yare","scheduled_service":"no"},"geometry":{"type":"Point","coordinates":[-66.746803,10.152201]}},{"id":"40096","type":"Feature","properties":{"ident":"SVBV","type":"small_airport","name":"Banco Verde Airport","elevation_ft":"348","continent":"SA","iso_country":"VE","iso_region":"VE-P","scheduled_service":"no","gps_code":"SVBV"},"geometry":{"type":"Point","coordinates":[-69.533333,8.733333]}},{"id":"40368","type":"Feature","properties":{"ident":"VE-0019","type":"heliport","name":"Bancomara  Heliport","elevation_ft":"158","continent":"SA","iso_country":"VE","iso_region":"VE-V","municipality":"Maracaibo","scheduled_service":"no"},"geometry":{"type":"Point","coordinates":[-71.610001,10.658333]}},{"id":"6256","type":"Feature","properties":{"ident":"SVBI","type":"medium_airport","name":"Barinas Airport","elevation_ft":"615","continent":"SA","iso_country":"VE","iso_region":"VE-E","municipality":"Barinas","scheduled_service":"yes","icao_code":"SVBI","iata_code":"BNS","gps_code":"SVBI","wikipedia_link":"https://en.wikipedia.org/wiki/Barinas_Airport"},"geometry":{"type":"Point","coordinates":[-70.214167,8.615]}},{"id":"6259","type":"Feature","properties":{"ident":"SVBM","type":"medium_airport","name":"Barquisimeto International Airport","elevation_ft":"2042","continent":"SA","iso_country":"VE","iso_region":"VE-K","municipality":"Barquisimeto","scheduled_service":"yes","icao_code":"SVBM","iata_code":"BRM","gps_code":"SVBM","wikipedia_link":"https://en.wikipedia.org/wiki/Jacinto_Lara_International_Airport"},"geometry":{"type":"Point","coordinates":[-69.35862,10.042747]}},{"id":"40369","type":"Feature","properties":{"ident":"VE-0020","type":"heliport","name":"Barrancas  Heliport","elevation_ft":"42","continent":"SA","iso_country":"VE","iso_region":"VE-N","municipality":"Barrancas","scheduled_service":"no"},"geometry":{"type":"Point","coordinates":[-62.205002,8.7]}},{"id":"40370","type":"Feature","properties":{"ident":"VE-0021","type":"small_airport","name":"Belen Airport","elevation_ft":"577","continent":"SA","iso_country":"VE","iso_region":"VE-Z","municipality":"Culebra","scheduled_service":"no"},"geometry":{"type":"Point","coordinates":[-65.763336,3.746667]}},{"id":"40086","type":"Feature","properties":{"ident":"SVBE","type":"small_airport","name":"Bernal Airport","elevation_ft":"249","continent":"SA","iso_country":"VE","iso_region":"VE-V","scheduled_service":"no","gps_code":"SVBE"},"geometry":{"type":"Point","coordinates":[-72.583336,9.666667]}},{"id":"40084","type":"Feature","properties":{"ident":"SVBA","type":"small_airport","name":"Boca Anaro Airport","elevation_ft":"298","continent":"SA","iso_country":"VE","iso_region":"VE-E","municipality":"Boca de Anaro","scheduled_service":"no","gps_code":"SVBA"},"geometry":{"type":"Point","coordinates":[-70.26667,7.833333]}},{"id":"40371","type":"Feature","properties":{"ident":"VE-0022","type":"heliport","name":"Boca de Uracoa  Heliport","elevation_ft":"8","continent":"SA","iso_country":"VE","iso_region":"VE-N","municipality":"Boca de Uracoa","scheduled_service":"no"},"geometry":{"type":"Point","coordinates":[-62.323502,9.121833]}},{"id":"40091","type":"Feature","properties":{"ident":"SVBN","type":"small_airport","name":"Bocon Airport","elevation_ft":"1462","continent":"SA","iso_country":"VE","iso_region":"VE-F","scheduled_service":"no","gps_code":"SVBN"},"geometry":{"type":"Point","coordinates":[-62.733334,6.6]}},{"id":"6257","type":"Feature","properties":{"ident":"SVBK","type":"small_airport","name":"Bocono Airport","elevation_ft":"5187","continent":"NA","iso_country":"VE","iso_region":"VE-T","municipality":"Bocono","scheduled_service":"no","gps_code":"SVBO"},"geometry":{"type":"Point","coordinates":[-70.230499,9.2671]}},{"id":"597305","type":"Feature","properties":{"ident":"VE-0244","type":"heliport","name":"BOD Tower Helipad","elevation_ft":"1890","continent":"SA","iso_country":"VE","iso_region":"VE-G","municipality":"Valencia","scheduled_service":"no","icao_code":"SVOD","gps_code":"SVOD"},"geometry":{"type":"Point","coordinates":[-68.003907,10.211518]}},{"id":"40094","type":"Feature","properties":{"ident":"SVBT","type":"small_airport","name":"Boquemonte Airport","elevation_ft":"1000","continent":"SA","iso_country":"VE","iso_region":"VE-P","scheduled_service":"no","gps_code":"SVBT"},"geometry":{"type":"Point","coordinates":[-69.75,9.2]}},{"id":"40372","type":"Feature","properties":{"ident":"VE-0023","type":"small_airport","name":"Buena Vista del Caño Airport","elevation_ft":"680","continent":"SA","iso_country":"VE","iso_region":"VE-Z","scheduled_service":"no"},"geometry":{"type":"Point","coordinates":[-65.333336,3.5]}},{"id":"40337","type":"Feature","properties":{"ident":"SVVM","type":"small_airport","name":"Buena Vista del Caño Medio Airport","elevation_ft":"475","continent":"SA","iso_country":"VE","iso_region":"VE-C","scheduled_service":"no","gps_code":"SVVM"},"geometry":{"type":"Point","coordinates":[-68.150002,6.916667]}},{"id":"40373","type":"Feature","properties":{"ident":"VE-0024","type":"heliport","name":"Buena Vista Heliport","elevation_ft":"524","continent":"SA","iso_country":"VE","iso_region":"VE-B","scheduled_service":"no"},"geometry":{"type":"Point","coordinates":[-64.518829,9.356833]}},{"id":"40374","type":"Feature","properties":{"ident":"VE-0025","type":"heliport","name":"Buja  Heliport","elevation_ft":"43","continent":"SA","iso_country":"VE","iso_region":"VE-N","municipality":"San José de Buja","scheduled_service":"no"},"geometry":{"type":"Point","coordinates":[-62.654999,9.583333]}},{"id":"40375","type":"Feature","properties":{"ident":"VE-0026","type":"heliport","name":"Cabimas Hilton  Heliport","elevation_ft":"120","continent":"SA","iso_country":"VE","iso_region":"VE-V","municipality":"Las Múcuras","scheduled_service":"no"},"geometry":{"type":"Point","coordinates":[-71.449997,10.466667]}},{"id":"597292","type":"Feature","properties":{"ident":"VE-0243","type":"small_airport","name":"Cabruta Airstrip","elevation_ft":"181","continent":"SA","iso_country":"VE","iso_region":"VE-J","municipality":"Cabruta","scheduled_service":"no","keywords":"Terecay"},"geometry":{"type":"Point","coordinates":[-66.252152,7.676141]}},{"id":"40376","type":"Feature","properties":{"ident":"VE-0027","type":"small_airport","name":"Cabuya Airport","elevation_ft":"358","continent":"SA","iso_country":"VE","iso_region":"VE-Z","municipality":"Canaripo","scheduled_service":"no"},"geometry":{"type":"Point","coordinates":[-66.828305,4.062468]}},{"id":"40072","type":"Feature","properties":{"ident":"SVAH","type":"small_airport","name":"Cachimbo Airport","elevation_ft":"1000","continent":"SA","iso_country":"VE","iso_region":"VE-K","municipality":"Coco de Mono","scheduled_service":"no","gps_code":"SVAH"},"geometry":{"type":"Point","coordinates":[-69.166664,10.033333]}},{"id":"6309","type":"Feature","properties":{"ident":"SVPA","type":"medium_airport","name":"Cacique Aramare Airport","elevation_ft":"245","continent":"SA","iso_country":"VE","iso_region":"VE-Z","municipality":"Puerto Ayacucho","scheduled_service":"no","icao_code":"SVPA","iata_code":"PYH","gps_code":"SVPA","wikipedia_link":"https://en.wikipedia.org/wiki/Cacique_Aramare_Airport","keywords":"Casique Aramare Airport"},"geometry":{"type":"Point","coordinates":[-67.606102,5.61999]}},{"id":"40377","type":"Feature","properties":{"ident":"VE-0028","type":"small_airport","name":"Cacuri Airport","elevation_ft":"902","continent":"SA","iso_country":"VE","iso_region":"VE-Z","scheduled_service":"no","gps_code":"SVAJ"},"geometry":{"type":"Point","coordinates":[-65.339719,4.803983]}},{"id":"40378","type":"Feature","properties":{"ident":"VE-0029","type":"small_airport","name":"Cacurito Airport","elevation_ft":"814","continent":"SA","iso_country":"VE","iso_region":"VE-F","scheduled_service":"no"},"geometry":{"type":"Point","coordinates":[-66.900002,6.05]}},{"id":"40379","type":"Feature","properties":{"ident":"VE-0030","type":"heliport","name":"Caicara de Maturín  Heliport","elevation_ft":"550","continent":"SA","iso_country":"VE","iso_region":"VE-N","municipality":"Caicara de Maturín","scheduled_service":"no"},"geometry":{"type":"Point","coordinates":[-63.605,9.806667]}},{"id":"6263","type":"Feature","properties":{"ident":"SVCD","type":"medium_airport","name":"Caicara del Orinoco Airport","elevation_ft":"141","continent":"SA","iso_country":"VE","iso_region":"VE-F","scheduled_service":"no","icao_code":"SVCD","iata_code":"CXA","gps_code":"SVCD","wikipedia_link":"https://en.wikipedia.org/wiki/Caicara_del_Orinoco_Airport"},"geometry":{"type":"Point","coordinates":[-66.162804,7.62551]}},{"id":"6267","type":"Feature","properties":{"ident":"SVCL","type":"medium_airport","name":"Calabozo Airport","elevation_ft":"328","continent":"SA","iso_country":"VE","iso_region":"VE-J","municipality":"Guarico","scheduled_service":"no","icao_code":"SVCL","iata_code":"CLZ","gps_code":"SVCL","wikipedia_link":"https://en.wikipedia.org/wiki/Calabozo_Airport"},"geometry":{"type":"Point","coordinates":[-67.417091,8.924656]}},{"id":"40188","type":"Feature","properties":{"ident":"SVLL","type":"small_airport","name":"Callejas Airport","elevation_ft":"209","continent":"SA","iso_country":"VE","iso_region":"VE-E","municipality":"Callejas","scheduled_service":"no","keywords":"SVLL"},"geometry":{"type":"Point","coordinates":[-69.634898,7.993762]}},{"id":"40380","type":"Feature","properties":{"ident":"VE-0031","type":"small_airport","name":"Camani Airport","elevation_ft":"370","continent":"SA","iso_country":"VE","iso_region":"VE-Z","scheduled_service":"no"},"geometry":{"type":"Point","coordinates":[-66.258331,5.108333]}},{"id":"40381","type":"Feature","properties":{"ident":"VE-0032","type":"small_airport","name":"Camatagua Airport","elevation_ft":"881","continent":"SA","iso_country":"VE","iso_region":"VE-D","municipality":"Camatagua","scheduled_service":"no"},"geometry":{"type":"Point","coordinates":[-66.892799,9.81146]}},{"id":"40382","type":"Feature","properties":{"ident":"VE-0033","type":"small_airport","name":"Campo de Palma Airport","elevation_ft":"87","continent":"SA","iso_country":"VE","iso_region":"VE-V","scheduled_service":"no"},"geometry":{"type":"Point","coordinates":[-72.225998,8.62049]}},{"id":"6268","type":"Feature","properties":{"ident":"SVCN","type":"medium_airport","name":"Canaima Airport","elevation_ft":"1450","continent":"SA","iso_country":"VE","iso_region":"VE-F","municipality":"Canaima","scheduled_service":"yes","icao_code":"SVCN","iata_code":"CAJ","gps_code":"SVCN","wikipedia_link":"https://en.wikipedia.org/wiki/Canaima_Airport"},"geometry":{"type":"Point","coordinates":[-62.85485,6.231989]}},{"id":"40385","type":"Feature","properties":{"ident":"VE-0036","type":"heliport","name":"Capitán Alfredo Sierra  Heliport","elevation_ft":"21","continent":"SA","iso_country":"VE","iso_region":"VE-V","municipality":"Lagunillas","scheduled_service":"no"},"geometry":{"type":"Point","coordinates":[-71.238335,10.118333]}},{"id":"6274","type":"Feature","properties":{"ident":"SVCZ","type":"small_airport","name":"Captain Manuel Ríos Air Base","elevation_ft":"595","continent":"NA","iso_country":"VE","iso_region":"VE-J","municipality":"Carrizal","scheduled_service":"no","gps_code":"SVCZ","keywords":"El Sombrero"},"geometry":{"type":"Point","coordinates":[-66.922798,9.37265]}},{"id":"40386","type":"Feature","properties":{"ident":"VE-0037","type":"heliport","name":"Capure  Heliport","elevation_ft":"16","continent":"SA","iso_country":"VE","iso_region":"VE-Y","scheduled_service":"no"},"geometry":{"type":"Point","coordinates":[-62.150002,9.966667]}},{"id":"6272","type":"Feature","properties":{"ident":"SVCS","type":"medium_airport","name":"Caracas Óscar Machado Zuloaga International Airport","elevation_ft":"2145","continent":"SA","iso_country":"VE","iso_region":"VE-M","municipality":"Charallave","scheduled_service":"no","gps_code":"SVCS","wikipedia_link":"https://en.wikipedia.org/wiki/%C3%93scar_Machado_Zuloaga_International_Airport"},"geometry":{"type":"Point","coordinates":[-66.815847,10.286874]}},{"id":"40093","type":"Feature","properties":{"ident":"SVBR","type":"small_airport","name":"Carbonero Airport","elevation_ft":"328","continent":"SA","iso_country":"VE","iso_region":"VE-U","scheduled_service":"no","gps_code":"SVBR"},"geometry":{"type":"Point","coordinates":[-68.666664,10.416667]}},{"id":"40387","type":"Feature","properties":{"ident":"VE-0038","type":"heliport","name":"Caribe (Simón Bolívar Internacional)  Heliport","elevation_ft":"316","continent":"SA","iso_country":"VE","iso_region":"VE-X","municipality":"Caracas","scheduled_service":"no"},"geometry":{"type":"Point","coordinates":[-66.996666,10.598333]}},{"id":"40388","type":"Feature","properties":{"ident":"VE-0039","type":"heliport","name":"Caripe  Heliport","elevation_ft":"4255","continent":"SA","iso_country":"VE","iso_region":"VE-N","municipality":"Caripe","scheduled_service":"no"},"geometry":{"type":"Point","coordinates":[-63.5,10.155556]}},{"id":"40389","type":"Feature","properties":{"ident":"VE-0040","type":"heliport","name":"Caripito  Heliport","elevation_ft":"137","continent":"SA","iso_country":"VE","iso_region":"VE-N","municipality":"Caripiro","scheduled_service":"no"},"geometry":{"type":"Point","coordinates":[-63.097401,10.1062]}},{"id":"40390","type":"Feature","properties":{"ident":"VE-0041","type":"small_airport","name":"Carona Airport","elevation_ft":"1169","continent":"SA","iso_country":"VE","iso_region":"VE-F","municipality":"Simaraña","scheduled_service":"no"},"geometry":{"type":"Point","coordinates":[-63.933334,4.6]}},{"id":"40292","type":"Feature","properties":{"ident":"SVRR","type":"small_airport","name":"Carrao Airport","elevation_ft":"1542","continent":"SA","iso_country":"VE","iso_region":"VE-F","scheduled_service":"no","gps_code":"SVRR"},"geometry":{"type":"Point","coordinates":[-62.830839,6.238992]}},{"id":"6265","type":"Feature","properties":{"ident":"SVCG","type":"small_airport","name":"Casigua El Cubo Airport","elevation_ft":"99","continent":"SA","iso_country":"VE","iso_region":"VE-V","municipality":"Casigua El Cubo","scheduled_service":"no","icao_code":"SVCG","iata_code":"CUV","gps_code":"SVCG","wikipedia_link":"https://en.wikipedia.org/wiki/El_Cubo_Airport"},"geometry":{"type":"Point","coordinates":[-72.536301,8.75814]}},{"id":"348509","type":"Feature","properties":{"ident":"VE-0217","type":"small_airport","name":"Castilletes Airport","continent":"SA","iso_country":"VE","iso_region":"VE-V","municipality":"Castilletes","scheduled_service":"no"},"geometry":{"type":"Point","coordinates":[-71.34955,11.82596]}},{"id":"40104","type":"Feature","properties":{"ident":"SVCT","type":"small_airport","name":"Caujarito Airport","elevation_ft":"360","continent":"SA","iso_country":"VE","iso_region":"VE-C","scheduled_service":"no","gps_code":"SVCT"},"geometry":{"type":"Point","coordinates":[-68.383331,6.883333]}},{"id":"40391","type":"Feature","properties":{"ident":"VE-0042","type":"small_airport","name":"Cayoateri (Coyowateli) Airport","elevation_ft":"812","continent":"SA","iso_country":"VE","iso_region":"VE-Z","scheduled_service":"no"},"geometry":{"type":"Point","coordinates":[-64.297302,2.42152]}},{"id":"40103","type":"Feature","properties":{"ident":"SVCQ","type":"small_airport","name":"Cazorla Airport","elevation_ft":"639","continent":"SA","iso_country":"VE","iso_region":"VE-J","scheduled_service":"no","gps_code":"SVCQ"},"geometry":{"type":"Point","coordinates":[-66.969902,8.0606]}},{"id":"40102","type":"Feature","properties":{"ident":"SVCM","type":"small_airport","name":"Cañita Mendera Airport","elevation_ft":"662","continent":"SA","iso_country":"VE","iso_region":"VE-H","municipality":"Tinaco","scheduled_service":"no","gps_code":"SVCM"},"geometry":{"type":"Point","coordinates":[-68.416664,9.683333]}},{"id":"40383","type":"Feature","properties":{"ident":"VE-0034","type":"small_airport","name":"Caño Iguana Sur Airport","elevation_ft":"518","continent":"SA","iso_country":"VE","iso_region":"VE-Z","scheduled_service":"no"},"geometry":{"type":"Point","coordinates":[-65.616669,5.05]}},{"id":"40101","type":"Feature","properties":{"ident":"SVCK","type":"small_airport","name":"Caño Lucas Airport","elevation_ft":"301","continent":"SA","iso_country":"VE","iso_region":"VE-P","municipality":"El Poblado","scheduled_service":"no","gps_code":"SVCK"},"geometry":{"type":"Point","coordinates":[-68.883331,9.416667]}},{"id":"40176","type":"Feature","properties":{"ident":"SVKN","type":"small_airport","name":"Caño Negro Airport","elevation_ft":"328","continent":"SA","iso_country":"VE","iso_region":"VE-Z","scheduled_service":"no","gps_code":"SVKN"},"geometry":{"type":"Point","coordinates":[-65.618332,5.5]}},{"id":"40384","type":"Feature","properties":{"ident":"VE-0035","type":"small_airport","name":"Caño Santo Airport","elevation_ft":"730","continent":"SA","iso_country":"VE","iso_region":"VE-Z","scheduled_service":"no"},"geometry":{"type":"Point","coordinates":[-66.25,5.55]}},{"id":"40321","type":"Feature","properties":{"ident":"SVTJ","type":"small_airport","name":"Central Matilde Airport","elevation_ft":"866","continent":"SA","iso_country":"VE","iso_region":"VE-U","municipality":"central Matilde","scheduled_service":"no","gps_code":"SVTJ"},"geometry":{"type":"Point","coordinates":[-68.861603,10.1579]}},{"id":"40095","type":"Feature","properties":{"ident":"SVBU","type":"small_airport","name":"Central Venezuela Airport","elevation_ft":"33","continent":"SA","iso_country":"VE","iso_region":"VE-T","municipality":"Bobures","scheduled_service":"no","gps_code":"SVBU"},"geometry":{"type":"Point","coordinates":[-71.112871,9.173054]}},{"id":"40393","type":"Feature","properties":{"ident":"VE-0044","type":"heliport","name":"Centro Lago I  Heliport","elevation_ft":"33","continent":"SA","iso_country":"VE","iso_region":"VE-V","scheduled_service":"no"},"geometry":{"type":"Point","coordinates":[-71.455002,9.873333]}},{"id":"40394","type":"Feature","properties":{"ident":"VE-0045","type":"heliport","name":"Centro Miranda  Heliport","elevation_ft":"138","continent":"SA","iso_country":"VE","iso_region":"VE-V","municipality":"Maracaibo","scheduled_service":"no"},"geometry":{"type":"Point","coordinates":[-71.629997,10.648333]}},{"id":"40395","type":"Feature","properties":{"ident":"VE-0046","type":"small_airport","name":"Cerro Bolívar Airport","elevation_ft":"492","continent":"SA","iso_country":"VE","iso_region":"VE-F","scheduled_service":"no"},"geometry":{"type":"Point","coordinates":[-63.400002,7.5]}},{"id":"40396","type":"Feature","properties":{"ident":"VE-0047","type":"heliport","name":"Cerro El Divorcio  Heliport","elevation_ft":"4930","continent":"SA","iso_country":"VE","iso_region":"VE-N","municipality":"Cerro El Divorcio","scheduled_service":"no"},"geometry":{"type":"Point","coordinates":[-63.806999,10.091667]}},{"id":"40397","type":"Feature","properties":{"ident":"VE-0048","type":"heliport","name":"Cerro El Escondido  Heliport","elevation_ft":"865","continent":"SA","iso_country":"VE","iso_region":"VE-R","municipality":"Buena Esperanza","scheduled_service":"no"},"geometry":{"type":"Point","coordinates":[-63.272999,10.419333]}},{"id":"40398","type":"Feature","properties":{"ident":"VE-0049","type":"heliport","name":"Cerro Negro  Heliport","elevation_ft":"5133","continent":"SA","iso_country":"VE","iso_region":"VE-N","municipality":"Cerro Negro","scheduled_service":"no"},"geometry":{"type":"Point","coordinates":[-63.571667,10.213333]}},{"id":"40399","type":"Feature","properties":{"ident":"VE-0050","type":"small_airport","name":"Chajuraña Airport","elevation_ft":"1114","continent":"SA","iso_country":"VE","iso_region":"VE-F","scheduled_service":"no"},"geometry":{"type":"Point","coordinates":[-64.848335,5.148333]}},{"id":"40400","type":"Feature","properties":{"ident":"VE-0051","type":"small_airport","name":"Chaparalito Airport","elevation_ft":"224","continent":"SA","iso_country":"VE","iso_region":"VE-C","scheduled_service":"no"},"geometry":{"type":"Point","coordinates":[-68.286667,6.588333]}},{"id":"40106","type":"Feature","properties":{"ident":"SVCW","type":"small_airport","name":"Chinazón Airport","elevation_ft":"98","continent":"SA","iso_country":"VE","iso_region":"VE-T","scheduled_service":"no","gps_code":"SVCW"},"geometry":{"type":"Point","coordinates":[-70.933334,9.326667]}},{"id":"40401","type":"Feature","properties":{"ident":"VE-0052","type":"small_airport","name":"Chivapure Airport","elevation_ft":"1154","continent":"SA","iso_country":"VE","iso_region":"VE-F","scheduled_service":"no"},"geometry":{"type":"Point","coordinates":[-66.26667,6.033333]}},{"id":"40402","type":"Feature","properties":{"ident":"VE-0053","type":"small_airport","name":"Chorobobo Airport","elevation_ft":"1467","continent":"SA","iso_country":"VE","iso_region":"VE-K","scheduled_service":"no"},"geometry":{"type":"Point","coordinates":[-69.25,10.033333]}},{"id":"6290","type":"Feature","properties":{"ident":"SVHH","type":"small_airport","name":"Churuguara Airport","elevation_ft":"2461","continent":"SA","iso_country":"VE","iso_region":"VE-I","municipality":"Churuguara","scheduled_service":"no","gps_code":"SVHH"},"geometry":{"type":"Point","coordinates":[-69.638397,10.8081]}},{"id":"6275","type":"Feature","properties":{"ident":"SVDW","type":"small_airport","name":"Ciudad Piar Airport","elevation_ft":"879","continent":"SA","iso_country":"VE","iso_region":"VE-F","scheduled_service":"no","gps_code":"SVDW"},"geometry":{"type":"Point","coordinates":[-63.269798,7.49379]}},{"id":"40403","type":"Feature","properties":{"ident":"VE-0054","type":"heliport","name":"Clínica Avila Heliport","elevation_ft":"3106","continent":"SA","iso_country":"VE","iso_region":"VE-A","municipality":"Chacao","scheduled_service":"no"},"geometry":{"type":"Point","coordinates":[-66.866096,10.5165]}},{"id":"40241","type":"Feature","properties":{"ident":"SVOW","type":"small_airport","name":"Coco de Mono Airport","elevation_ft":"380","continent":"SA","iso_country":"VE","iso_region":"VE-C","scheduled_service":"no","gps_code":"SVOW"},"geometry":{"type":"Point","coordinates":[-68.51667,7.2]}},{"id":"40111","type":"Feature","properties":{"ident":"SVDC","type":"small_airport","name":"Cocuiza Airport","elevation_ft":"230","continent":"SA","iso_country":"VE","iso_region":"VE-J","scheduled_service":"no","gps_code":"SVDC"},"geometry":{"type":"Point","coordinates":[-66.254997,8.59]}},{"id":"40116","type":"Feature","properties":{"ident":"SVDS","type":"small_airport","name":"Codsa Airport","elevation_ft":"2850","continent":"SA","iso_country":"VE","iso_region":"VE-F","scheduled_service":"no","gps_code":"SVDS"},"geometry":{"type":"Point","coordinates":[-61.119999,4.791667]}},{"id":"40115","type":"Feature","properties":{"ident":"SVDR","type":"small_airport","name":"Cordereño Airport","elevation_ft":"268","continent":"NA","iso_country":"VE","iso_region":"VE-E","municipality":"Cordereño","scheduled_service":"no","gps_code":"SVUC"},"geometry":{"type":"Point","coordinates":[-69.900002,7.933333]}},{"id":"40294","type":"Feature","properties":{"ident":"SVRT","type":"small_airport","name":"Corocito Airport","elevation_ft":"354","continent":"SA","iso_country":"VE","iso_region":"VE-C","scheduled_service":"no","gps_code":"SVRT"},"geometry":{"type":"Point","coordinates":[-68.566666,7.05]}},{"id":"40404","type":"Feature","properties":{"ident":"VE-0055","type":"heliport","name":"Corporación Venezolana de Televisión  Heliport","elevation_ft":"3020","continent":"SA","iso_country":"VE","iso_region":"VE-M","municipality":"La Carlota","scheduled_service":"no"},"geometry":{"type":"Point","coordinates":[-66.867798,10.5001]}},{"id":"40405","type":"Feature","properties":{"ident":"VE-0056","type":"small_airport","name":"Coshiloateri Airport","elevation_ft":"450","continent":"SA","iso_country":"VE","iso_region":"VE-Z","scheduled_service":"no"},"geometry":{"type":"Point","coordinates":[-65.815002,3.083333]}},{"id":"40108","type":"Feature","properties":{"ident":"SVCY","type":"small_airport","name":"Cuartel Yaruro Airport","elevation_ft":"442","continent":"SA","iso_country":"VE","iso_region":"VE-C","municipality":"Las Campanas","scheduled_service":"no","gps_code":"SVCY"},"geometry":{"type":"Point","coordinates":[-68.633331,6.933333]}},{"id":"6273","type":"Feature","properties":{"ident":"SVCU","type":"medium_airport","name":"Cumaná (Antonio José de Sucre) Airport","elevation_ft":"14","continent":"SA","iso_country":"VE","iso_region":"VE-R","scheduled_service":"yes","icao_code":"SVCU","iata_code":"CUM","gps_code":"SVCU","wikipedia_link":"https://en.wikipedia.org/wiki/Antonio_Jos%C3%A9_de_Sucre_Airport"},"geometry":{"type":"Point","coordinates":[-64.13047,10.450333]}},{"id":"6319","type":"Feature","properties":{"ident":"SVRB","type":"small_airport","name":"Cumarebo Airport","elevation_ft":"26","continent":"SA","iso_country":"VE","iso_region":"VE-I","municipality":"Tocópero","scheduled_service":"no","gps_code":"SVRB"},"geometry":{"type":"Point","coordinates":[-69.314507,11.512376]}},{"id":"40105","type":"Feature","properties":{"ident":"SVCV","type":"small_airport","name":"Cunaviche Airport","elevation_ft":"262","continent":"SA","iso_country":"VE","iso_region":"VE-C","municipality":"Cunaviche","scheduled_service":"no","gps_code":"SVCV"},"geometry":{"type":"Point","coordinates":[-67.433334,7.4]}},{"id":"40168","type":"Feature","properties":{"ident":"SVJJ","type":"small_airport","name":"Curujujul Airport","elevation_ft":"321","continent":"SA","iso_country":"VE","iso_region":"VE-C","municipality":"Anzoategui","scheduled_service":"no","gps_code":"SVJJ"},"geometry":{"type":"Point","coordinates":[-67.796669,7.443333]}},{"id":"526487","type":"Feature","properties":{"ident":"SVDU","type":"small_airport","name":"Dabajuro Airport","elevation_ft":"256","continent":"SA","iso_country":"VE","iso_region":"VE-I","scheduled_service":"no","gps_code":"SVDU"},"geometry":{"type":"Point","coordinates":[-70.6925,11.0275]}},{"id":"6299","type":"Feature","properties":{"ident":"SVMG","type":"medium_airport","name":"Del Caribe Santiago Mariño International Airport","elevation_ft":"74","continent":"SA","iso_country":"VE","iso_region":"VE-O","municipality":"Isla Margarita","scheduled_service":"yes","icao_code":"SVMG","iata_code":"PMV","gps_code":"SVMG","wikipedia_link":"https://en.wikipedia.org/wiki/Del_Caribe_International_General_Santiago_Marino_Airport"},"geometry":{"type":"Point","coordinates":[-63.966599,10.912603]}},{"id":"40114","type":"Feature","properties":{"ident":"SVDM","type":"small_airport","name":"Dos Mosquises Airport","elevation_ft":"5","continent":"NA","iso_country":"VE","iso_region":"VE-W","municipality":"Isla Los Roques","scheduled_service":"no","gps_code":"SVDM"},"geometry":{"type":"Point","coordinates":[-66.892958,11.794284]}},{"id":"40110","type":"Feature","properties":{"ident":"SVDB","type":"small_airport","name":"Doña Bella Airport","elevation_ft":"651","continent":"SA","iso_country":"VE","iso_region":"VE-H","scheduled_service":"no","gps_code":"SVDB"},"geometry":{"type":"Point","coordinates":[-68.433334,9.333333]}},{"id":"6336","type":"Feature","properties":{"ident":"SVVL","type":"medium_airport","name":"Dr. Antonio Nicolás Briceño Airport","elevation_ft":"2060","continent":"SA","iso_country":"VE","iso_region":"VE-T","municipality":"Valera","scheduled_service":"yes","icao_code":"SVVL","iata_code":"VLV","gps_code":"SVVL","wikipedia_link":"https://en.wikipedia.org/wiki/Dr._Antonio_Nicol%C3%A1s_Brice%C3%B1o_Airport"},"geometry":{"type":"Point","coordinates":[-70.584061,9.340478]}},{"id":"40080","type":"Feature","properties":{"ident":"SVAV","type":"small_airport","name":"El Alcaravan Airport","elevation_ft":"128","continent":"SA","iso_country":"VE","iso_region":"VE-N","scheduled_service":"no","gps_code":"SVAV"},"geometry":{"type":"Point","coordinates":[-63.418331,9.273333]}},{"id":"40125","type":"Feature","properties":{"ident":"SVEL","type":"small_airport","name":"El Callao (El Perú) Airport","elevation_ft":"747","continent":"SA","iso_country":"VE","iso_region":"VE-F","scheduled_service":"no","gps_code":"SVEL"},"geometry":{"type":"Point","coordinates":[-61.799999,7.3]}},{"id":"40124","type":"Feature","properties":{"ident":"SVEK","type":"small_airport","name":"El Capitán Airport","elevation_ft":"452","continent":"SA","iso_country":"VE","iso_region":"VE-V","scheduled_service":"no","gps_code":"SVEK"},"geometry":{"type":"Point","coordinates":[-72.576599,10.1136]}},{"id":"40406","type":"Feature","properties":{"ident":"VE-0057","type":"small_airport","name":"El Carmen Airport","elevation_ft":"213","continent":"SA","iso_country":"VE","iso_region":"VE-F","scheduled_service":"no"},"geometry":{"type":"Point","coordinates":[-67.066666,6.15]}},{"id":"40173","type":"Feature","properties":{"ident":"SVKC","type":"small_airport","name":"El Carrao Airport","elevation_ft":"213","continent":"SA","iso_country":"VE","iso_region":"VE-P","scheduled_service":"no","gps_code":"SVQR"},"geometry":{"type":"Point","coordinates":[-68.805013,8.543421]}},{"id":"40407","type":"Feature","properties":{"ident":"VE-0058","type":"small_airport","name":"El Cedral Airport","elevation_ft":"285","continent":"SA","iso_country":"VE","iso_region":"VE-C","municipality":"Apure","scheduled_service":"no"},"geometry":{"type":"Point","coordinates":[-69.326668,7.431667]}},{"id":"40129","type":"Feature","properties":{"ident":"SVEW","type":"small_airport","name":"El Cenizo Airport","elevation_ft":"426","continent":"SA","iso_country":"VE","iso_region":"VE-T","scheduled_service":"no","gps_code":"SVKC"},"geometry":{"type":"Point","coordinates":[-70.683334,9.55]}},{"id":"40131","type":"Feature","properties":{"ident":"SVEY","type":"small_airport","name":"El Centro Airport","elevation_ft":"318","continent":"SA","iso_country":"VE","iso_region":"VE-C","scheduled_service":"no","gps_code":"SVEY"},"geometry":{"type":"Point","coordinates":[-69.116669,6.28]}},{"id":"40298","type":"Feature","properties":{"ident":"SVRZ","type":"small_airport","name":"El Corozo Airport","elevation_ft":"590","continent":"SA","iso_country":"VE","iso_region":"VE-J","scheduled_service":"no","gps_code":"SVRZ"},"geometry":{"type":"Point","coordinates":[-66.033333,8.466667]}},{"id":"40408","type":"Feature","properties":{"ident":"VE-0059","type":"small_airport","name":"El Diamante Airport","elevation_ft":"948","continent":"SA","iso_country":"VE","iso_region":"VE-F","scheduled_service":"no"},"geometry":{"type":"Point","coordinates":[-65.818886,6.434722]}},{"id":"6277","type":"Feature","properties":{"ident":"SVED","type":"medium_airport","name":"El Dorado Airport","elevation_ft":"318","continent":"SA","iso_country":"VE","iso_region":"VE-F","municipality":"Bolivar","scheduled_service":"no","icao_code":"SVED","iata_code":"EOR","gps_code":"SVED"},"geometry":{"type":"Point","coordinates":[-61.638786,6.71573]}},{"id":"40199","type":"Feature","properties":{"ident":"SVMB","type":"small_airport","name":"El Embrujo Airport","elevation_ft":"720","continent":"SA","iso_country":"VE","iso_region":"VE-J","scheduled_service":"no","gps_code":"SVMB"},"geometry":{"type":"Point","coordinates":[-66.504997,8.671667]}},{"id":"40409","type":"Feature","properties":{"ident":"VE-0060","type":"heliport","name":"El Encantado  Heliport","elevation_ft":"328","continent":"SA","iso_country":"VE","iso_region":"VE-M","municipality":"El Encantado","scheduled_service":"no"},"geometry":{"type":"Point","coordinates":[-66.7948,10.452]}},{"id":"40120","type":"Feature","properties":{"ident":"SVEE","type":"small_airport","name":"El Esterero Airport","elevation_ft":"590","continent":"SA","iso_country":"VE","iso_region":"VE-C","municipality":"El Samán de Apure","scheduled_service":"no","gps_code":"SVEE"},"geometry":{"type":"Point","coordinates":[-68.696671,7.908333]}},{"id":"40133","type":"Feature","properties":{"ident":"SVFG","type":"small_airport","name":"El Flagelo Airport","elevation_ft":"663","continent":"NA","iso_country":"VE","iso_region":"VE-J","municipality":"Francisco de Miranda","scheduled_service":"no","gps_code":"SVFG"},"geometry":{"type":"Point","coordinates":[-67.032452,9.1856]}},{"id":"40136","type":"Feature","properties":{"ident":"SVFR","type":"small_airport","name":"El Frío Airport","elevation_ft":"219","continent":"SA","iso_country":"VE","iso_region":"VE-C","municipality":"Guarico","scheduled_service":"no","gps_code":"SVFR"},"geometry":{"type":"Point","coordinates":[-68.898331,7.823333]}},{"id":"40138","type":"Feature","properties":{"ident":"SVFT","type":"small_airport","name":"El Fuentero Airport","elevation_ft":"420","continent":"NA","iso_country":"VE","iso_region":"VE-C","scheduled_service":"no","gps_code":"SVBF"},"geometry":{"type":"Point","coordinates":[-69.583333,7.1]}},{"id":"40122","type":"Feature","properties":{"ident":"SVEG","type":"small_airport","name":"El Guayabo de Cojedes Airport","elevation_ft":"23","continent":"SA","iso_country":"VE","iso_region":"VE-H","scheduled_service":"no","gps_code":"SVEG"},"geometry":{"type":"Point","coordinates":[-68.333336,9.7]}},{"id":"6276","type":"Feature","properties":{"ident":"SVEB","type":"small_airport","name":"El Guayabo del Zulia Airport","elevation_ft":"79","continent":"SA","iso_country":"VE","iso_region":"VE-V","scheduled_service":"no","gps_code":"SVEB"},"geometry":{"type":"Point","coordinates":[-72.335602,8.67616]}},{"id":"40123","type":"Feature","properties":{"ident":"SVEJ","type":"small_airport","name":"El Jabillal Airport","elevation_ft":"354","continent":"SA","iso_country":"VE","iso_region":"VE-T","scheduled_service":"no","gps_code":"SVEJ"},"geometry":{"type":"Point","coordinates":[-70.800003,9.45]}},{"id":"40193","type":"Feature","properties":{"ident":"SVLU","type":"small_airport","name":"El Lechozo Airport","elevation_ft":"529","continent":"SA","iso_country":"VE","iso_region":"VE-D","municipality":"El Lechozo","scheduled_service":"no","gps_code":"SVLU"},"geometry":{"type":"Point","coordinates":[-66.678329,9.3]}},{"id":"6258","type":"Feature","properties":{"ident":"SVBL","type":"medium_airport","name":"El Libertador Airbase","elevation_ft":"1450","continent":"SA","iso_country":"VE","iso_region":"VE-D","scheduled_service":"no","gps_code":"SVBL","local_code":"ELR","wikipedia_link":"https://en.wikipedia.org/wiki/El_Libertador_Air_Base"},"geometry":{"type":"Point","coordinates":[-67.55732,10.183375]}},{"id":"40180","type":"Feature","properties":{"ident":"SVLC","type":"small_airport","name":"El Lucero de Apure Airport","elevation_ft":"262","continent":"SA","iso_country":"VE","iso_region":"VE-C","municipality":"El Lucero","scheduled_service":"no","gps_code":"SVLC"},"geometry":{"type":"Point","coordinates":[-68.066666,6.983333]}},{"id":"40182","type":"Feature","properties":{"ident":"VE-0218","type":"small_airport","name":"El Lucero del Zulia Airport","elevation_ft":"31","continent":"SA","iso_country":"VE","iso_region":"VE-V","municipality":"El Lucero","scheduled_service":"no","gps_code":"SVFZ"},"geometry":{"type":"Point","coordinates":[-72.244551,9.829045]}},{"id":"40219","type":"Feature","properties":{"ident":"SVNG","type":"small_airport","name":"El Mango Airport","elevation_ft":"393","continent":"SA","iso_country":"VE","iso_region":"VE-V","scheduled_service":"no","gps_code":"SVNG"},"geometry":{"type":"Point","coordinates":[-72.466667,10.283333]}},{"id":"6280","type":"Feature","properties":{"ident":"SVET","type":"small_airport","name":"El Manteco Airport","elevation_ft":"1000","continent":"SA","iso_country":"VE","iso_region":"VE-F","scheduled_service":"no","gps_code":"SVET"},"geometry":{"type":"Point","coordinates":[-62.531447,7.349514]}},{"id":"40297","type":"Feature","properties":{"ident":"SVRY","type":"small_airport","name":"El Merey Airport","elevation_ft":"242","continent":"SA","iso_country":"VE","iso_region":"VE-F","scheduled_service":"no","gps_code":"SVRY"},"geometry":{"type":"Point","coordinates":[-62.833332,8.166667]}},{"id":"40147","type":"Feature","properties":{"ident":"SVGR","type":"small_airport","name":"El Milagro Carabobo Airport","elevation_ft":"2013","continent":"SA","iso_country":"VE","iso_region":"VE-U","scheduled_service":"no","gps_code":"SVGR"},"geometry":{"type":"Point","coordinates":[-68.375198,10.153]}},{"id":"40204","type":"Feature","properties":{"ident":"SVMK","type":"small_airport","name":"El Milagro Cojedes Airport","elevation_ft":"262","continent":"SA","iso_country":"VE","iso_region":"VE-H","scheduled_service":"no","gps_code":"SVMK"},"geometry":{"type":"Point","coordinates":[-67.970001,9.23]}},{"id":"40208","type":"Feature","properties":{"ident":"SVMO","type":"small_airport","name":"El Milagro Oeste Airport","elevation_ft":"295","continent":"SA","iso_country":"VE","iso_region":"VE-C","scheduled_service":"no","gps_code":"SVMO"},"geometry":{"type":"Point","coordinates":[-68.183334,7.683333]}},{"id":"40205","type":"Feature","properties":{"ident":"SVML","type":"small_airport","name":"El Milagro Sureste Airport","elevation_ft":"230","continent":"SA","iso_country":"VE","iso_region":"VE-C","scheduled_service":"no","gps_code":"SVML"},"geometry":{"type":"Point","coordinates":[-67.279643,7.26544]}},{"id":"40410","type":"Feature","properties":{"ident":"VE-0061","type":"small_airport","name":"El Millanero Airport","elevation_ft":"192","continent":"SA","iso_country":"VE","iso_region":"VE-J","scheduled_service":"no"},"geometry":{"type":"Point","coordinates":[-67.111664,8.316667]}},{"id":"40223","type":"Feature","properties":{"ident":"SVNR","type":"small_airport","name":"El Morichal Airport","elevation_ft":"492","continent":"SA","iso_country":"VE","iso_region":"VE-C","scheduled_service":"no","gps_code":"SVNR"},"geometry":{"type":"Point","coordinates":[-68.633331,6.983333]}},{"id":"597304","type":"Feature","properties":{"ident":"SVNH","type":"heliport","name":"El Nido del Halcon Heliport","elevation_ft":"3285","continent":"SA","iso_country":"VE","iso_region":"VE-M","scheduled_service":"no","icao_code":"SVNH","gps_code":"SVNH","keywords":"Expanzoo"},"geometry":{"type":"Point","coordinates":[-66.783982,10.424753]}},{"id":"6279","type":"Feature","properties":{"ident":"SVEP","type":"small_airport","name":"El Palmar Airport","elevation_ft":"1554","continent":"SA","iso_country":"VE","iso_region":"VE-D","scheduled_service":"no","gps_code":"SVEP"},"geometry":{"type":"Point","coordinates":[-67.441666,10.206667]}},{"id":"40126","type":"Feature","properties":{"ident":"SVEM","type":"small_airport","name":"El Paraiso Airport","elevation_ft":"656","continent":"SA","iso_country":"VE","iso_region":"VE-E","municipality":"El Paraiso","scheduled_service":"no","gps_code":"SVEM"},"geometry":{"type":"Point","coordinates":[-70.375,8.333333]}},{"id":"6314","type":"Feature","properties":{"ident":"SVWQ","type":"small_airport","name":"El Pardillero Airport","elevation_ft":"2001","continent":"SA","iso_country":"VE","iso_region":"VE-E","municipality":"Mijagual","scheduled_service":"no","gps_code":"SVWQ"},"geometry":{"type":"Point","coordinates":[-69.760803,8.59827]}},{"id":"40248","type":"Feature","properties":{"ident":"SVPI","type":"small_airport","name":"El Paují Airport","elevation_ft":"2716","continent":"SA","iso_country":"VE","iso_region":"VE-F","scheduled_service":"no","gps_code":"SVPI"},"geometry":{"type":"Point","coordinates":[-61.593334,4.466667]}},{"id":"40246","type":"Feature","properties":{"ident":"SVPG","type":"small_airport","name":"El Progreso Airport","elevation_ft":"984","continent":"SA","iso_country":"VE","iso_region":"VE-C","scheduled_service":"no","gps_code":"SVPG"},"geometry":{"type":"Point","coordinates":[-68.583336,7.133333]}},{"id":"40251","type":"Feature","properties":{"ident":"SVPL","type":"small_airport","name":"El Pueblito Airport","elevation_ft":"1050","continent":"SA","iso_country":"VE","iso_region":"VE-F","scheduled_service":"no","gps_code":"SVPL"},"geometry":{"type":"Point","coordinates":[-62.716667,7.816667]}},{"id":"525030","type":"Feature","properties":{"ident":"SVWX","type":"small_airport","name":"El Recreo Airport","elevation_ft":"394","continent":"SA","iso_country":"VE","iso_region":"VE-J","scheduled_service":"no","icao_code":"SVWX","gps_code":"SVWX"},"geometry":{"type":"Point","coordinates":[-67.603,9.040833]}},{"id":"40127","type":"Feature","properties":{"ident":"SVER","type":"small_airport","name":"El Respiro Airport","elevation_ft":"387","continent":"SA","iso_country":"VE","iso_region":"VE-C","scheduled_service":"no","gps_code":"SVER"},"geometry":{"type":"Point","coordinates":[-68.98333,7.216667]}},{"id":"40280","type":"Feature","properties":{"ident":"SVRC","type":"small_airport","name":"El Rocío Airport","elevation_ft":"328","continent":"SA","iso_country":"VE","iso_region":"VE-I","scheduled_service":"no","gps_code":"SVRC"},"geometry":{"type":"Point","coordinates":[-68.550003,10.783333]}},{"id":"40290","type":"Feature","properties":{"ident":"SVRO","type":"small_airport","name":"El Rosario Airport","elevation_ft":"693","continent":"SA","iso_country":"VE","iso_region":"VE-R","scheduled_service":"no","gps_code":"SVRO"},"geometry":{"type":"Point","coordinates":[-63.916668,10.436667]}},{"id":"40128","type":"Feature","properties":{"ident":"SVES","type":"small_airport","name":"El Samán de Apure Airport","elevation_ft":"361","continent":"SA","iso_country":"VE","iso_region":"VE-C","municipality":"El Samán de Apure","scheduled_service":"no","gps_code":"SVES"},"geometry":{"type":"Point","coordinates":[-68.692703,7.91235]}},{"id":"40411","type":"Feature","properties":{"ident":"VE-0062","type":"small_airport","name":"El Samán de Barinas Airport","elevation_ft":"510","continent":"SA","iso_country":"VE","iso_region":"VE-E","scheduled_service":"no"},"geometry":{"type":"Point","coordinates":[-70.166664,8.543333]}},{"id":"40412","type":"Feature","properties":{"ident":"VE-0063","type":"small_airport","name":"El Samán de Guárico Airport","elevation_ft":"334","continent":"SA","iso_country":"VE","iso_region":"VE-J","scheduled_service":"no"},"geometry":{"type":"Point","coordinates":[-67.018333,8.825]}},{"id":"40289","type":"Feature","properties":{"ident":"SVRN","type":"small_airport","name":"El Terrón Airport","elevation_ft":"376","continent":"SA","iso_country":"VE","iso_region":"VE-N","scheduled_service":"no","gps_code":"SVRN"},"geometry":{"type":"Point","coordinates":[-63.266666,9.383333]}},{"id":"525782","type":"Feature","properties":{"ident":"VE-0222","type":"small_airport","name":"El Tigre Airport","elevation_ft":"837","continent":"SA","iso_country":"VE","iso_region":"VE-B","municipality":"El Tigre","scheduled_service":"no","iata_code":"ELX","wikipedia_link":"https://en.wikipedia.org/wiki/El_Tigre_Airport"},"geometry":{"type":"Point","coordinates":[-64.20828,8.833546]}},{"id":"40324","type":"Feature","properties":{"ident":"SVTO","type":"small_airport","name":"El Toco Airport","elevation_ft":"392","continent":"SA","iso_country":"VE","iso_region":"VE-B","municipality":"El Toco","scheduled_service":"no","gps_code":"SVTO"},"geometry":{"type":"Point","coordinates":[-64.849998,9.2]}},{"id":"40346","type":"Feature","properties":{"ident":"SVYG","type":"small_airport","name":"El Yagual Airport","elevation_ft":"262","continent":"SA","iso_country":"VE","iso_region":"VE-C","scheduled_service":"no","gps_code":"SVYG"},"geometry":{"type":"Point","coordinates":[-68.449997,7.466667]}},{"id":"40347","type":"Feature","properties":{"ident":"SVYI","type":"small_airport","name":"El Yavi Airport","elevation_ft":"557","continent":"SA","iso_country":"VE","iso_region":"VE-Z","scheduled_service":"no","gps_code":"SVYI"},"geometry":{"type":"Point","coordinates":[-65.898331,5.458333]}},{"id":"6281","type":"Feature","properties":{"ident":"SVEZ","type":"medium_airport","name":"Elorza Airport","elevation_ft":"295","continent":"SA","iso_country":"VE","iso_region":"VE-C","scheduled_service":"no","icao_code":"SVEZ","iata_code":"EOZ","gps_code":"SVEZ","wikipedia_link":"https://en.wikipedia.org/wiki/Elorza_Airport"},"geometry":{"type":"Point","coordinates":[-69.4967,7.059677]}},{"id":"40121","type":"Feature","properties":{"ident":"SVEF","type":"small_airport","name":"Empujeca Airport","elevation_ft":"66","continent":"SA","iso_country":"VE","iso_region":"VE-U","scheduled_service":"no","gps_code":"SVEF"},"geometry":{"type":"Point","coordinates":[-68.495003,10.595]}},{"id":"6278","type":"Feature","properties":{"ident":"SVEN","type":"small_airport","name":"Encontrados Airport","elevation_ft":"66","continent":"SA","iso_country":"VE","iso_region":"VE-V","scheduled_service":"no","gps_code":"SVEW"},"geometry":{"type":"Point","coordinates":[-72.24797,9.03777]}},{"id":"40413","type":"Feature","properties":{"ident":"VE-0064","type":"heliport","name":"Ensco III  Heliport","elevation_ft":"10","continent":"SA","iso_country":"VE","iso_region":"VE-V","scheduled_service":"no"},"geometry":{"type":"Point","coordinates":[-71.58667,10.046667]}},{"id":"40414","type":"Feature","properties":{"ident":"VE-0065","type":"heliport","name":"Ensco IV Heliport","continent":"SA","iso_country":"VE","iso_region":"VE-V","scheduled_service":"no"},"geometry":{"type":"Point","coordinates":[-71.466942,9.585833]}},{"id":"40415","type":"Feature","properties":{"ident":"VE-0066","type":"heliport","name":"Ensco VI  Heliport","elevation_ft":"10","continent":"SA","iso_country":"VE","iso_region":"VE-J","scheduled_service":"no"},"geometry":{"type":"Point","coordinates":[-66.135597,9.59821]}},{"id":"40416","type":"Feature","properties":{"ident":"VE-0067","type":"small_airport","name":"Entrerios Airport","elevation_ft":"921","continent":"SA","iso_country":"VE","iso_region":"VE-F","scheduled_service":"no"},"geometry":{"type":"Point","coordinates":[-64.433334,5.958333]}},{"id":"40417","type":"Feature","properties":{"ident":"VE-0068","type":"small_airport","name":"Erebastina Airport","elevation_ft":"1250","continent":"SA","iso_country":"VE","iso_region":"VE-F","scheduled_service":"no"},"geometry":{"type":"Point","coordinates":[-64.849998,5.133333]}},{"id":"6261","type":"Feature","properties":{"ident":"SVBS","type":"medium_airport","name":"Escuela Mariscal Sucre Airport","elevation_ft":"1338","continent":"SA","iso_country":"VE","iso_region":"VE-D","municipality":"Maracay","scheduled_service":"no","icao_code":"SVBS","iata_code":"MYC","gps_code":"SVBS","wikipedia_link":"https://en.wikipedia.org/wiki/Mariscal_Sucre_Airport_(Venezuela)"},"geometry":{"type":"Point","coordinates":[-67.649422,10.249978]}},{"id":"40252","type":"Feature","properties":{"ident":"SVPN","type":"small_airport","name":"Espino Airport","elevation_ft":"689","continent":"SA","iso_country":"VE","iso_region":"VE-J","scheduled_service":"no","gps_code":"SVPN"},"geometry":{"type":"Point","coordinates":[-66.018303,8.5635]}},{"id":"40418","type":"Feature","properties":{"ident":"VE-0069","type":"heliport","name":"Evhelca  Heliport","elevation_ft":"35","continent":"SA","iso_country":"VE","iso_region":"VE-R","municipality":"Cumaná","scheduled_service":"no"},"geometry":{"type":"Point","coordinates":[-64.190002,10.471667]}},{"id":"40137","type":"Feature","properties":{"ident":"SVFS","type":"small_airport","name":"Fagotrans Airport","elevation_ft":"590","continent":"SA","iso_country":"VE","iso_region":"VE-D","scheduled_service":"no","gps_code":"SVFS"},"geometry":{"type":"Point","coordinates":[-66.643097,9.40164]}},{"id":"526488","type":"Feature","properties":{"ident":"SVFW","type":"small_airport","name":"Finca Villa Carrara II Airport","elevation_ft":"597","continent":"SA","iso_country":"VE","iso_region":"VE-N","scheduled_service":"no","gps_code":"SVFW"},"geometry":{"type":"Point","coordinates":[-63.752167,9.868]}},{"id":"40140","type":"Feature","properties":{"ident":"SVFY","type":"small_airport","name":"Finca Yacurito Airport","elevation_ft":"1706","continent":"SA","iso_country":"VE","iso_region":"VE-P","scheduled_service":"no","gps_code":"SVFY"},"geometry":{"type":"Point","coordinates":[-69.099998,9.033333]}},{"id":"40169","type":"Feature","properties":{"ident":"SVJL","type":"small_airport","name":"Fleitera Airport","elevation_ft":"132","continent":"SA","iso_country":"VE","iso_region":"VE-J","municipality":"Guayabal","scheduled_service":"no","gps_code":"SVJL","keywords":"Los Lajeros"},"geometry":{"type":"Point","coordinates":[-67.403704,7.995295]}},{"id":"40419","type":"Feature","properties":{"ident":"VE-0070","type":"heliport","name":"Florida  Heliport","elevation_ft":"3154","continent":"SA","iso_country":"VE","iso_region":"VE-M","scheduled_service":"no"},"geometry":{"type":"Point","coordinates":[-66.75,10.483333]}},{"id":"40420","type":"Feature","properties":{"ident":"VE-0071","type":"heliport","name":"Florida Hill  Heliport","elevation_ft":"3500","continent":"SA","iso_country":"VE","iso_region":"VE-M","scheduled_service":"no"},"geometry":{"type":"Point","coordinates":[-66.769897,10.4751]}},{"id":"40421","type":"Feature","properties":{"ident":"VE-0072","type":"heliport","name":"Fumyteca  Heliport","elevation_ft":"787","continent":"SA","iso_country":"VE","iso_region":"VE-U","scheduled_service":"no"},"geometry":{"type":"Point","coordinates":[-68.931664,10.158333]}},{"id":"40135","type":"Feature","properties":{"ident":"SVFL","type":"small_airport","name":"Fundación Layera Airport","elevation_ft":"219","continent":"SA","iso_country":"VE","iso_region":"VE-C","scheduled_service":"no","gps_code":"SVFL"},"geometry":{"type":"Point","coordinates":[-68.133331,7.2]}},{"id":"40209","type":"Feature","properties":{"ident":"SVMQ","type":"small_airport","name":"Fundo la Marqueseña Airport","elevation_ft":"646","continent":"SA","iso_country":"VE","iso_region":"VE-E","scheduled_service":"no","gps_code":"SVMQ"},"geometry":{"type":"Point","coordinates":[-70.033333,8.841667]}},{"id":"40308","type":"Feature","properties":{"ident":"SVSM","type":"small_airport","name":"Fundo Santa María Airport","elevation_ft":"400","continent":"SA","iso_country":"VE","iso_region":"VE-E","scheduled_service":"no","gps_code":"SVSM"},"geometry":{"type":"Point","coordinates":[-70.246666,8.321667]}},{"id":"40422","type":"Feature","properties":{"ident":"VE-0073","type":"heliport","name":"Galáctica  Heliport","elevation_ft":"1345","continent":"SA","iso_country":"VE","iso_region":"VE-M","municipality":"El Cercado","scheduled_service":"no"},"geometry":{"type":"Point","coordinates":[-66.648331,10.48]}},{"id":"40142","type":"Feature","properties":{"ident":"SVGE","type":"small_airport","name":"Ganadería Pedernales Airport","elevation_ft":"467","continent":"SA","iso_country":"VE","iso_region":"VE-P","scheduled_service":"no","gps_code":"SVGE"},"geometry":{"type":"Point","coordinates":[-69.581665,9.21]}},{"id":"40423","type":"Feature","properties":{"ident":"VE-0074","type":"heliport","name":"Gaston  Heliport","elevation_ft":"3500","continent":"SA","iso_country":"VE","iso_region":"VE-M","scheduled_service":"no"},"geometry":{"type":"Point","coordinates":[-67.008331,10.4]}},{"id":"6310","type":"Feature","properties":{"ident":"SVPC","type":"medium_airport","name":"General Bartolome Salom International Airport","elevation_ft":"32","continent":"SA","iso_country":"VE","iso_region":"VE-G","municipality":"Puerto Cabello","scheduled_service":"no","icao_code":"SVPC","iata_code":"PBL","gps_code":"SVPC","wikipedia_link":"https://en.wikipedia.org/wiki/General_Bartolom%C3%A9_Salom_Airport"},"geometry":{"type":"Point","coordinates":[-68.072998,10.4805]}},{"id":"6270","type":"Feature","properties":{"ident":"SVCP","type":"medium_airport","name":"General Francisco Bermúdez Airport","elevation_ft":"33","continent":"SA","iso_country":"VE","iso_region":"VE-R","municipality":"Carúpano","scheduled_service":"yes","icao_code":"SVCP","iata_code":"CUP","gps_code":"SVCP","wikipedia_link":"https://en.wikipedia.org/wiki/General_Jos%C3%A9_Francisco_Berm%C3%BAdez_Airport"},"geometry":{"type":"Point","coordinates":[-63.261681,10.660014]}},{"id":"6255","type":"Feature","properties":{"ident":"SVBC","type":"large_airport","name":"General José Antonio Anzoategui International Airport","elevation_ft":"30","continent":"SA","iso_country":"VE","iso_region":"VE-B","municipality":"Barcelona","scheduled_service":"yes","icao_code":"SVBC","iata_code":"BLA","gps_code":"SVBC","home_link":"http://aigdjaa.baer.gob.ve","wikipedia_link":"https://en.wikipedia.org/wiki/General_Jos%C3%A9_Antonio_Anzo%C3%A1tegui_International_Airport","keywords":"Barcelona, Puero La Cruz,Lecheria"},"geometry":{"type":"Point","coordinates":[-64.692222,10.111111]}},{"id":"6315","type":"Feature","properties":{"ident":"SVPR","type":"medium_airport","name":"General Manuel Carlos Piar International Airport","elevation_ft":"472","continent":"NA","iso_country":"VE","iso_region":"VE-F","municipality":"Puerto Ordaz-Ciudad Guayana","scheduled_service":"yes","icao_code":"SVPR","iata_code":"PZO","gps_code":"SVPR","wikipedia_link":"https://en.wikipedia.org/wiki/Manuel_Carlos_Piar_Guayana_Airport"},"geometry":{"type":"Point","coordinates":[-62.760399,8.28853]}},{"id":"6262","type":"Feature","properties":{"ident":"SVCB","type":"medium_airport","name":"General Tomas de Heres Airport","elevation_ft":"197","continent":"SA","iso_country":"VE","iso_region":"VE-F","municipality":"Ciudad Bolivar","scheduled_service":"no","icao_code":"SVCB","iata_code":"CBL","gps_code":"SVCB","wikipedia_link":"https://en.wikipedia.org/wiki/Tom%C3%A1s_de_Heres_Airport","keywords":"Aeropuerto General Tomas de Heres"},"geometry":{"type":"Point","coordinates":[-63.536957,8.122161]}},{"id":"6282","type":"Feature","properties":{"ident":"SVFM","type":"medium_airport","name":"Generalissimo Francisco de Miranda Air Base","elevation_ft":"2739","continent":"SA","iso_country":"VE","iso_region":"VE-M","municipality":"Caracas","scheduled_service":"no","gps_code":"SVFM","wikipedia_link":"https://en.wikipedia.org/wiki/Generalissimo_Francisco_de_Miranda_Air_Base","keywords":"Caracas Francisco de Miranda, La Carlota"},"geometry":{"type":"Point","coordinates":[-66.843513,10.485033]}},{"id":"40107","type":"Feature","properties":{"ident":"SVCX","type":"small_airport","name":"Guachara Airport","elevation_ft":"656","continent":"SA","iso_country":"VE","iso_region":"VE-C","scheduled_service":"no","gps_code":"SVCX"},"geometry":{"type":"Point","coordinates":[-68.366669,7.3]}},{"id":"6287","type":"Feature","properties":{"ident":"SVGU","type":"medium_airport","name":"Guanare Airport","elevation_ft":"606","continent":"SA","iso_country":"VE","iso_region":"VE-P","municipality":"Guanare","scheduled_service":"no","icao_code":"SVGU","iata_code":"GUQ","gps_code":"SVGU","wikipedia_link":"https://en.wikipedia.org/wiki/Guanare_Airport"},"geometry":{"type":"Point","coordinates":[-69.75515,9.026944]}},{"id":"40424","type":"Feature","properties":{"ident":"VE-0075","type":"small_airport","name":"Guanarito Airport","elevation_ft":"304","continent":"SA","iso_country":"VE","iso_region":"VE-P","scheduled_service":"no"},"geometry":{"type":"Point","coordinates":[-69.184998,8.673333]}},{"id":"40425","type":"Feature","properties":{"ident":"VE-0076","type":"small_airport","name":"Guanay Airport","elevation_ft":"501","continent":"SA","iso_country":"VE","iso_region":"VE-Z","scheduled_service":"no"},"geometry":{"type":"Point","coordinates":[-66.358002,5.68281]}},{"id":"6285","type":"Feature","properties":{"ident":"SVGD","type":"medium_airport","name":"Guasdualito Airport","elevation_ft":"427","continent":"SA","iso_country":"VE","iso_region":"VE-C","municipality":"Guasdualito","scheduled_service":"no","icao_code":"SVGD","iata_code":"GDO","gps_code":"SVGD","wikipedia_link":"https://en.wikipedia.org/wiki/Guasdualito_Airport"},"geometry":{"type":"Point","coordinates":[-70.756386,7.210834]}},{"id":"40210","type":"Feature","properties":{"ident":"SVMS","type":"small_airport","name":"Guasimal Airport","elevation_ft":"328","continent":"SA","iso_country":"VE","iso_region":"VE-C","scheduled_service":"no","gps_code":"SVMS"},"geometry":{"type":"Point","coordinates":[-67.98333,7.716667]}},{"id":"32395","type":"Feature","properties":{"ident":"SVGT","type":"small_airport","name":"Guasipati Airport","elevation_ft":"977","continent":"SA","iso_country":"VE","iso_region":"VE-F","scheduled_service":"no","gps_code":"SVGT","wikipedia_link":"https://en.wikipedia.org/wiki/Guasipati_Airport"},"geometry":{"type":"Point","coordinates":[-61.900002,7.475]}},{"id":"40426","type":"Feature","properties":{"ident":"VE-0077","type":"small_airport","name":"Guaviarito Airport","elevation_ft":"1140","continent":"SA","iso_country":"VE","iso_region":"VE-Z","scheduled_service":"no"},"geometry":{"type":"Point","coordinates":[-66.216667,5.633333]}},{"id":"40146","type":"Feature","properties":{"ident":"SVGP","type":"small_airport","name":"Guesipo Airport","elevation_ft":"641","continent":"SA","iso_country":"VE","iso_region":"VE-J","scheduled_service":"no","gps_code":"SVGP"},"geometry":{"type":"Point","coordinates":[-67.183334,9.633333]}},{"id":"40427","type":"Feature","properties":{"ident":"VE-0078","type":"heliport","name":"Guiniquina Heliport","elevation_ft":"53","continent":"SA","iso_country":"VE","iso_region":"VE-Y","scheduled_service":"no"},"geometry":{"type":"Point","coordinates":[-61.091389,9.191944]}},{"id":"6286","type":"Feature","properties":{"ident":"SVGI","type":"medium_airport","name":"Guiria Airport","elevation_ft":"42","continent":"SA","iso_country":"VE","iso_region":"VE-R","scheduled_service":"no","icao_code":"SVGI","iata_code":"GUI","gps_code":"SVGI","wikipedia_link":"https://en.wikipedia.org/wiki/Guiria_Airport"},"geometry":{"type":"Point","coordinates":[-62.312668,10.574078]}},{"id":"40428","type":"Feature","properties":{"ident":"VE-0079","type":"small_airport","name":"Hacienda Bella Vista Airport","elevation_ft":"266","continent":"SA","iso_country":"VE","iso_region":"VE-E","scheduled_service":"no"},"geometry":{"type":"Point","coordinates":[-69.849998,8.05]}},{"id":"40343","type":"Feature","properties":{"ident":"SVWE","type":"small_airport","name":"Hacienda Bella Vista Airport","elevation_ft":"266","continent":"NA","iso_country":"VE","iso_region":"VE-E","scheduled_service":"no","gps_code":"SVJB"},"geometry":{"type":"Point","coordinates":[-69.831665,8.011667]}},{"id":"40154","type":"Feature","properties":{"ident":"SVHL","type":"small_airport","name":"Hacienda Carutal Airport","elevation_ft":"1000","continent":"SA","iso_country":"VE","iso_region":"VE-D","scheduled_service":"no","gps_code":"SVHL"},"geometry":{"type":"Point","coordinates":[-66.783333,9.716667]}},{"id":"40151","type":"Feature","properties":{"ident":"SVHC","type":"small_airport","name":"Hacienda El Caimito Airport","elevation_ft":"138","continent":"SA","iso_country":"VE","iso_region":"VE-V","scheduled_service":"no","gps_code":"SVHC"},"geometry":{"type":"Point","coordinates":[-72.183334,10.15]}},{"id":"6288","type":"Feature","properties":{"ident":"SVHD","type":"small_airport","name":"Hacienda El Calvario Airport","elevation_ft":"264","continent":"SA","iso_country":"VE","iso_region":"VE-V","scheduled_service":"no","gps_code":"SVHD"},"geometry":{"type":"Point","coordinates":[-72.550003,9.9]}},{"id":"40157","type":"Feature","properties":{"ident":"SVHO","type":"small_airport","name":"Hacienda El Oasis Airport","elevation_ft":"354","continent":"NA","iso_country":"VE","iso_region":"VE-E","municipality":"La Palmita","scheduled_service":"no","gps_code":"SVJZ"},"geometry":{"type":"Point","coordinates":[-69.9571,8.36822]}},{"id":"40158","type":"Feature","properties":{"ident":"SVHP","type":"small_airport","name":"Hacienda El Paso Airport","elevation_ft":"495","continent":"SA","iso_country":"VE","iso_region":"VE-K","municipality":"Las Vegas del Tuy","scheduled_service":"no","gps_code":"SVHP"},"geometry":{"type":"Point","coordinates":[-69.208336,10.713333]}},{"id":"40392","type":"Feature","properties":{"ident":"VE-0043","type":"small_airport","name":"Hacienda La Ceibana Airport","elevation_ft":"41","continent":"SA","iso_country":"VE","iso_region":"VE-T","municipality":"La Ceiba","scheduled_service":"no","keywords":"Ceibana"},"geometry":{"type":"Point","coordinates":[-71.039725,9.406841]}},{"id":"40254","type":"Feature","properties":{"ident":"SVPS","type":"small_airport","name":"Hacienda La Pastora Airport","elevation_ft":"1084","continent":"SA","iso_country":"VE","iso_region":"VE-K","municipality":"San Pedro","scheduled_service":"no","gps_code":"SVPS"},"geometry":{"type":"Point","coordinates":[-70.121666,9.89]}},{"id":"40203","type":"Feature","properties":{"ident":"SVMJ","type":"small_airport","name":"Hacienda Las Lomas Airport","elevation_ft":"214","continent":"SA","iso_country":"VE","iso_region":"VE-U","scheduled_service":"no","gps_code":"SVMJ"},"geometry":{"type":"Point","coordinates":[-68.535004,10.598333]}},{"id":"6320","type":"Feature","properties":{"ident":"SVRX","type":"small_airport","name":"Hacienda Río Yaza Airport","elevation_ft":"492","continent":"SA","iso_country":"VE","iso_region":"VE-V","scheduled_service":"no","gps_code":"SVRX"},"geometry":{"type":"Point","coordinates":[-72.547203,9.84347]}},{"id":"40307","type":"Feature","properties":{"ident":"SVSL","type":"small_airport","name":"Hacienda Santa Elena de Mirand Airport","elevation_ft":"233","continent":"SA","iso_country":"VE","iso_region":"VE-M","scheduled_service":"no","gps_code":"SVSL"},"geometry":{"type":"Point","coordinates":[-66.300003,10.316667]}},{"id":"40132","type":"Feature","properties":{"ident":"SVFE","type":"small_airport","name":"Hacienda Santa Fé Airport","elevation_ft":"157","continent":"SA","iso_country":"VE","iso_region":"VE-V","municipality":"Hacienda Santa Fé","scheduled_service":"no","gps_code":"SVFE"},"geometry":{"type":"Point","coordinates":[-72.565838,9.57438]}},{"id":"40430","type":"Feature","properties":{"ident":"VE-0081","type":"small_airport","name":"Hato Aguaro Airport","elevation_ft":"159","continent":"SA","iso_country":"VE","iso_region":"VE-J","scheduled_service":"no"},"geometry":{"type":"Point","coordinates":[-66.583336,8.116667]}},{"id":"40150","type":"Feature","properties":{"ident":"SVHA","type":"small_airport","name":"Hato Altamira de Bolívar Airport","elevation_ft":"1098","continent":"SA","iso_country":"VE","iso_region":"VE-F","scheduled_service":"no","gps_code":"SVHA"},"geometry":{"type":"Point","coordinates":[-63.216667,7.6]}},{"id":"40161","type":"Feature","properties":{"ident":"SVHT","type":"small_airport","name":"Hato Altamira de Monagas Airport","elevation_ft":"154","continent":"SA","iso_country":"VE","iso_region":"VE-N","scheduled_service":"no","gps_code":"SVHT"},"geometry":{"type":"Point","coordinates":[-63.083332,9.366667]}},{"id":"40097","type":"Feature","properties":{"ident":"SVBW","type":"small_airport","name":"Hato El Burro Airport","elevation_ft":"921","continent":"SA","iso_country":"VE","iso_region":"VE-F","scheduled_service":"no","gps_code":"SVBW"},"geometry":{"type":"Point","coordinates":[-63.461154,7.128957]}},{"id":"40164","type":"Feature","properties":{"ident":"SVIM","type":"small_airport","name":"Hato El Caimán Airport","elevation_ft":"462","continent":"SA","iso_country":"VE","iso_region":"VE-P","scheduled_service":"no","gps_code":"SVIM"},"geometry":{"type":"Point","coordinates":[-69.620003,9.1]}},{"id":"40159","type":"Feature","properties":{"ident":"SVHR","type":"small_airport","name":"Hato El Carito Airport","elevation_ft":"256","continent":"SA","iso_country":"VE","iso_region":"VE-H","municipality":"Los Marimares","scheduled_service":"no","gps_code":"SVHR"},"geometry":{"type":"Point","coordinates":[-67.949997,9.5]}},{"id":"40431","type":"Feature","properties":{"ident":"VE-0082","type":"small_airport","name":"Hato El Cujicito Airport","elevation_ft":"245","continent":"SA","iso_country":"VE","iso_region":"VE-J","scheduled_service":"no"},"geometry":{"type":"Point","coordinates":[-67.800003,8.966667]}},{"id":"342235","type":"Feature","properties":{"ident":"VE-0216","type":"small_airport","name":"Hato el Gallo Airstrip","elevation_ft":"318","continent":"SA","iso_country":"VE","iso_region":"VE-N","municipality":"Maturín","scheduled_service":"no"},"geometry":{"type":"Point","coordinates":[-63.3372,9.429]}},{"id":"40432","type":"Feature","properties":{"ident":"VE-0083","type":"small_airport","name":"Hato El Gallo de Oro Airport","elevation_ft":"565","continent":"SA","iso_country":"VE","iso_region":"VE-B","scheduled_service":"no"},"geometry":{"type":"Point","coordinates":[-63.601665,8.84]}},{"id":"40253","type":"Feature","properties":{"ident":"SVPO","type":"small_airport","name":"Hato El Porvenir Airport","elevation_ft":"295","continent":"SA","iso_country":"VE","iso_region":"VE-C","scheduled_service":"no","gps_code":"SVPO"},"geometry":{"type":"Point","coordinates":[-68.25,7.55]}},{"id":"40235","type":"Feature","properties":{"ident":"SVOO","type":"small_airport","name":"Hato El Rosero Airport","elevation_ft":"262","continent":"SA","iso_country":"VE","iso_region":"VE-C","scheduled_service":"no","gps_code":"SVOO"},"geometry":{"type":"Point","coordinates":[-69.416664,7.65]}},{"id":"40433","type":"Feature","properties":{"ident":"VE-0084","type":"small_airport","name":"Hato El Samán Airport","elevation_ft":"325","continent":"SA","iso_country":"VE","iso_region":"VE-J","scheduled_service":"no"},"geometry":{"type":"Point","coordinates":[-67.131668,8.805]}},{"id":"40160","type":"Feature","properties":{"ident":"SVHS","type":"small_airport","name":"Hato El Sesenta Airport","elevation_ft":"499","continent":"SA","iso_country":"VE","iso_region":"VE-J","municipality":"El Socorro","scheduled_service":"no","gps_code":"SVXS"},"geometry":{"type":"Point","coordinates":[-65.556921,8.245639]}},{"id":"40434","type":"Feature","properties":{"ident":"VE-0085","type":"small_airport","name":"Hato El Socorro Airport","elevation_ft":"388","continent":"SA","iso_country":"VE","iso_region":"VE-H","municipality":"El Socorro","scheduled_service":"no"},"geometry":{"type":"Point","coordinates":[-68.224998,8.991667]}},{"id":"40435","type":"Feature","properties":{"ident":"VE-0086","type":"small_airport","name":"Hato Guaribe Airport","elevation_ft":"727","continent":"SA","iso_country":"VE","iso_region":"VE-N","scheduled_service":"no"},"geometry":{"type":"Point","coordinates":[-63.573334,9.838333]}},{"id":"40162","type":"Feature","properties":{"ident":"SVHX","type":"small_airport","name":"Hato La Candelaria Airport","elevation_ft":"254","continent":"SA","iso_country":"VE","iso_region":"VE-J","scheduled_service":"no","gps_code":"SVHX"},"geometry":{"type":"Point","coordinates":[-67.716667,8.683333]}},{"id":"40156","type":"Feature","properties":{"ident":"SVHN","type":"small_airport","name":"Hato La Chaconera Airport","elevation_ft":"208","continent":"SA","iso_country":"VE","iso_region":"VE-E","scheduled_service":"no","gps_code":"SVHN"},"geometry":{"type":"Point","coordinates":[-68.719101,8.10541]}},{"id":"40153","type":"Feature","properties":{"ident":"SVHK","type":"small_airport","name":"Hato la Guaca Airport","elevation_ft":"328","continent":"SA","iso_country":"VE","iso_region":"VE-J","scheduled_service":"no","gps_code":"SVHK"},"geometry":{"type":"Point","coordinates":[-67.783333,9.4]}},{"id":"40171","type":"Feature","properties":{"ident":"SVJU","type":"small_airport","name":"Hato La Laguna del Junco Airport","elevation_ft":"295","continent":"SA","iso_country":"VE","iso_region":"VE-H","scheduled_service":"no","gps_code":"SVJU"},"geometry":{"type":"Point","coordinates":[-68.10817,9.203088]}},{"id":"40167","type":"Feature","properties":{"ident":"SVJI","type":"small_airport","name":"Hato La Lejanía Airport","elevation_ft":"264","continent":"SA","iso_country":"VE","iso_region":"VE-N","scheduled_service":"no","gps_code":"SVJI"},"geometry":{"type":"Point","coordinates":[-63.118599,9.09718]}},{"id":"40244","type":"Feature","properties":{"ident":"SVPD","type":"small_airport","name":"Hato La Ponderosa Airport","elevation_ft":"257","continent":"SA","iso_country":"VE","iso_region":"VE-C","scheduled_service":"no","gps_code":"SVPD"},"geometry":{"type":"Point","coordinates":[-67.900002,7.1]}},{"id":"40288","type":"Feature","properties":{"ident":"SVRM","type":"small_airport","name":"Hato La Romereña Airport","elevation_ft":"665","continent":"SA","iso_country":"VE","iso_region":"VE-J","scheduled_service":"no","gps_code":"SVRM"},"geometry":{"type":"Point","coordinates":[-67.666664,9.5]}},{"id":"40338","type":"Feature","properties":{"ident":"SVVR","type":"small_airport","name":"Hato La Vergareña Airport","elevation_ft":"1082","continent":"SA","iso_country":"VE","iso_region":"VE-F","scheduled_service":"no","gps_code":"SVVR"},"geometry":{"type":"Point","coordinates":[-63.583332,6.833333]}},{"id":"40163","type":"Feature","properties":{"ident":"SVHY","type":"small_airport","name":"Hato Las Yeguas Airport","elevation_ft":"1049","continent":"SA","iso_country":"VE","iso_region":"VE-H","scheduled_service":"no","gps_code":"SVHY"},"geometry":{"type":"Point","coordinates":[-68.471664,8.72]}},{"id":"40155","type":"Feature","properties":{"ident":"SVHM","type":"small_airport","name":"Hato Los Mamones Airport","elevation_ft":"594","continent":"SA","iso_country":"VE","iso_region":"VE-H","municipality":"Hato Los Mamomes","scheduled_service":"no","gps_code":"SVHM"},"geometry":{"type":"Point","coordinates":[-67.916664,9.333333]}},{"id":"40436","type":"Feature","properties":{"ident":"VE-0087","type":"small_airport","name":"Hato Los Pozos Airport","elevation_ft":"665","continent":"SA","iso_country":"VE","iso_region":"VE-J","scheduled_service":"no"},"geometry":{"type":"Point","coordinates":[-65.803329,9.635]}},{"id":"40187","type":"Feature","properties":{"ident":"SVLK","type":"small_airport","name":"Hato Macolla Airport","elevation_ft":"296","continent":"SA","iso_country":"VE","iso_region":"VE-C","scheduled_service":"no","gps_code":"SVLK"},"geometry":{"type":"Point","coordinates":[-69.166664,6.166667]}},{"id":"40221","type":"Feature","properties":{"ident":"SVNK","type":"small_airport","name":"Hato Mikitole Airport","elevation_ft":"328","continent":"SA","iso_country":"VE","iso_region":"VE-B","scheduled_service":"no","gps_code":"SVNK"},"geometry":{"type":"Point","coordinates":[-63.56778,8.417778]}},{"id":"40118","type":"Feature","properties":{"ident":"SVDX","type":"small_airport","name":"Hato Puga Airport","elevation_ft":"268","continent":"SA","iso_country":"VE","iso_region":"VE-Y","scheduled_service":"no","gps_code":"SVDX"},"geometry":{"type":"Point","coordinates":[-62.483334,8.466667]}},{"id":"40152","type":"Feature","properties":{"ident":"SVHE","type":"small_airport","name":"Hato Rancho Alegre Airport","elevation_ft":"534","continent":"SA","iso_country":"VE","iso_region":"VE-J","scheduled_service":"no","gps_code":"SVHE"},"geometry":{"type":"Point","coordinates":[-67.566666,9.566667]}},{"id":"40437","type":"Feature","properties":{"ident":"VE-0088","type":"small_airport","name":"Hato Rancho Novillero Airport","elevation_ft":"631","continent":"SA","iso_country":"VE","iso_region":"VE-B","scheduled_service":"no"},"geometry":{"type":"Point","coordinates":[-63.738335,8.785]}},{"id":"40438","type":"Feature","properties":{"ident":"VE-0089","type":"small_airport","name":"Hato San Antonio Airport","elevation_ft":"294","continent":"SA","iso_country":"VE","iso_region":"VE-J","scheduled_service":"no"},"geometry":{"type":"Point","coordinates":[-67.650002,9.05]}},{"id":"40439","type":"Feature","properties":{"ident":"VE-0090","type":"small_airport","name":"Hato San Francisco Airport","elevation_ft":"623","continent":"SA","iso_country":"VE","iso_region":"VE-C","scheduled_service":"no"},"geometry":{"type":"Point","coordinates":[-69.324997,7.668333]}},{"id":"40440","type":"Feature","properties":{"ident":"VE-0091","type":"small_airport","name":"Hato San Leonardo Airport","elevation_ft":"511","continent":"SA","iso_country":"VE","iso_region":"VE-C","scheduled_service":"no"},"geometry":{"type":"Point","coordinates":[-68.261665,6.99]}},{"id":"40344","type":"Feature","properties":{"ident":"SVXF","type":"small_airport","name":"Hato Santa Clara Airport","elevation_ft":"393","continent":"SA","iso_country":"VE","iso_region":"VE-C","scheduled_service":"no","gps_code":"SVXF"},"geometry":{"type":"Point","coordinates":[-69.25,7.15]}},{"id":"595248","type":"Feature","properties":{"ident":"VE-0234","type":"small_airport","name":"Hato Santa Rita Airfield","elevation_ft":"131","continent":"SA","iso_country":"VE","iso_region":"VE-C","municipality":"San Fernando de Apure","scheduled_service":"no","icao_code":"SVQS","gps_code":"SVQS","keywords":"Agropecuaria Santa Rita"},"geometry":{"type":"Point","coordinates":[-67.01453,7.57581]}},{"id":"595250","type":"Feature","properties":{"ident":"VE-0236","type":"small_airport","name":"Hato Santa Rosa Airfield","elevation_ft":"184","continent":"SA","iso_country":"VE","iso_region":"VE-J","municipality":"Corocito","scheduled_service":"no"},"geometry":{"type":"Point","coordinates":[-67.61337,8.27121]}},{"id":"40441","type":"Feature","properties":{"ident":"VE-0092","type":"small_airport","name":"Hato Servio Tulio Airport","elevation_ft":"520","continent":"SA","iso_country":"VE","iso_region":"VE-B","municipality":"Las Matas","scheduled_service":"no"},"geometry":{"type":"Point","coordinates":[-64.620003,8.705]}},{"id":"40087","type":"Feature","properties":{"ident":"VE-0231","type":"small_airport","name":"Hato Urañon Airport","elevation_ft":"410","continent":"SA","iso_country":"VE","iso_region":"VE-C","scheduled_service":"no","local_code":"SVBF","keywords":"SVBF"},"geometry":{"type":"Point","coordinates":[-67.19261,6.99328]}},{"id":"40117","type":"Feature","properties":{"ident":"SVDV","type":"small_airport","name":"Hato Veladero Airport","elevation_ft":"239","continent":"SA","iso_country":"VE","iso_region":"VE-N","scheduled_service":"no","gps_code":"SVDV"},"geometry":{"type":"Point","coordinates":[-63.174999,9.45]}},{"id":"40090","type":"Feature","properties":{"ident":"SVBJ","type":"small_airport","name":"Hato Viejo Airport","elevation_ft":"524","continent":"SA","iso_country":"VE","iso_region":"VE-C","scheduled_service":"no","gps_code":"SVBJ"},"geometry":{"type":"Point","coordinates":[-69.669998,7.321667]}},{"id":"40442","type":"Feature","properties":{"ident":"VE-0093","type":"small_airport","name":"Hato Yavi Airport","elevation_ft":"415","continent":"SA","iso_country":"VE","iso_region":"VE-Z","scheduled_service":"no"},"geometry":{"type":"Point","coordinates":[-65.860703,5.58967]}},{"id":"40443","type":"Feature","properties":{"ident":"VE-0094","type":"heliport","name":"Heliyasa  Heliport","elevation_ft":"1017","continent":"SA","iso_country":"VE","iso_region":"VE-U","municipality":"La Piedra","scheduled_service":"no"},"geometry":{"type":"Point","coordinates":[-69.083336,10.116667]}},{"id":"6289","type":"Feature","properties":{"ident":"SVHG","type":"small_airport","name":"Higuerote Airport","elevation_ft":"12","continent":"SA","iso_country":"VE","iso_region":"VE-M","municipality":"Higuerote","scheduled_service":"no","icao_code":"SVHG","iata_code":"HGE","gps_code":"SVHG","wikipedia_link":"https://en.wikipedia.org/wiki/Higuerote_Airport","keywords":"Sabana de Oro"},"geometry":{"type":"Point","coordinates":[-66.092779,10.462474]}},{"id":"31661","type":"Feature","properties":{"ident":"SVIC","type":"small_airport","name":"Icabarú Airport","elevation_ft":"1574","continent":"SA","iso_country":"VE","iso_region":"VE-F","scheduled_service":"no","icao_code":"SVIC","iata_code":"ICA","gps_code":"SVIC","wikipedia_link":"https://en.wikipedia.org/wiki/Icabar%C3%BA_Airport"},"geometry":{"type":"Point","coordinates":[-61.739601,4.33632]}},{"id":"40444","type":"Feature","properties":{"ident":"VE-0095","type":"heliport","name":"Isla de Tigre  Heliport","elevation_ft":"20","continent":"SA","iso_country":"VE","iso_region":"VE-Y","municipality":"Isla de Tigre","scheduled_service":"no","keywords":"ELX"},"geometry":{"type":"Point","coordinates":[-62.436699,9.57]}},{"id":"40445","type":"Feature","properties":{"ident":"VE-0096","type":"small_airport","name":"Isla Ratón Airport","elevation_ft":"302","continent":"SA","iso_country":"VE","iso_region":"VE-Z","scheduled_service":"no"},"geometry":{"type":"Point","coordinates":[-67.817223,5.050278]}},{"id":"341703","type":"Feature","properties":{"ident":"VE-0213","type":"heliport","name":"JM Casal Ramos Hospital Helipad","continent":"SA","iso_country":"VE","iso_region":"VE-P","municipality":"Acarigua","scheduled_service":"no"},"geometry":{"type":"Point","coordinates":[-69.218464,9.558571]}},{"id":"40092","type":"Feature","properties":{"ident":"SVBP","type":"small_airport","name":"Jobito Airport","elevation_ft":"138","continent":"SA","iso_country":"VE","iso_region":"VE-C","municipality":"San Fernando de Apure","scheduled_service":"no","gps_code":"SVBP"},"geometry":{"type":"Point","coordinates":[-67.207841,7.590715]}},{"id":"40446","type":"Feature","properties":{"ident":"VE-0097","type":"heliport","name":"Jose  Heliport","elevation_ft":"40","continent":"SA","iso_country":"VE","iso_region":"VE-B","municipality":"El José","scheduled_service":"no"},"geometry":{"type":"Point","coordinates":[-64.867897,10.0699]}},{"id":"6292","type":"Feature","properties":{"ident":"SVJC","type":"medium_airport","name":"Josefa Camejo International Airport","elevation_ft":"75","continent":"SA","iso_country":"VE","iso_region":"VE-I","municipality":"Paraguaná","scheduled_service":"yes","icao_code":"SVJC","iata_code":"LSP","gps_code":"SVJC","wikipedia_link":"https://en.wikipedia.org/wiki/Josefa_Camejo_International_Airport"},"geometry":{"type":"Point","coordinates":[-70.151497,11.780775]}},{"id":"6271","type":"Feature","properties":{"ident":"SVCR","type":"medium_airport","name":"José Leonardo Chirinos Airport","elevation_ft":"52","continent":"SA","iso_country":"VE","iso_region":"VE-I","municipality":"Coro","scheduled_service":"yes","icao_code":"SVCR","iata_code":"CZE","gps_code":"SVCR","wikipedia_link":"https://en.wikipedia.org/wiki/Jos%C3%A9_Leonardo_Chirino_Airport"},"geometry":{"type":"Point","coordinates":[-69.680901,11.414944]}},{"id":"6302","type":"Feature","properties":{"ident":"SVMT","type":"medium_airport","name":"José Tadeo Monagas International Airport","elevation_ft":"224","continent":"SA","iso_country":"VE","iso_region":"VE-N","municipality":"Maturín","scheduled_service":"yes","icao_code":"SVMT","iata_code":"MUN","gps_code":"SVMT","wikipedia_link":"https://en.wikipedia.org/wiki/Jos%C3%A9_Tadeo_Monagas_International_Airport"},"geometry":{"type":"Point","coordinates":[-63.153348,9.749023]}},{"id":"40165","type":"Feature","properties":{"ident":"SVJF","type":"small_airport","name":"Juan Florencio Airport","elevation_ft":"187","continent":"SA","iso_country":"VE","iso_region":"VE-C","scheduled_service":"no","gps_code":"SVJF"},"geometry":{"type":"Point","coordinates":[-67.98333,7.4]}},{"id":"40447","type":"Feature","properties":{"ident":"VE-0098","type":"small_airport","name":"Juan Mateo Airport","elevation_ft":"192","continent":"SA","iso_country":"VE","iso_region":"VE-C","municipality":"Juan Mateo","scheduled_service":"no"},"geometry":{"type":"Point","coordinates":[-68.136665,7.431667]}},{"id":"6335","type":"Feature","properties":{"ident":"SVVG","type":"medium_airport","name":"Juan Pablo Pérez Alfonso Airport","elevation_ft":"250","continent":"SA","iso_country":"VE","iso_region":"VE-L","municipality":"El Vigía","scheduled_service":"yes","icao_code":"SVVG","iata_code":"VIG","gps_code":"SVVG","wikipedia_link":"https://en.wikipedia.org/wiki/Juan_Pablo_P%C3%A9rez_Alfonzo_Airport"},"geometry":{"type":"Point","coordinates":[-71.672668,8.624139]}},{"id":"40166","type":"Feature","properties":{"ident":"SVJH","type":"small_airport","name":"Juancho Airport","elevation_ft":"197","continent":"SA","iso_country":"VE","iso_region":"VE-B","municipality":"Soledad","scheduled_service":"no","gps_code":"SVJH"},"geometry":{"type":"Point","coordinates":[-63.596001,8.17972]}},{"id":"40448","type":"Feature","properties":{"ident":"VE-0099","type":"small_airport","name":"Junglaven Airport","elevation_ft":"404","continent":"SA","iso_country":"VE","iso_region":"VE-Z","scheduled_service":"no"},"geometry":{"type":"Point","coordinates":[-66.23333,5.05]}},{"id":"41598","type":"Feature","properties":{"ident":"SVKM","type":"small_airport","name":"Kamarata Airport","elevation_ft":"1770","continent":"SA","iso_country":"VE","iso_region":"VE-F","municipality":"Kamarata","scheduled_service":"no","icao_code":"SVKM","iata_code":"KTV","gps_code":"SVKM","wikipedia_link":"https://en.wikipedia.org/wiki/Kamarata_Airport"},"geometry":{"type":"Point","coordinates":[-62.33727,5.7171]}},{"id":"40449","type":"Feature","properties":{"ident":"VE-0100","type":"small_airport","name":"Kanarakuni Norte Airport","elevation_ft":"1374","continent":"SA","iso_country":"VE","iso_region":"VE-F","scheduled_service":"no"},"geometry":{"type":"Point","coordinates":[-64.133331,4.433333]}},{"id":"40450","type":"Feature","properties":{"ident":"VE-0101","type":"small_airport","name":"Kanarakuni Sur Airport","elevation_ft":"1503","continent":"SA","iso_country":"VE","iso_region":"VE-F","scheduled_service":"no"},"geometry":{"type":"Point","coordinates":[-64.116669,4.416667]}},{"id":"40451","type":"Feature","properties":{"ident":"VE-0102","type":"small_airport","name":"Kanaripo Airport","elevation_ft":"302","continent":"SA","iso_country":"VE","iso_region":"VE-Z","scheduled_service":"no"},"geometry":{"type":"Point","coordinates":[-66.949997,4.066667]}},{"id":"40452","type":"Feature","properties":{"ident":"VE-0103","type":"small_airport","name":"Kavac Airport","elevation_ft":"1600","continent":"SA","iso_country":"VE","iso_region":"VE-F","scheduled_service":"no"},"geometry":{"type":"Point","coordinates":[-62.409559,5.71196]}},{"id":"31718","type":"Feature","properties":{"ident":"SVKA","type":"small_airport","name":"Kavanayen Airport","elevation_ft":"3900","continent":"SA","iso_country":"VE","iso_region":"VE-F","municipality":"Kavanayén","scheduled_service":"no","icao_code":"SVKA","iata_code":"KAV","gps_code":"SVKA","wikipedia_link":"https://en.wikipedia.org/wiki/Kavanay%C3%A9n_Airport"},"geometry":{"type":"Point","coordinates":[-61.763333,5.593056]}},{"id":"595253","type":"Feature","properties":{"ident":"VE-0239","type":"small_airport","name":"Kilómetro 18 Airstrip","elevation_ft":"282","continent":"SA","iso_country":"VE","iso_region":"VE-J","municipality":"Los Naranjos","scheduled_service":"no"},"geometry":{"type":"Point","coordinates":[-67.50918,8.86984]}},{"id":"40185","type":"Feature","properties":{"ident":"SVLI","type":"small_airport","name":"La Alcancía Airport","elevation_ft":"46","continent":"SA","iso_country":"VE","iso_region":"VE-C","scheduled_service":"no","gps_code":"SVLI"},"geometry":{"type":"Point","coordinates":[-67.35287,7.30698]}},{"id":"40192","type":"Feature","properties":{"ident":"SVLT","type":"small_airport","name":"La Argentina Airport","elevation_ft":"270","continent":"SA","iso_country":"VE","iso_region":"VE-C","scheduled_service":"no","gps_code":"SVLT"},"geometry":{"type":"Point","coordinates":[-69.183334,7.583333]}},{"id":"6338","type":"Feature","properties":{"ident":"SVWB","type":"small_airport","name":"La Bananera Airport","elevation_ft":"49","continent":"SA","iso_country":"VE","iso_region":"VE-U","scheduled_service":"no","gps_code":"SVWB"},"geometry":{"type":"Point","coordinates":[-68.472801,10.4795]}},{"id":"40088","type":"Feature","properties":{"ident":"SVBG","type":"small_airport","name":"La Batalla Airport","elevation_ft":"273","continent":"SA","iso_country":"VE","iso_region":"VE-H","municipality":"La Cruz","scheduled_service":"no","gps_code":"SVBG"},"geometry":{"type":"Point","coordinates":[-68.166664,9.2]}},{"id":"40453","type":"Feature","properties":{"ident":"VE-0104","type":"small_airport","name":"La Bendición Ramera Airport","elevation_ft":"236","continent":"SA","iso_country":"VE","iso_region":"VE-C","scheduled_service":"no"},"geometry":{"type":"Point","coordinates":[-68.900002,7.483333]}},{"id":"40179","type":"Feature","properties":{"ident":"SVLB","type":"small_airport","name":"La Blanquilla Airport","elevation_ft":"59","continent":"NA","iso_country":"VE","iso_region":"VE-O","municipality":"La Blanquilla - Isla Margarita","scheduled_service":"no","gps_code":"SVIB"},"geometry":{"type":"Point","coordinates":[-64.586212,11.820579]}},{"id":"40172","type":"Feature","properties":{"ident":"SVKB","type":"small_airport","name":"La Calzada Airport","elevation_ft":"291","continent":"SA","iso_country":"VE","iso_region":"VE-E","scheduled_service":"no","gps_code":"SVKB"},"geometry":{"type":"Point","coordinates":[-70.099998,7.983333]}},{"id":"40189","type":"Feature","properties":{"ident":"SVLN","type":"small_airport","name":"La Candelaria Airport","elevation_ft":"420","continent":"SA","iso_country":"VE","iso_region":"VE-I","scheduled_service":"no","gps_code":"SVLN"},"geometry":{"type":"Point","coordinates":[-68.333504,10.7267]}},{"id":"40454","type":"Feature","properties":{"ident":"VE-0105","type":"small_airport","name":"La Cantara Airport","elevation_ft":"297","continent":"SA","iso_country":"VE","iso_region":"VE-P","scheduled_service":"no"},"geometry":{"type":"Point","coordinates":[-69.241669,8.716667]}},{"id":"40322","type":"Feature","properties":{"ident":"SVTL","type":"small_airport","name":"La Centella Airport","elevation_ft":"839","continent":"SA","iso_country":"VE","iso_region":"VE-F","scheduled_service":"no","gps_code":"SVTL"},"geometry":{"type":"Point","coordinates":[-65.89167,6.941667]}},{"id":"6297","type":"Feature","properties":{"ident":"SVMC","type":"medium_airport","name":"La Chinita International Airport","elevation_ft":"239","continent":"SA","iso_country":"VE","iso_region":"VE-V","municipality":"Maracaibo","scheduled_service":"yes","icao_code":"SVMC","iata_code":"MAR","gps_code":"SVMC","wikipedia_link":"https://en.wikipedia.org/wiki/La_Chinita_International_Airport"},"geometry":{"type":"Point","coordinates":[-71.727859,10.558208]}},{"id":"40455","type":"Feature","properties":{"ident":"VE-0106","type":"heliport","name":"La Concepción  Heliport","elevation_ft":"259","continent":"SA","iso_country":"VE","iso_region":"VE-V","municipality":"La Concepción","scheduled_service":"no"},"geometry":{"type":"Point","coordinates":[-71.818336,10.618333]}},{"id":"6253","type":"Feature","properties":{"ident":"VE-0210","type":"small_airport","name":"La Culata Airport","elevation_ft":"295","continent":"SA","iso_country":"VE","iso_region":"VE-H","scheduled_service":"no","gps_code":"SVKZ"},"geometry":{"type":"Point","coordinates":[-68.391008,9.284347]}},{"id":"32394","type":"Feature","properties":{"ident":"SVDP","type":"small_airport","name":"La Divina Pastora Airport","elevation_ft":"2581","continent":"SA","iso_country":"VE","iso_region":"VE-F","scheduled_service":"no","gps_code":"SVDP"},"geometry":{"type":"Point","coordinates":[-60.965,4.73]}},{"id":"40456","type":"Feature","properties":{"ident":"VE-0107","type":"small_airport","name":"La Esmeralda Airport","elevation_ft":"375","continent":"SA","iso_country":"VE","iso_region":"VE-Z","municipality":"La Esmeralda","scheduled_service":"no","gps_code":"SVLE","keywords":"Aeropuerto La Esmeralda"},"geometry":{"type":"Point","coordinates":[-65.541086,3.172225]}},{"id":"40130","type":"Feature","properties":{"ident":"SVEX","type":"small_airport","name":"La Esperanza Airport","elevation_ft":"256","continent":"SA","iso_country":"VE","iso_region":"VE-P","scheduled_service":"no","gps_code":"SVEX"},