{"type":"FeatureCollection","features":[{"id":"601570","type":"Feature","properties":{"ident":"VE-0373","type":"heliport","name":"171 Autopista Bolívar HLS","elevation_ft":"328","continent":"SA","iso_country":"VE","iso_region":"VE-F","scheduled_service":"no"},"geometry":{"type":"Point","coordinates":[-63.137345,8.229435]}},{"id":"40350","type":"Feature","properties":{"ident":"VE-0001","type":"small_airport","name":"Acañana Airport","elevation_ft":"418","continent":"SA","iso_country":"VE","iso_region":"VE-Z","scheduled_service":"no"},"geometry":{"type":"Point","coordinates":[-65.949997,3.233333]}},{"id":"40351","type":"Feature","properties":{"ident":"VE-0002","type":"heliport","name":"Acañana Heliport","elevation_ft":"460","continent":"SA","iso_country":"VE","iso_region":"VE-Z","scheduled_service":"no"},"geometry":{"type":"Point","coordinates":[-65.949997,3.233333]}},{"id":"40099","type":"Feature","properties":{"ident":"SVCH","type":"small_airport","name":"Achaguas Airport","elevation_ft":"187","continent":"SA","iso_country":"VE","iso_region":"VE-C","scheduled_service":"no","gps_code":"SVCH"},"geometry":{"type":"Point","coordinates":[-68.239998,7.74]}},{"id":"32393","type":"Feature","properties":{"ident":"SVAR","type":"small_airport","name":"Adícora Airport","elevation_ft":"7","continent":"SA","iso_country":"VE","iso_region":"VE-I","municipality":"Adícora","scheduled_service":"no","icao_code":"SVAD","gps_code":"SVAD"},"geometry":{"type":"Point","coordinates":[-69.811965,11.936079]}},{"id":"341794","type":"Feature","properties":{"ident":"VE-0214","type":"small_airport","name":"Aerofumigaciones Campo Alegre Airstrip","continent":"SA","iso_country":"VE","iso_region":"VE-H","municipality":"Campo Alegre","scheduled_service":"no"},"geometry":{"type":"Point","coordinates":[-68.677618,9.453367]}},{"id":"40355","type":"Feature","properties":{"ident":"VE-0006","type":"heliport","name":"Aeroservicios Ranger  HLS","elevation_ft":"525","continent":"SA","iso_country":"VE","iso_region":"VE-F","municipality":"Tumeremo","scheduled_service":"no","icao_code":"SVKR"},"geometry":{"type":"Point","coordinates":[-61.501389,7.300556]}},{"id":"601490","type":"Feature","properties":{"ident":"VE-0316","type":"heliport","name":"Agroindustrial Mandioca HLS","elevation_ft":"197","continent":"SA","iso_country":"VE","iso_region":"VE-N","municipality":"Mata Negra","scheduled_service":"no"},"geometry":{"type":"Point","coordinates":[-62.761352,8.98684]}},{"id":"40357","type":"Feature","properties":{"ident":"VE-0008","type":"small_airport","name":"Agropecuaria Cuajarote Airport","elevation_ft":"400","continent":"SA","iso_country":"VE","iso_region":"VE-J","scheduled_service":"no"},"geometry":{"type":"Point","coordinates":[-67.558334,9.258333]}},{"id":"40141","type":"Feature","properties":{"ident":"SVGA","type":"small_airport","name":"Agropecuaria Gamma Airport","elevation_ft":"495","continent":"SA","iso_country":"VE","iso_region":"VE-E","scheduled_service":"no"},"geometry":{"type":"Point","coordinates":[-70,8.75]}},{"id":"40143","type":"Feature","properties":{"ident":"SVGG","type":"small_airport","name":"Agropecuaria Los Araguaneyes Airport","elevation_ft":"507","continent":"SA","iso_country":"VE","iso_region":"VE-N","scheduled_service":"no","gps_code":"SVAH"},"geometry":{"type":"Point","coordinates":[-63.049999,9.583333]}},{"id":"40304","type":"Feature","properties":{"ident":"SVSI","type":"small_airport","name":"Agropecuaria San Francisco Airport","elevation_ft":"192","continent":"SA","iso_country":"VE","iso_region":"VE-H","municipality":"Haoo Piñero","scheduled_service":"no","gps_code":"SVSI"},"geometry":{"type":"Point","coordinates":[-68.081333,8.930227]}},{"id":"40079","type":"Feature","properties":{"ident":"SVAU","type":"small_airport","name":"Agua Clara Airport","elevation_ft":"328","continent":"SA","iso_country":"VE","iso_region":"VE-C","scheduled_service":"no","gps_code":"SVAU"},"geometry":{"type":"Point","coordinates":[-68.333336,6.75]}},{"id":"40145","type":"Feature","properties":{"ident":"SVGL","type":"small_airport","name":"Agua Linda Airport","elevation_ft":"417","continent":"SA","iso_country":"VE","iso_region":"VE-E","scheduled_service":"no","gps_code":"SVGL"},"geometry":{"type":"Point","coordinates":[-70.849998,7.635]}},{"id":"6298","type":"Feature","properties":{"ident":"SVMD","type":"medium_airport","name":"Alberto Carnevalli Airport","elevation_ft":"5007","continent":"SA","iso_country":"VE","iso_region":"VE-L","municipality":"Mérida","scheduled_service":"no","icao_code":"SVMD","iata_code":"MRD","gps_code":"SVMD","wikipedia_link":"https://en.wikipedia.org/wiki/Alberto_Carnevalli_Airport"},"geometry":{"type":"Point","coordinates":[-71.161041,8.582078]}},{"id":"601397","type":"Feature","properties":{"ident":"VE-0252","type":"heliport","name":"Alcabala Yuruaní HLS","elevation_ft":"2788","continent":"SA","iso_country":"VE","iso_region":"VE-F","municipality":"San Ignacio del Yuruaní","scheduled_service":"no","keywords":"military"},"geometry":{"type":"Point","coordinates":[-61.142027,5.00954]}},{"id":"40074","type":"Feature","properties":{"ident":"SVAL","type":"small_airport","name":"Algodonal Airport","elevation_ft":"574","continent":"SA","iso_country":"VE","iso_region":"VE-E","scheduled_service":"no","gps_code":"SVAL"},"geometry":{"type":"Point","coordinates":[-69.51667,8.35]}},{"id":"40076","type":"Feature","properties":{"ident":"SVAO","type":"small_airport","name":"Altagracia de Orituco Airport","elevation_ft":"1148","continent":"SA","iso_country":"VE","iso_region":"VE-J","scheduled_service":"no","gps_code":"SVAO"},"geometry":{"type":"Point","coordinates":[-66.293335,9.863333]}},{"id":"6251","type":"Feature","properties":{"ident":"SVAN","type":"medium_airport","name":"Anaco Airport","elevation_ft":"721","continent":"SA","iso_country":"VE","iso_region":"VE-B","municipality":"Anaco","scheduled_service":"no","icao_code":"SVAN","iata_code":"AAO","gps_code":"SVAN","wikipedia_link":"https://en.wikipedia.org/wiki/Anaco_Airport"},"geometry":{"type":"Point","coordinates":[-64.470726,9.430225]}},{"id":"601616","type":"Feature","properties":{"ident":"VE-0397","type":"heliport","name":"Anaco Heliport","elevation_ft":"722","continent":"SA","iso_country":"VE","iso_region":"VE-B","municipality":"Anaco","scheduled_service":"no"},"geometry":{"type":"Point","coordinates":[-64.471432,9.430572]}},{"id":"6291","type":"Feature","properties":{"ident":"SVIE","type":"small_airport","name":"Andrés Miguel Salazar Marcano Airport","elevation_ft":"10","continent":"SA","iso_country":"VE","iso_region":"VE-O","municipality":"Isla de Coche","scheduled_service":"yes","icao_code":"SVIE","iata_code":"ICC","gps_code":"SVIE","wikipedia_link":"https://en.wikipedia.org/wiki/Andr%C3%A9s_Miguel_Salazar_Marcano_Airport"},"geometry":{"type":"Point","coordinates":[-63.98159,10.794432]}},{"id":"40318","type":"Feature","properties":{"ident":"SVTE","type":"small_airport","name":"Antabare Airport","elevation_ft":"1204","continent":"SA","iso_country":"VE","iso_region":"VE-F","municipality":"Campamento  Arekuna","scheduled_service":"no","icao_code":"SVAB","gps_code":"SVAB"},"geometry":{"type":"Point","coordinates":[-62.893938,6.484817]}},{"id":"6273","type":"Feature","properties":{"ident":"SVCU","type":"medium_airport","name":"Antonio José de Sucre Airport","elevation_ft":"14","continent":"SA","iso_country":"VE","iso_region":"VE-R","municipality":"Cumaná","scheduled_service":"yes","icao_code":"SVCU","iata_code":"CUM","gps_code":"SVCU","wikipedia_link":"https://en.wikipedia.org/wiki/Antonio_Jos%C3%A9_de_Sucre_Airport"},"geometry":{"type":"Point","coordinates":[-64.13047,10.450333]}},{"id":"601412","type":"Feature","properties":{"ident":"VE-0264","type":"small_airport","name":"Apoipó Airstrip","elevation_ft":"2812","continent":"SA","iso_country":"VE","iso_region":"VE-F","municipality":"Comunidad Apoipó","scheduled_service":"no"},"geometry":{"type":"Point","coordinates":[-61.485865,4.757034]}},{"id":"40077","type":"Feature","properties":{"ident":"SVAP","type":"small_airport","name":"Apurito Airport","elevation_ft":"295","continent":"SA","iso_country":"VE","iso_region":"VE-C","municipality":"Apurito","scheduled_service":"no","gps_code":"SVAP"},"geometry":{"type":"Point","coordinates":[-68.483002,7.91885]}},{"id":"40281","type":"Feature","properties":{"ident":"SVRE","type":"small_airport","name":"Aracay Abajo Airport","elevation_ft":"420","continent":"SA","iso_country":"VE","iso_region":"VE-J","scheduled_service":"no","gps_code":"SVRE"},"geometry":{"type":"Point","coordinates":[-65.866669,8.393333]}},{"id":"601677","type":"Feature","properties":{"ident":"VE-0427","type":"heliport","name":"Aragua Gas Pipeline HLS","elevation_ft":"328","continent":"SA","iso_country":"VE","iso_region":"VE-B","municipality":"Aragua de Barcelona","scheduled_service":"no"},"geometry":{"type":"Point","coordinates":[-64.878438,9.481329]}},{"id":"40082","type":"Feature","properties":{"ident":"SVAY","type":"small_airport","name":"Araya Airport","elevation_ft":"33","continent":"SA","iso_country":"VE","iso_region":"VE-R","scheduled_service":"no","icao_code":"SVAA","gps_code":"SVAA"},"geometry":{"type":"Point","coordinates":[-64.272011,10.597324]}},{"id":"40361","type":"Feature","properties":{"ident":"VE-0012","type":"small_airport","name":"Arekuna Airport","elevation_ft":"1192","continent":"SA","iso_country":"VE","iso_region":"VE-F","municipality":"Canaima","scheduled_service":"no"},"geometry":{"type":"Point","coordinates":[-62.891666,6.483333]}},{"id":"26484","type":"Feature","properties":{"ident":"SV74","type":"small_airport","name":"Aricuaisa Airport","elevation_ft":"165","continent":"SA","iso_country":"VE","iso_region":"VE-V","scheduled_service":"no","gps_code":"SV74"},"geometry":{"type":"Point","coordinates":[-72.788002,9.58187]}},{"id":"40362","type":"Feature","properties":{"ident":"VE-0013","type":"heliport","name":"Aripao  Heliport","elevation_ft":"259","continent":"SA","iso_country":"VE","iso_region":"VE-F","scheduled_service":"no"},"geometry":{"type":"Point","coordinates":[-65.167503,7.039167]}},{"id":"40363","type":"Feature","properties":{"ident":"VE-0014","type":"small_airport","name":"Arismendi Airport","elevation_ft":"225","continent":"SA","iso_country":"VE","iso_region":"VE-E","municipality":"Arismendi","scheduled_service":"no"},"geometry":{"type":"Point","coordinates":[-68.366943,8.484167]}},{"id":"6252","type":"Feature","properties":{"ident":"SVAS","type":"small_airport","name":"Armando Schwarck Airport","elevation_ft":"266","continent":"SA","iso_country":"VE","iso_region":"VE-F","municipality":"Guayabal","scheduled_service":"no","iata_code":"LPJ","gps_code":"SVAS","wikipedia_link":"https://es.wikipedia.org/wiki/Aeropuerto_Armando_Schwarck","keywords":"Los Pijiguaos mine"},"geometry":{"type":"Point","coordinates":[-66.816564,6.577504]}},{"id":"6334","type":"Feature","properties":{"ident":"SVVA","type":"medium_airport","name":"Arturo Michelena International Airport","elevation_ft":"1411","continent":"SA","iso_country":"VE","iso_region":"VE-G","municipality":"Valencia","scheduled_service":"yes","icao_code":"SVVA","iata_code":"VLN","gps_code":"SVVA","wikipedia_link":"https://en.wikipedia.org/wiki/Arturo_Michelena_International_Airport"},"geometry":{"type":"Point","coordinates":[-67.928398,10.149733]}},{"id":"40364","type":"Feature","properties":{"ident":"VE-0015","type":"small_airport","name":"Asisa (Alto Asisa) Airpòrt","elevation_ft":"786","continent":"SA","iso_country":"VE","iso_region":"VE-Z","scheduled_service":"no"},"geometry":{"type":"Point","coordinates":[-65.769165,4.468889]}},{"id":"40365","type":"Feature","properties":{"ident":"VE-0016","type":"small_airport","name":"Asita Airport","elevation_ft":"690","continent":"SA","iso_country":"VE","iso_region":"VE-Z","scheduled_service":"no"},"geometry":{"type":"Point","coordinates":[-65.583336,5.2]}},{"id":"40333","type":"Feature","properties":{"ident":"SVVB","type":"small_airport","name":"Bajo Verde Airport","elevation_ft":"492","continent":"SA","iso_country":"VE","iso_region":"VE-J","scheduled_service":"no","gps_code":"SVVB"},"geometry":{"type":"Point","coordinates":[-66.467499,9.051389]}},{"id":"601415","type":"Feature","properties":{"ident":"VE-0267","type":"small_airport","name":"Balamito Airstrip","elevation_ft":"1683","continent":"SA","iso_country":"VE","iso_region":"VE-F","scheduled_service":"no"},"geometry":{"type":"Point","coordinates":[-62.112944,4.180928]}},{"id":"40367","type":"Feature","properties":{"ident":"VE-0018","type":"heliport","name":"Balgres HLS","elevation_ft":"590","continent":"SA","iso_country":"VE","iso_region":"VE-M","municipality":"San Francisco de Yare","scheduled_service":"no","local_code":"SV95X"},"geometry":{"type":"Point","coordinates":[-66.746803,10.152201]}},{"id":"40096","type":"Feature","properties":{"ident":"SVBV","type":"small_airport","name":"Banco Verde Airport","elevation_ft":"348","continent":"SA","iso_country":"VE","iso_region":"VE-P","scheduled_service":"no","gps_code":"SVBV"},"geometry":{"type":"Point","coordinates":[-69.533333,8.733333]}},{"id":"40368","type":"Feature","properties":{"ident":"VE-0019","type":"heliport","name":"Bancomara  Heliport","elevation_ft":"158","continent":"SA","iso_country":"VE","iso_region":"VE-V","municipality":"Maracaibo","scheduled_service":"no"},"geometry":{"type":"Point","coordinates":[-71.610001,10.658333]}},{"id":"601521","type":"Feature","properties":{"ident":"VE-0346","type":"heliport","name":"Barcelona Heliport","elevation_ft":"26","continent":"SA","iso_country":"VE","iso_region":"VE-B","municipality":"Barcelona","scheduled_service":"no"},"geometry":{"type":"Point","coordinates":[-64.686169,10.111243]}},{"id":"6256","type":"Feature","properties":{"ident":"SVBI","type":"medium_airport","name":"Barinas Airport","elevation_ft":"615","continent":"SA","iso_country":"VE","iso_region":"VE-E","municipality":"Barinas","scheduled_service":"yes","icao_code":"SVBI","iata_code":"BNS","gps_code":"SVBI","wikipedia_link":"https://en.wikipedia.org/wiki/Barinas_Airport"},"geometry":{"type":"Point","coordinates":[-70.214167,8.615]}},{"id":"6259","type":"Feature","properties":{"ident":"SVBM","type":"medium_airport","name":"Barquisimeto International Airport","elevation_ft":"2042","continent":"SA","iso_country":"VE","iso_region":"VE-K","municipality":"Barquisimeto","scheduled_service":"yes","icao_code":"SVBM","iata_code":"BRM","gps_code":"SVBM","wikipedia_link":"https://en.wikipedia.org/wiki/Jacinto_Lara_International_Airport"},"geometry":{"type":"Point","coordinates":[-69.35862,10.042747]}},{"id":"601792","type":"Feature","properties":{"ident":"VE-0504","type":"heliport","name":"Base Carabobo HLS","elevation_ft":"262","continent":"SA","iso_country":"VE","iso_region":"VE-C","scheduled_service":"no","local_code":"SVBIN"},"geometry":{"type":"Point","coordinates":[-69.318001,6.113789]}},{"id":"601770","type":"Feature","properties":{"ident":"VE-0482","type":"heliport","name":"Base Logística Aragua HLS","elevation_ft":"1476","continent":"SA","iso_country":"VE","iso_region":"VE-D","municipality":"Maracay","scheduled_service":"no","local_code":"SV8JZ"},"geometry":{"type":"Point","coordinates":[-67.588415,10.250683]}},{"id":"601755","type":"Feature","properties":{"ident":"VE-0467","type":"heliport","name":"Base Militar de Macarao HLS","elevation_ft":"3468","continent":"SA","iso_country":"VE","iso_region":"VE-A","municipality":"Caracas","scheduled_service":"no","local_code":"SVLZ4"},"geometry":{"type":"Point","coordinates":[-67.056346,10.423107]}},{"id":"601481","type":"Feature","properties":{"ident":"VE-0307","type":"heliport","name":"Base Naval Páez HLS","elevation_ft":"164","continent":"SA","iso_country":"VE","iso_region":"VE-C","municipality":"Puerto Páez","scheduled_service":"no","local_code":"SVCDB"},"geometry":{"type":"Point","coordinates":[-67.45128,6.201813]}},{"id":"601795","type":"Feature","properties":{"ident":"VE-0507","type":"heliport","name":"Base Pérez Delgado HLS","elevation_ft":"272","continent":"SA","iso_country":"VE","iso_region":"VE-E","municipality":"Puerto de Nutrias","scheduled_service":"no","local_code":"SVRMP"},"geometry":{"type":"Point","coordinates":[-69.331206,8.055674]}},{"id":"601790","type":"Feature","properties":{"ident":"VE-0502","type":"heliport","name":"Batallón Caribe 937 HLS","elevation_ft":"755","continent":"SA","iso_country":"VE","iso_region":"VE-E","municipality":"Santa Bárbara de Barinas","scheduled_service":"no","local_code":"SVVRH"},"geometry":{"type":"Point","coordinates":[-71.194129,7.824295]}},{"id":"601747","type":"Feature","properties":{"ident":"VE-0459","type":"heliport","name":"BCV HLS","elevation_ft":"3494","continent":"SA","iso_country":"VE","iso_region":"VE-A","municipality":"Caracas","scheduled_service":"no","local_code":"SVMHG"},"geometry":{"type":"Point","coordinates":[-66.914978,10.508177]}},{"id":"601746","type":"Feature","properties":{"ident":"VE-0458","type":"heliport","name":"BDV Tower Helistop","elevation_ft":"3445","continent":"SA","iso_country":"VE","iso_region":"VE-A","municipality":"Caracas","scheduled_service":"no","local_code":"SVGDH"},"geometry":{"type":"Point","coordinates":[-66.913903,10.504432]}},{"id":"40370","type":"Feature","properties":{"ident":"VE-0021","type":"small_airport","name":"Belen Airport","elevation_ft":"577","continent":"SA","iso_country":"VE","iso_region":"VE-Z","municipality":"Culebra","scheduled_service":"no"},"geometry":{"type":"Point","coordinates":[-65.763336,3.746667]}},{"id":"601512","type":"Feature","properties":{"ident":"VE-0337","type":"heliport","name":"Bella Vista HLS","elevation_ft":"1312","continent":"SA","iso_country":"VE","iso_region":"VE-R","municipality":"Bella Vista","scheduled_service":"no"},"geometry":{"type":"Point","coordinates":[-64.322001,10.331337]}},{"id":"40086","type":"Feature","properties":{"ident":"SVBE","type":"small_airport","name":"Bernal Airport","elevation_ft":"249","continent":"SA","iso_country":"VE","iso_region":"VE-V","scheduled_service":"no","gps_code":"SVBE"},"geometry":{"type":"Point","coordinates":[-72.583336,9.666667]}},{"id":"601751","type":"Feature","properties":{"ident":"VE-0463","type":"heliport","name":"Bloque Dearmas HLS","elevation_ft":"2953","continent":"SA","iso_country":"VE","iso_region":"VE-A","municipality":"Caracas","scheduled_service":"no","local_code":"SVHRC"},"geometry":{"type":"Point","coordinates":[-66.945013,10.486971]}},{"id":"40084","type":"Feature","properties":{"ident":"SVBA","type":"small_airport","name":"Boca Anaro Airport","elevation_ft":"298","continent":"SA","iso_country":"VE","iso_region":"VE-E","municipality":"Boca de Anaro","scheduled_service":"no","gps_code":"SVBA"},"geometry":{"type":"Point","coordinates":[-70.26667,7.833333]}},{"id":"40091","type":"Feature","properties":{"ident":"SVBN","type":"small_airport","name":"Bocon Airport","elevation_ft":"1462","continent":"SA","iso_country":"VE","iso_region":"VE-F","scheduled_service":"no","gps_code":"SVBN"},"geometry":{"type":"Point","coordinates":[-62.733334,6.6]}},{"id":"6257","type":"Feature","properties":{"ident":"SVBK","type":"small_airport","name":"Bocono Airport","elevation_ft":"5187","continent":"SA","iso_country":"VE","iso_region":"VE-T","municipality":"Bocono","scheduled_service":"no","gps_code":"SVBO","keywords":"SVBK"},"geometry":{"type":"Point","coordinates":[-70.229855,9.266281]}},{"id":"597305","type":"Feature","properties":{"ident":"VE-0244","type":"heliport","name":"BOD Tower Helipad","elevation_ft":"1608","continent":"SA","iso_country":"VE","iso_region":"VE-G","municipality":"Valencia","scheduled_service":"no","icao_code":"SVOD","gps_code":"SVOD","keywords":"Torre BOD"},"geometry":{"type":"Point","coordinates":[-68.003976,10.211607]}},{"id":"601679","type":"Feature","properties":{"ident":"VE-0429","type":"heliport","name":"Bomberos de Barlovento HLS","elevation_ft":"16","continent":"SA","iso_country":"VE","iso_region":"VE-M","municipality":"San José de Barlovento","scheduled_service":"no","local_code":"SV9SC"},"geometry":{"type":"Point","coordinates":[-65.992794,10.305455]}},{"id":"601689","type":"Feature","properties":{"ident":"VE-0439","type":"heliport","name":"Bomberos de El Cafetal HLS","elevation_ft":"2985","continent":"SA","iso_country":"VE","iso_region":"VE-M","municipality":"Caracas","scheduled_service":"no","local_code":"SVO4P"},"geometry":{"type":"Point","coordinates":[-66.827808,10.457769]}},{"id":"601681","type":"Feature","properties":{"ident":"VE-0431","type":"heliport","name":"Bomberos de Higuerote HLS","elevation_ft":"10","continent":"SA","iso_country":"VE","iso_region":"VE-M","municipality":"Higuerote","scheduled_service":"no","local_code":"SV85T"},"geometry":{"type":"Point","coordinates":[-66.104341,10.488634]}},{"id":"601780","type":"Feature","properties":{"ident":"VE-0492","type":"heliport","name":"Bomberos de Valencia HLS","elevation_ft":"1443","continent":"SA","iso_country":"VE","iso_region":"VE-G","municipality":"Valencia","scheduled_service":"no","local_code":"SVEJ9"},"geometry":{"type":"Point","coordinates":[-67.948157,10.17812]}},{"id":"40094","type":"Feature","properties":{"ident":"SVBT","type":"small_airport","name":"Boquemonte Airport","elevation_ft":"1000","continent":"SA","iso_country":"VE","iso_region":"VE-P","scheduled_service":"no","gps_code":"SVBT"},"geometry":{"type":"Point","coordinates":[-69.75,9.2]}},{"id":"601482","type":"Feature","properties":{"ident":"VE-0308","type":"heliport","name":"Brigada de Marina HLS","elevation_ft":"230","continent":"SA","iso_country":"VE","iso_region":"VE-Z","municipality":"Puerto Ayacucho","scheduled_service":"no","local_code":"SVPD4"},"geometry":{"type":"Point","coordinates":[-67.613275,5.670683]}},{"id":"40372","type":"Feature","properties":{"ident":"VE-0023","type":"small_airport","name":"Buena Vista del Caño Airport","elevation_ft":"680","continent":"SA","iso_country":"VE","iso_region":"VE-Z","scheduled_service":"no"},"geometry":{"type":"Point","coordinates":[-65.333336,3.5]}},{"id":"40337","type":"Feature","properties":{"ident":"SVVM","type":"small_airport","name":"Buena Vista del Caño Medio Airport","elevation_ft":"475","continent":"SA","iso_country":"VE","iso_region":"VE-C","scheduled_service":"no","gps_code":"SVVM"},"geometry":{"type":"Point","coordinates":[-68.150002,6.916667]}},{"id":"601791","type":"Feature","properties":{"ident":"VE-0503","type":"heliport","name":"Buena Vista del Meta HLS","elevation_ft":"230","continent":"SA","iso_country":"VE","iso_region":"VE-C","municipality":"Buena Vista del Meta","scheduled_service":"no","local_code":"SVWPQ"},"geometry":{"type":"Point","coordinates":[-68.590117,6.170387]}},{"id":"40375","type":"Feature","properties":{"ident":"VE-0026","type":"heliport","name":"Cabimas Hilton  Heliport","elevation_ft":"120","continent":"SA","iso_country":"VE","iso_region":"VE-V","municipality":"Las Múcuras","scheduled_service":"no"},"geometry":{"type":"Point","coordinates":[-71.449997,10.466667]}},{"id":"597292","type":"Feature","properties":{"ident":"VE-0243","type":"small_airport","name":"Cabruta Airstrip","elevation_ft":"181","continent":"SA","iso_country":"VE","iso_region":"VE-J","municipality":"Cabruta","scheduled_service":"no","keywords":"Terecay"},"geometry":{"type":"Point","coordinates":[-66.252152,7.676141]}},{"id":"40376","type":"Feature","properties":{"ident":"VE-0027","type":"small_airport","name":"Cabuya Airport","elevation_ft":"358","continent":"SA","iso_country":"VE","iso_region":"VE-Z","municipality":"Canaripo","scheduled_service":"no"},"geometry":{"type":"Point","coordinates":[-66.828305,4.062468]}},{"id":"601442","type":"Feature","properties":{"ident":"VE-0270","type":"heliport","name":"Cachamay HLS","elevation_ft":"65","continent":"SA","iso_country":"VE","iso_region":"VE-F","municipality":"Ciudad Guayana","scheduled_service":"no","local_code":"SV6I3"},"geometry":{"type":"Point","coordinates":[-62.697194,8.314097]}},{"id":"40072","type":"Feature","properties":{"ident":"SVAH","type":"small_airport","name":"Cachimbo Airport","elevation_ft":"1000","continent":"SA","iso_country":"VE","iso_region":"VE-K","municipality":"Coco de Mono","scheduled_service":"no"},"geometry":{"type":"Point","coordinates":[-69.166664,10.033333]}},{"id":"6309","type":"Feature","properties":{"ident":"SVPA","type":"medium_airport","name":"Cacique Aramare Airport","elevation_ft":"245","continent":"SA","iso_country":"VE","iso_region":"VE-Z","municipality":"Puerto Ayacucho","scheduled_service":"no","icao_code":"SVPA","iata_code":"PYH","gps_code":"SVPA","wikipedia_link":"https://en.wikipedia.org/wiki/Cacique_Aramare_Airport","keywords":"Casique Aramare Airport"},"geometry":{"type":"Point","coordinates":[-67.606102,5.61999]}},{"id":"40377","type":"Feature","properties":{"ident":"VE-0028","type":"small_airport","name":"Cacuri Airport","elevation_ft":"902","continent":"SA","iso_country":"VE","iso_region":"VE-Z","scheduled_service":"no","gps_code":"SVAJ"},"geometry":{"type":"Point","coordinates":[-65.339719,4.803983]}},{"id":"40378","type":"Feature","properties":{"ident":"VE-0029","type":"small_airport","name":"Cacurito Airport","elevation_ft":"814","continent":"SA","iso_country":"VE","iso_region":"VE-F","scheduled_service":"no"},"geometry":{"type":"Point","coordinates":[-66.900002,6.05]}},{"id":"6263","type":"Feature","properties":{"ident":"SVCD","type":"medium_airport","name":"Caicara del Orinoco Airport","elevation_ft":"141","continent":"SA","iso_country":"VE","iso_region":"VE-F","scheduled_service":"no","icao_code":"SVCD","iata_code":"CXA","gps_code":"SVCD","wikipedia_link":"https://en.wikipedia.org/wiki/Caicara_del_Orinoco_Airport"},"geometry":{"type":"Point","coordinates":[-66.162804,7.62551]}},{"id":"601477","type":"Feature","properties":{"ident":"VE-0304","type":"heliport","name":"Caicara Heliport","elevation_ft":"131","continent":"SA","iso_country":"VE","iso_region":"VE-F","municipality":"Caicara del Orinoco","scheduled_service":"no"},"geometry":{"type":"Point","coordinates":[-66.165955,7.626884]}},{"id":"6267","type":"Feature","properties":{"ident":"SVCL","type":"medium_airport","name":"Calabozo Airport","elevation_ft":"328","continent":"SA","iso_country":"VE","iso_region":"VE-J","municipality":"Guarico","scheduled_service":"no","icao_code":"SVCL","iata_code":"CLZ","gps_code":"SVCL","wikipedia_link":"https://en.wikipedia.org/wiki/Calabozo_Airport"},"geometry":{"type":"Point","coordinates":[-67.417091,8.924656]}},{"id":"40188","type":"Feature","properties":{"ident":"SVLL","type":"small_airport","name":"Callejas Airport","elevation_ft":"209","continent":"SA","iso_country":"VE","iso_region":"VE-E","municipality":"Callejas","scheduled_service":"no","keywords":"SVLL"},"geometry":{"type":"Point","coordinates":[-69.634898,7.993762]}},{"id":"40380","type":"Feature","properties":{"ident":"VE-0031","type":"small_airport","name":"Camani Airport","elevation_ft":"370","continent":"SA","iso_country":"VE","iso_region":"VE-Z","scheduled_service":"no"},"geometry":{"type":"Point","coordinates":[-66.258331,5.108333]}},{"id":"40381","type":"Feature","properties":{"ident":"VE-0032","type":"small_airport","name":"Camatagua Airport","elevation_ft":"881","continent":"SA","iso_country":"VE","iso_region":"VE-D","municipality":"Camatagua","scheduled_service":"no"},"geometry":{"type":"Point","coordinates":[-66.892799,9.81146]}},{"id":"601410","type":"Feature","properties":{"ident":"VE-0262","type":"small_airport","name":"Campamento Nawahitón Runway","elevation_ft":"3261","continent":"SA","iso_country":"VE","iso_region":"VE-F","municipality":"Campamento Nawahitón","scheduled_service":"no"},"geometry":{"type":"Point","coordinates":[-61.267319,4.871984]}},{"id":"601485","type":"Feature","properties":{"ident":"VE-0311","type":"heliport","name":"Campamento Proforca HLS","elevation_ft":"230","continent":"SA","iso_country":"VE","iso_region":"VE-N","municipality":"Chaguaramas","scheduled_service":"no","local_code":"SVICW"},"geometry":{"type":"Point","coordinates":[-62.796586,8.657704]}},{"id":"40382","type":"Feature","properties":{"ident":"VE-0033","type":"small_airport","name":"Campo de Palma Airport","elevation_ft":"87","continent":"SA","iso_country":"VE","iso_region":"VE-V","scheduled_service":"no"},"geometry":{"type":"Point","coordinates":[-72.225998,8.62049]}},{"id":"601517","type":"Feature","properties":{"ident":"VE-0342","type":"heliport","name":"Campo Oficina HLS","elevation_ft":"951","continent":"SA","iso_country":"VE","iso_region":"VE-B","municipality":"El Tigre","scheduled_service":"no","local_code":"SV6EM"},"geometry":{"type":"Point","coordinates":[-64.259884,8.878764]}},{"id":"6268","type":"Feature","properties":{"ident":"SVCN","type":"medium_airport","name":"Canaima Airport","elevation_ft":"1450","continent":"SA","iso_country":"VE","iso_region":"VE-F","municipality":"Canaima","scheduled_service":"yes","icao_code":"SVCN","iata_code":"CAJ","gps_code":"SVCN","wikipedia_link":"https://en.wikipedia.org/wiki/Canaima_Airport"},"geometry":{"type":"Point","coordinates":[-62.85485,6.231989]}},{"id":"40385","type":"Feature","properties":{"ident":"VE-0036","type":"heliport","name":"Capitán Alfredo Sierra  Heliport","elevation_ft":"21","continent":"SA","iso_country":"VE","iso_region":"VE-V","municipality":"Lagunillas","scheduled_service":"no"},"geometry":{"type":"Point","coordinates":[-71.238335,10.118333]}},{"id":"6274","type":"Feature","properties":{"ident":"SVCZ","type":"small_airport","name":"Captain Manuel Ríos Air Base","elevation_ft":"595","continent":"SA","iso_country":"VE","iso_region":"VE-J","municipality":"Carrizal","scheduled_service":"no","gps_code":"SVCZ","keywords":"El Sombrero"},"geometry":{"type":"Point","coordinates":[-66.922798,9.37265]}},{"id":"40386","type":"Feature","properties":{"ident":"VE-0037","type":"heliport","name":"Capure Heliport","elevation_ft":"16","continent":"SA","iso_country":"VE","iso_region":"VE-Y","municipality":"Capure","scheduled_service":"no"},"geometry":{"type":"Point","coordinates":[-62.231991,9.979079]}},{"id":"6272","type":"Feature","properties":{"ident":"SVCS","type":"medium_airport","name":"Caracas Óscar Machado Zuloaga International Airport","elevation_ft":"2145","continent":"SA","iso_country":"VE","iso_region":"VE-M","municipality":"Charallave","scheduled_service":"no","icao_code":"SVCS","gps_code":"SVCS","wikipedia_link":"https://en.wikipedia.org/wiki/%C3%93scar_Machado_Zuloaga_International_Airport"},"geometry":{"type":"Point","coordinates":[-66.815847,10.286874]}},{"id":"40093","type":"Feature","properties":{"ident":"SVBR","type":"small_airport","name":"Carbonero Airport","elevation_ft":"328","continent":"SA","iso_country":"VE","iso_region":"VE-U","scheduled_service":"no","gps_code":"SVBR"},"geometry":{"type":"Point","coordinates":[-68.666664,10.416667]}},{"id":"601753","type":"Feature","properties":{"ident":"VE-0465","type":"heliport","name":"Cardiológico Infantil HLS","elevation_ft":"3012","continent":"SA","iso_country":"VE","iso_region":"VE-A","municipality":"Caracas","scheduled_service":"no","local_code":"SVV9L"},"geometry":{"type":"Point","coordinates":[-66.97401,10.467297]}},{"id":"40390","type":"Feature","properties":{"ident":"VE-0041","type":"small_airport","name":"Carona Airport","elevation_ft":"1169","continent":"SA","iso_country":"VE","iso_region":"VE-F","municipality":"Simaraña","scheduled_service":"no"},"geometry":{"type":"Point","coordinates":[-63.933334,4.6]}},{"id":"40292","type":"Feature","properties":{"ident":"SVRR","type":"small_airport","name":"Carrao Airport","elevation_ft":"1542","continent":"SA","iso_country":"VE","iso_region":"VE-F","scheduled_service":"no","gps_code":"SVRR"},"geometry":{"type":"Point","coordinates":[-62.830839,6.238992]}},{"id":"601451","type":"Feature","properties":{"ident":"VE-0279","type":"heliport","name":"Caruachi Auditorio HLS","elevation_ft":"197","continent":"SA","iso_country":"VE","iso_region":"VE-F","municipality":"Ciudad Guayana","scheduled_service":"no"},"geometry":{"type":"Point","coordinates":[-62.788882,8.161239]}},{"id":"601449","type":"Feature","properties":{"ident":"VE-0277","type":"heliport","name":"Caruachi Presa Heliport","elevation_ft":"197","continent":"SA","iso_country":"VE","iso_region":"VE-F","municipality":"Ciudad Guayana","scheduled_service":"no","local_code":"SVD7W"},"geometry":{"type":"Point","coordinates":[-62.79386,8.157469]}},{"id":"601493","type":"Feature","properties":{"ident":"VE-0319","type":"heliport","name":"Carúpano Heliport","elevation_ft":"65","continent":"SA","iso_country":"VE","iso_region":"VE-R","municipality":"Carúpano","scheduled_service":"no"},"geometry":{"type":"Point","coordinates":[-63.25991,10.65637]}},{"id":"6265","type":"Feature","properties":{"ident":"SVCG","type":"small_airport","name":"Casigua El Cubo Airport","elevation_ft":"99","continent":"SA","iso_country":"VE","iso_region":"VE-V","municipality":"Casigua El Cubo","scheduled_service":"no","icao_code":"SVCG","iata_code":"CUV","gps_code":"SVCG","wikipedia_link":"https://en.wikipedia.org/wiki/El_Cubo_Airport"},"geometry":{"type":"Point","coordinates":[-72.536301,8.75814]}},{"id":"348509","type":"Feature","properties":{"ident":"VE-0217","type":"small_airport","name":"Castilletes Airport","continent":"SA","iso_country":"VE","iso_region":"VE-V","municipality":"Castilletes","scheduled_service":"no"},"geometry":{"type":"Point","coordinates":[-71.34955,11.82596]}},{"id":"40104","type":"Feature","properties":{"ident":"SVCT","type":"small_airport","name":"Caujarito Airport","elevation_ft":"360","continent":"SA","iso_country":"VE","iso_region":"VE-C","scheduled_service":"no","icao_code":"SVJT","gps_code":"SVJT"},"geometry":{"type":"Point","coordinates":[-68.383331,6.883333]}},{"id":"601773","type":"Feature","properties":{"ident":"VE-0485","type":"heliport","name":"CAVIM HLS","elevation_ft":"1443","continent":"SA","iso_country":"VE","iso_region":"VE-D","municipality":"Maracay","scheduled_service":"no","local_code":"SVB1X"},"geometry":{"type":"Point","coordinates":[-67.6375,10.262611]}},{"id":"40391","type":"Feature","properties":{"ident":"VE-0042","type":"small_airport","name":"Cayoateri (Coyowateli) Airport","elevation_ft":"812","continent":"SA","iso_country":"VE","iso_region":"VE-Z","scheduled_service":"no"},"geometry":{"type":"Point","coordinates":[-64.297302,2.42152]}},{"id":"40103","type":"Feature","properties":{"ident":"SVCQ","type":"small_airport","name":"Cazorla Airport","elevation_ft":"639","continent":"SA","iso_country":"VE","iso_region":"VE-J","scheduled_service":"no","gps_code":"SVCQ"},"geometry":{"type":"Point","coordinates":[-66.969902,8.0606]}},{"id":"40102","type":"Feature","properties":{"ident":"SVCM","type":"small_airport","name":"Cañita Mendera Airport","elevation_ft":"662","continent":"SA","iso_country":"VE","iso_region":"VE-H","municipality":"Tinaco","scheduled_service":"no","gps_code":"SVCM"},"geometry":{"type":"Point","coordinates":[-68.416664,9.683333]}},{"id":"40383","type":"Feature","properties":{"ident":"VE-0034","type":"small_airport","name":"Caño Iguana Sur Airport","elevation_ft":"518","continent":"SA","iso_country":"VE","iso_region":"VE-Z","scheduled_service":"no"},"geometry":{"type":"Point","coordinates":[-65.616669,5.05]}},{"id":"40101","type":"Feature","properties":{"ident":"SVCK","type":"small_airport","name":"Caño Lucas Airport","elevation_ft":"301","continent":"SA","iso_country":"VE","iso_region":"VE-P","municipality":"El Poblado","scheduled_service":"no","gps_code":"SVCK"},"geometry":{"type":"Point","coordinates":[-68.883331,9.416667]}},{"id":"40176","type":"Feature","properties":{"ident":"SVKN","type":"small_airport","name":"Caño Negro Airport","elevation_ft":"328","continent":"SA","iso_country":"VE","iso_region":"VE-Z","scheduled_service":"no","gps_code":"SVKN"},"geometry":{"type":"Point","coordinates":[-65.618332,5.5]}},{"id":"40384","type":"Feature","properties":{"ident":"VE-0035","type":"small_airport","name":"Caño Santo Airport","elevation_ft":"730","continent":"SA","iso_country":"VE","iso_region":"VE-Z","scheduled_service":"no"},"geometry":{"type":"Point","coordinates":[-66.25,5.55]}},{"id":"40352","type":"Feature","properties":{"ident":"VE-0003","type":"heliport","name":"CEMAREH Heliport","elevation_ft":"754","continent":"SA","iso_country":"VE","iso_region":"VE-P","municipality":"Acarigua","scheduled_service":"no","local_code":"SVN8U"},"geometry":{"type":"Point","coordinates":[-69.241376,9.543049]}},{"id":"40321","type":"Feature","properties":{"ident":"SVTJ","type":"small_airport","name":"Central Matilde Airport","elevation_ft":"866","continent":"SA","iso_country":"VE","iso_region":"VE-U","municipality":"central Matilde","scheduled_service":"no","gps_code":"SVTJ"},"geometry":{"type":"Point","coordinates":[-68.861603,10.1579]}},{"id":"40467","type":"Feature","properties":{"ident":"VE-0118","type":"heliport","name":"Central Tacoa HLS","elevation_ft":"6","continent":"SA","iso_country":"VE","iso_region":"VE-X","municipality":"Catia La Mar","scheduled_service":"no"},"geometry":{"type":"Point","coordinates":[-67.078306,10.587624]}},{"id":"40095","type":"Feature","properties":{"ident":"SVBU","type":"small_airport","name":"Central Venezuela Airport","elevation_ft":"33","continent":"SA","iso_country":"VE","iso_region":"VE-T","municipality":"Bobures","scheduled_service":"no","gps_code":"SVBU"},"geometry":{"type":"Point","coordinates":[-71.112871,9.173054]}},{"id":"601538","type":"Feature","properties":{"ident":"VE-0363","type":"heliport","name":"Centro Banesco HLS","elevation_ft":"131","continent":"SA","iso_country":"VE","iso_region":"VE-B","municipality":"Puerto Píritu","scheduled_service":"no"},"geometry":{"type":"Point","coordinates":[-65.031832,10.068213]}},{"id":"40393","type":"Feature","properties":{"ident":"VE-0044","type":"heliport","name":"Centro Lago I  Heliport","elevation_ft":"33","continent":"SA","iso_country":"VE","iso_region":"VE-V","scheduled_service":"no"},"geometry":{"type":"Point","coordinates":[-71.455002,9.873333]}},{"id":"601730","type":"Feature","properties":{"ident":"VE-0444","type":"heliport","name":"Centro Lido HLS","elevation_ft":"3084","continent":"SA","iso_country":"VE","iso_region":"VE-M","municipality":"Caracas","scheduled_service":"no","local_code":"SVUKL"},"geometry":{"type":"Point","coordinates":[-66.862541,10.491314]}},{"id":"40394","type":"Feature","properties":{"ident":"VE-0045","type":"heliport","name":"Centro Miranda  Heliport","elevation_ft":"138","continent":"SA","iso_country":"VE","iso_region":"VE-V","municipality":"Maracaibo","scheduled_service":"no"},"geometry":{"type":"Point","coordinates":[-71.629997,10.648333]}},{"id":"40395","type":"Feature","properties":{"ident":"VE-0046","type":"small_airport","name":"Cerro Bolívar Airport","elevation_ft":"492","continent":"SA","iso_country":"VE","iso_region":"VE-F","scheduled_service":"no"},"geometry":{"type":"Point","coordinates":[-63.400002,7.5]}},{"id":"601809","type":"Feature","properties":{"ident":"VE-0519","type":"heliport","name":"Cerro Cano HLS","elevation_ft":"755","continent":"SA","iso_country":"VE","iso_region":"VE-I","scheduled_service":"no","local_code":"SVTU2"},"geometry":{"type":"Point","coordinates":[-69.983401,11.960379]}},{"id":"601452","type":"Feature","properties":{"ident":"VE-0280","type":"heliport","name":"Cerro San Jacinto HLS","elevation_ft":"689","continent":"SA","iso_country":"VE","iso_region":"VE-F","municipality":"Ciudad Guayana","scheduled_service":"no"},"geometry":{"type":"Point","coordinates":[-62.920707,8.211002]}},{"id":"40399","type":"Feature","properties":{"ident":"VE-0050","type":"small_airport","name":"Chajuraña Airport","elevation_ft":"1114","continent":"SA","iso_country":"VE","iso_region":"VE-F","scheduled_service":"no"},"geometry":{"type":"Point","coordinates":[-64.848335,5.148333]}},{"id":"40400","type":"Feature","properties":{"ident":"VE-0051","type":"small_airport","name":"Chaparalito Airport","elevation_ft":"224","continent":"SA","iso_country":"VE","iso_region":"VE-C","scheduled_service":"no"},"geometry":{"type":"Point","coordinates":[-68.286667,6.588333]}},{"id":"40106","type":"Feature","properties":{"ident":"SVCW","type":"small_airport","name":"Chinazón Airport","elevation_ft":"98","continent":"SA","iso_country":"VE","iso_region":"VE-T","scheduled_service":"no","gps_code":"SVCW"},"geometry":{"type":"Point","coordinates":[-70.933334,9.326667]}},{"id":"40401","type":"Feature","properties":{"ident":"VE-0052","type":"small_airport","name":"Chivapure Airport","elevation_ft":"1154","continent":"SA","iso_country":"VE","iso_region":"VE-F","scheduled_service":"no"},"geometry":{"type":"Point","coordinates":[-66.26667,6.033333]}},{"id":"40402","type":"Feature","properties":{"ident":"VE-0053","type":"small_airport","name":"Chorobobo Airport","elevation_ft":"1467","continent":"SA","iso_country":"VE","iso_region":"VE-K","scheduled_service":"no"},"geometry":{"type":"Point","coordinates":[-69.25,10.033333]}},{"id":"6290","type":"Feature","properties":{"ident":"SVHH","type":"small_airport","name":"Churuguara Airport","elevation_ft":"2461","continent":"SA","iso_country":"VE","iso_region":"VE-I","municipality":"Churuguara","scheduled_service":"no","gps_code":"SVHH"},"geometry":{"type":"Point","coordinates":[-69.638397,10.8081]}},{"id":"601651","type":"Feature","properties":{"ident":"VE-0415","type":"heliport","name":"CICPC Calabozo HLS","elevation_ft":"328","continent":"SA","iso_country":"VE","iso_region":"VE-J","municipality":"Calabozo","scheduled_service":"no","local_code":"SVBQS"},"geometry":{"type":"Point","coordinates":[-67.430685,8.909123]}},{"id":"601652","type":"Feature","properties":{"ident":"VE-0416","type":"heliport","name":"CICPC Ciudad Bolívar HLS","elevation_ft":"394","continent":"SA","iso_country":"VE","iso_region":"VE-F","municipality":"Ciudad Bolívar","scheduled_service":"no"},"geometry":{"type":"Point","coordinates":[-63.525195,8.080977]}},{"id":"601772","type":"Feature","properties":{"ident":"VE-0484","type":"heliport","name":"CICPC Maracay HLS","elevation_ft":"1476","continent":"SA","iso_country":"VE","iso_region":"VE-D","municipality":"Maracay","scheduled_service":"no","local_code":"SVAHO"},"geometry":{"type":"Point","coordinates":[-67.621141,10.275244]}},{"id":"601803","type":"Feature","properties":{"ident":"VE-0513","type":"heliport","name":"CICPC San Cristóbal HLS","elevation_ft":"2395","continent":"SA","iso_country":"VE","iso_region":"VE-S","municipality":"San Cristóbal","scheduled_service":"no","local_code":"SVIN8"},"geometry":{"type":"Point","coordinates":[-72.24302,7.752406]}},{"id":"601779","type":"Feature","properties":{"ident":"VE-0491","type":"heliport","name":"CICPC Valencia HLS","elevation_ft":"1460","continent":"SA","iso_country":"VE","iso_region":"VE-G","municipality":"Valencia","scheduled_service":"no","local_code":"SVSHT"},"geometry":{"type":"Point","coordinates":[-67.994474,10.1393]}},{"id":"601478","type":"Feature","properties":{"ident":"VE-0305","type":"heliport","name":"Ciudad Bolívar Heliport","elevation_ft":"164","continent":"SA","iso_country":"VE","iso_region":"VE-F","municipality":"Ciudad Bolívar","scheduled_service":"no"},"geometry":{"type":"Point","coordinates":[-63.535416,8.12635]}},{"id":"6275","type":"Feature","properties":{"ident":"SVDW","type":"small_airport","name":"Ciudad Piar Airport","elevation_ft":"879","continent":"SA","iso_country":"VE","iso_region":"VE-F","municipality":"Ciudad Piar","scheduled_service":"no","icao_code":"SVPI","gps_code":"SVPI"},"geometry":{"type":"Point","coordinates":[-63.269169,7.493]}},{"id":"601531","type":"Feature","properties":{"ident":"VE-0356","type":"heliport","name":"Club El Chaure HLS","elevation_ft":"7","continent":"SA","iso_country":"VE","iso_region":"VE-B","municipality":"Guanta","scheduled_service":"no"},"geometry":{"type":"Point","coordinates":[-64.618766,10.250243]}},{"id":"601523","type":"Feature","properties":{"ident":"VE-0348","type":"heliport","name":"Club Marina Mar HLS","elevation_ft":"6","continent":"SA","iso_country":"VE","iso_region":"VE-B","municipality":"Lechería","scheduled_service":"no","local_code":"SVGDX"},"geometry":{"type":"Point","coordinates":[-64.706222,10.219863]}},{"id":"601467","type":"Feature","properties":{"ident":"VE-0294","type":"heliport","name":"Club Tocoma HLS","elevation_ft":"1050","continent":"SA","iso_country":"VE","iso_region":"VE-F","municipality":"Ciudad Piar","scheduled_service":"no","local_code":"SVC0P"},"geometry":{"type":"Point","coordinates":[-63.32998,7.436666]}},{"id":"601441","type":"Feature","properties":{"ident":"VE-0269","type":"heliport","name":"Clínica Chilemex Helipad","elevation_ft":"387","continent":"SA","iso_country":"VE","iso_region":"VE-F","municipality":"Ciudad Guayana","scheduled_service":"no","home_link":"https://clinicachilemex.com/"},"geometry":{"type":"Point","coordinates":[-62.724059,8.304054]}},{"id":"40403","type":"Feature","properties":{"ident":"VE-0054","type":"heliport","name":"Clínica El Ávlia HLS","elevation_ft":"3182","continent":"SA","iso_country":"VE","iso_region":"VE-M","municipality":"Caracas","scheduled_service":"no","local_code":"SVWAS"},"geometry":{"type":"Point","coordinates":[-66.849859,10.504126]}},{"id":"601782","type":"Feature","properties":{"ident":"VE-0494","type":"heliport","name":"Clínica Guerras Méndez HLS","elevation_ft":"1608","continent":"SA","iso_country":"VE","iso_region":"VE-G","municipality":"Valencia","scheduled_service":"no","local_code":"SVFDO"},"geometry":{"type":"Point","coordinates":[-67.99976,10.186766]}},{"id":"601618","type":"Feature","properties":{"ident":"VE-0399","type":"heliport","name":"Clínica Paraco HLS","elevation_ft":"886","continent":"SA","iso_country":"VE","iso_region":"VE-B","municipality":"San José de Guanipa","scheduled_service":"no","local_code":"SVQLH"},"geometry":{"type":"Point","coordinates":[-64.184821,8.897943]}},{"id":"40241","type":"Feature","properties":{"ident":"SVOW","type":"small_airport","name":"Coco de Mono Airport","elevation_ft":"380","continent":"SA","iso_country":"VE","iso_region":"VE-C","scheduled_service":"no","gps_code":"SVOW"},"geometry":{"type":"Point","coordinates":[-68.51667,7.2]}},{"id":"40111","type":"Feature","properties":{"ident":"SVDC","type":"small_airport","name":"Cocuiza Airport","elevation_ft":"230","continent":"SA","iso_country":"VE","iso_region":"VE-J","scheduled_service":"no","gps_code":"SVDC"},"geometry":{"type":"Point","coordinates":[-66.254997,8.59]}},{"id":"40116","type":"Feature","properties":{"ident":"SVDS","type":"small_airport","name":"CODSA Airstrip","elevation_ft":"2850","continent":"SA","iso_country":"VE","iso_region":"VE-F","scheduled_service":"no","icao_code":"SVDS","local_code":"SVWD"},"geometry":{"type":"Point","coordinates":[-61.125569,4.780924]}},{"id":"601406","type":"Feature","properties":{"ident":"VE-0258","type":"small_airport","name":"Colgransa Airstrip","elevation_ft":"3012","continent":"SA","iso_country":"VE","iso_region":"VE-F","municipality":"Maurak","scheduled_service":"no"},"geometry":{"type":"Point","coordinates":[-61.182818,4.590563]}},{"id":"601805","type":"Feature","properties":{"ident":"VE-0515","type":"heliport","name":"CONAS San Cristóbal HLS","elevation_ft":"3576","continent":"SA","iso_country":"VE","iso_region":"VE-S","municipality":"San Cristóbal","scheduled_service":"no","local_code":"SVGJU"},"geometry":{"type":"Point","coordinates":[-72.19528,7.786602]}},{"id":"601741","type":"Feature","properties":{"ident":"VE-0453","type":"heliport","name":"Confinanzas HLS","elevation_ft":"3514","continent":"SA","iso_country":"VE","iso_region":"VE-A","municipality":"Caracas","scheduled_service":"no"},"geometry":{"type":"Point","coordinates":[-66.89889,10.505276]}},{"id":"40115","type":"Feature","properties":{"ident":"SVDR","type":"small_airport","name":"Cordereño Airport","elevation_ft":"268","continent":"SA","iso_country":"VE","iso_region":"VE-E","municipality":"Cordereño","scheduled_service":"no","gps_code":"SVUC","keywords":"SVDR"},"geometry":{"type":"Point","coordinates":[-69.922972,7.903549]}},{"id":"40294","type":"Feature","properties":{"ident":"SVRT","type":"small_airport","name":"Corocito Airport","elevation_ft":"354","continent":"SA","iso_country":"VE","iso_region":"VE-C","scheduled_service":"no","gps_code":"SVRT"},"geometry":{"type":"Point","coordinates":[-68.566666,7.05]}},{"id":"40405","type":"Feature","properties":{"ident":"VE-0056","type":"small_airport","name":"Coshiloateri Airport","elevation_ft":"450","continent":"SA","iso_country":"VE","iso_region":"VE-Z","scheduled_service":"no"},"geometry":{"type":"Point","coordinates":[-65.815002,3.083333]}},{"id":"601534","type":"Feature","properties":{"ident":"VE-0359","type":"heliport","name":"Cuartel Bacazaraza HLS","elevation_ft":"12","continent":"SA","iso_country":"VE","iso_region":"VE-B","municipality":"Barcelona","scheduled_service":"no"},"geometry":{"type":"Point","coordinates":[-64.691109,10.143602]}},{"id":"601808","type":"Feature","properties":{"ident":"VE-0518","type":"heliport","name":"Cuartel Bicentenario Sucre HLS","elevation_ft":"295","continent":"SA","iso_country":"VE","iso_region":"VE-S","municipality":"La Fría","scheduled_service":"no"},"geometry":{"type":"Point","coordinates":[-72.261901,8.242512]}},{"id":"601582","type":"Feature","properties":{"ident":"VE-0379","type":"heliport","name":"Cuartel Julián Mellado HLS","elevation_ft":"197","continent":"SA","iso_country":"VE","iso_region":"VE-C","municipality":"Puerto Páez","scheduled_service":"no"},"geometry":{"type":"Point","coordinates":[-67.453385,6.229741]}},{"id":"40108","type":"Feature","properties":{"ident":"SVCY","type":"small_airport","name":"Cuartel Yaruro Airport","elevation_ft":"442","continent":"SA","iso_country":"VE","iso_region":"VE-C","municipality":"Las Campanas","scheduled_service":"no","gps_code":"SVCY"},"geometry":{"type":"Point","coordinates":[-68.633331,6.933333]}},{"id":"6264","type":"Feature","properties":{"ident":"SVCE","type":"small_airport","name":"Cuenca de Unare Airport","elevation_ft":"204","continent":"SA","iso_country":"VE","iso_region":"VE-B","municipality":"Zaraza, Guárico","scheduled_service":"no","icao_code":"SVUR","gps_code":"SVUR","keywords":"SVCE, Apruna"},"geometry":{"type":"Point","coordinates":[-65.280655,9.350306]}},{"id":"6319","type":"Feature","properties":{"ident":"SVRB","type":"small_airport","name":"Cumarebo Airport","elevation_ft":"26","continent":"SA","iso_country":"VE","iso_region":"VE-I","municipality":"Tocópero","scheduled_service":"no","icao_code":"SVRB","gps_code":"SVRB"},"geometry":{"type":"Point","coordinates":[-69.314507,11.512376]}},{"id":"40105","type":"Feature","properties":{"ident":"SVCV","type":"small_airport","name":"Cunaviche Airport","elevation_ft":"262","continent":"SA","iso_country":"VE","iso_region":"VE-C","municipality":"Cunaviche","scheduled_service":"no","gps_code":"SVCV"},"geometry":{"type":"Point","coordinates":[-67.433334,7.4]}},{"id":"601590","type":"Feature","properties":{"ident":"VE-0387","type":"heliport","name":"Curiapo Heliport","elevation_ft":"7","continent":"SA","iso_country":"VE","iso_region":"VE-Y","municipality":"Curiapo","scheduled_service":"no"},"geometry":{"type":"Point","coordinates":[-60.997447,8.581092]}},{"id":"40168","type":"Feature","properties":{"ident":"SVJJ","type":"small_airport","name":"Curujujul Airport","elevation_ft":"321","continent":"SA","iso_country":"VE","iso_region":"VE-C","municipality":"Anzoategui","scheduled_service":"no","gps_code":"SVJJ"},"geometry":{"type":"Point","coordinates":[-67.796669,7.443333]}},{"id":"601403","type":"Feature","properties":{"ident":"VE-0256","type":"heliport","name":"CVG Aponwao HLS","elevation_ft":"4429","continent":"SA","iso_country":"VE","iso_region":"VE-F","scheduled_service":"no","local_code":"SVVO3"},"geometry":{"type":"Point","coordinates":[-61.465073,5.845289]}},{"id":"526487","type":"Feature","properties":{"ident":"SVDU","type":"small_airport","name":"Dabajuro Airport","elevation_ft":"256","continent":"SA","iso_country":"VE","iso_region":"VE-I","scheduled_service":"no","gps_code":"SVDU"},"geometry":{"type":"Point","coordinates":[-70.6925,11.0275]}},{"id":"6299","type":"Feature","properties":{"ident":"SVMG","type":"medium_airport","name":"Del Caribe Santiago Mariño International Airport","elevation_ft":"74","continent":"SA","iso_country":"VE","iso_region":"VE-O","municipality":"Isla Margarita","scheduled_service":"yes","icao_code":"SVMG","iata_code":"PMV","gps_code":"SVMG","wikipedia_link":"https://en.wikipedia.org/wiki/Del_Caribe_International_General_Santiago_Marino_Airport"},"geometry":{"type":"Point","coordinates":[-63.966599,10.912603]}},{"id":"40114","type":"Feature","properties":{"ident":"SVDM","type":"small_airport","name":"Dos Mosquises Airport","elevation_ft":"7","continent":"NA","iso_country":"VE","iso_region":"VE-W","municipality":"Isla Los Roques","scheduled_service":"no","icao_code":"SVID","gps_code":"SVID","keywords":"SVDM"},"geometry":{"type":"Point","coordinates":[-66.892953,11.79432]}},{"id":"40110","type":"Feature","properties":{"ident":"SVDB","type":"small_airport","name":"Doña Bella Airport","elevation_ft":"651","continent":"SA","iso_country":"VE","iso_region":"VE-H","scheduled_service":"no","gps_code":"SVDB"},"geometry":{"type":"Point","coordinates":[-68.433334,9.333333]}},{"id":"6336","type":"Feature","properties":{"ident":"SVVL","type":"medium_airport","name":"Dr. Antonio Nicolás Briceño Airport","elevation_ft":"2060","continent":"SA","iso_country":"VE","iso_region":"VE-T","municipality":"Valera","scheduled_service":"yes","icao_code":"SVVL","iata_code":"VLV","gps_code":"SVVL","wikipedia_link":"https://en.wikipedia.org/wiki/Dr._Antonio_Nicol%C3%A1s_Brice%C3%B1o_Airport"},"geometry":{"type":"Point","coordinates":[-70.584061,9.340478]}},{"id":"601444","type":"Feature","properties":{"ident":"VE-0272","type":"heliport","name":"Ecomuseo Heliport","elevation_ft":"131","continent":"SA","iso_country":"VE","iso_region":"VE-F","municipality":"Ciudad Guayana","scheduled_service":"no","local_code":"SV5FJ"},"geometry":{"type":"Point","coordinates":[-62.670811,8.307143]}},{"id":"601470","type":"Feature","properties":{"ident":"VE-0297","type":"heliport","name":"Edelca Canaima Heliport","elevation_ft":"1312","continent":"SA","iso_country":"VE","iso_region":"VE-F","municipality":"Canaima","scheduled_service":"no","local_code":"SV8PK"},"geometry":{"type":"Point","coordinates":[-62.861989,6.245649]}},{"id":"601396","type":"Feature","properties":{"ident":"VE-0251","type":"heliport","name":"Edelca Yuruaní Heliport","elevation_ft":"2854","continent":"SA","iso_country":"VE","iso_region":"VE-F","municipality":"San Ignacio del Yuruaní","scheduled_service":"no","local_code":"SVCYW"},"geometry":{"type":"Point","coordinates":[-61.148036,5.009796]}},{"id":"40080","type":"Feature","properties":{"ident":"SVAV","type":"small_airport","name":"El Alcaravan Airport","elevation_ft":"128","continent":"SA","iso_country":"VE","iso_region":"VE-N","scheduled_service":"no","gps_code":"SVAV"},"geometry":{"type":"Point","coordinates":[-63.418331,9.273333]}},{"id":"40125","type":"Feature","properties":{"ident":"SVEL","type":"small_airport","name":"El Callao Airport","elevation_ft":"787","continent":"SA","iso_country":"VE","iso_region":"VE-F","municipality":"El Callao","scheduled_service":"no","icao_code":"SVLL","gps_code":"SVLL","keywords":"SVEL"},"geometry":{"type":"Point","coordinates":[-61.829939,7.333353]}},{"id":"601458","type":"Feature","properties":{"ident":"VE-0286","type":"heliport","name":"El Callao Heliport","elevation_ft":"787","continent":"SA","iso_country":"VE","iso_region":"VE-F","municipality":"El Callao","scheduled_service":"no","local_code":"SVTQL"},"geometry":{"type":"Point","coordinates":[-61.831956,7.333291]}},{"id":"40124","type":"Feature","properties":{"ident":"SVEK","type":"small_airport","name":"El Capitán Airport","elevation_ft":"452","continent":"SA","iso_country":"VE","iso_region":"VE-V","scheduled_service":"no","gps_code":"SVEK"},"geometry":{"type":"Point","coordinates":[-72.576599,10.1136]}},{"id":"40406","type":"Feature","properties":{"ident":"VE-0057","type":"small_airport","name":"El Carmen Airport","elevation_ft":"213","continent":"SA","iso_country":"VE","iso_region":"VE-F","scheduled_service":"no"},"geometry":{"type":"Point","coordinates":[-67.066666,6.15]}},{"id":"40173","type":"Feature","properties":{"ident":"SVKC","type":"small_airport","name":"El Carrao Airport","elevation_ft":"213","continent":"SA","iso_country":"VE","iso_region":"VE-P","scheduled_service":"no","gps_code":"SVQR"},"geometry":{"type":"Point","coordinates":[-68.805013,8.543421]}},{"id":"40407","type":"Feature","properties":{"ident":"VE-0058","type":"small_airport","name":"El Cedral Airport","elevation_ft":"285","continent":"SA","iso_country":"VE","iso_region":"VE-C","municipality":"Apure","scheduled_service":"no"},"geometry":{"type":"Point","coordinates":[-69.326668,7.431667]}},{"id":"40129","type":"Feature","properties":{"ident":"SVEW","type":"small_airport","name":"El Cenizo Airport","elevation_ft":"426","continent":"SA","iso_country":"VE","iso_region":"VE-T","scheduled_service":"no","gps_code":"SVKC"},"geometry":{"type":"Point","coordinates":[-70.683334,9.55]}},{"id":"40131","type":"Feature","properties":{"ident":"SVEY","type":"small_airport","name":"El Centro Airport","elevation_ft":"318","continent":"SA","iso_country":"VE","iso_region":"VE-C","scheduled_service":"no","gps_code":"SVNC"},"geometry":{"type":"Point","coordinates":[-69.116669,6.28]}},{"id":"40298","type":"Feature","properties":{"ident":"SVRZ","type":"small_airport","name":"El Corozo Airport","elevation_ft":"590","continent":"SA","iso_country":"VE","iso_region":"VE-J","scheduled_service":"no","gps_code":"SVRZ"},"geometry":{"type":"Point","coordinates":[-66.033333,8.466667]}},{"id":"40408","type":"Feature","properties":{"ident":"VE-0059","type":"small_airport","name":"El Diamante Airport","elevation_ft":"948","continent":"SA","iso_country":"VE","iso_region":"VE-F","scheduled_service":"no"},"geometry":{"type":"Point","coordinates":[-65.818886,6.434722]}},{"id":"6277","type":"Feature","properties":{"ident":"SVED","type":"medium_airport","name":"El Dorado Airport","elevation_ft":"318","continent":"SA","iso_country":"VE","iso_region":"VE-F","municipality":"Bolivar","scheduled_service":"no","icao_code":"SVED","iata_code":"EOR","gps_code":"SVED"},"geometry":{"type":"Point","coordinates":[-61.638786,6.71573]}},{"id":"40199","type":"Feature","properties":{"ident":"SVMB","type":"small_airport","name":"El Embrujo Airport","elevation_ft":"720","continent":"SA","iso_country":"VE","iso_region":"VE-J","scheduled_service":"no","gps_code":"SVMB"},"geometry":{"type":"Point","coordinates":[-66.504997,8.671667]}},{"id":"40120","type":"Feature","properties":{"ident":"SVEE","type":"small_airport","name":"El Esterero Airport","elevation_ft":"590","continent":"SA","iso_country":"VE","iso_region":"VE-C","municipality":"El Samán de Apure","scheduled_service":"no","gps_code":"SVEE"},"geometry":{"type":"Point","coordinates":[-68.696671,7.908333]}},{"id":"40133","type":"Feature","properties":{"ident":"SVFG","type":"small_airport","name":"El Flagelo Airport","elevation_ft":"663","continent":"SA","iso_country":"VE","iso_region":"VE-J","municipality":"Francisco de Miranda","scheduled_service":"no","gps_code":"SVFG"},"geometry":{"type":"Point","coordinates":[-67.032452,9.1856]}},{"id":"40136","type":"Feature","properties":{"ident":"SVFR","type":"small_airport","name":"El Frío Airport","elevation_ft":"219","continent":"SA","iso_country":"VE","iso_region":"VE-C","municipality":"Guarico","scheduled_service":"no","gps_code":"SVFR"},"geometry":{"type":"Point","coordinates":[-68.898331,7.823333]}},{"id":"40138","type":"Feature","properties":{"ident":"SVFT","type":"small_airport","name":"El Fuentero Airport","elevation_ft":"420","continent":"SA","iso_country":"VE","iso_region":"VE-C","scheduled_service":"no","gps_code":"SVBF"},"geometry":{"type":"Point","coordinates":[-69.583333,7.1]}},{"id":"601601","type":"Feature","properties":{"ident":"VE-0393","type":"heliport","name":"El Granzón Heliport","elevation_ft":"590","continent":"SA","iso_country":"VE","iso_region":"VE-F","scheduled_service":"no","local_code":"SVXIU"},"geometry":{"type":"Point","coordinates":[-61.371174,6.213628]}},{"id":"40122","type":"Feature","properties":{"ident":"SVEG","type":"small_airport","name":"El Guayabo de Cojedes Airport","elevation_ft":"23","continent":"SA","iso_country":"VE","iso_region":"VE-H","scheduled_service":"no","gps_code":"SVEG"},"geometry":{"type":"Point","coordinates":[-68.333336,9.7]}},{"id":"6276","type":"Feature","properties":{"ident":"SVEB","type":"small_airport","name":"El Guayabo del Zulia Airport","elevation_ft":"79","continent":"SA","iso_country":"VE","iso_region":"VE-V","scheduled_service":"no","gps_code":"SVEB"},"geometry":{"type":"Point","coordinates":[-72.335602,8.67616]}},{"id":"40123","type":"Feature","properties":{"ident":"SVEJ","type":"small_airport","name":"El Jabillal Airport","elevation_ft":"354","continent":"SA","iso_country":"VE","iso_region":"VE-T","scheduled_service":"no","icao_code":"SVQL","gps_code":"SVQL"},"geometry":{"type":"Point","coordinates":[-70.773503,9.452879]}},{"id":"40193","type":"Feature","properties":{"ident":"SVLU","type":"small_airport","name":"El Lechozo Airport","elevation_ft":"529","continent":"SA","iso_country":"VE","iso_region":"VE-D","municipality":"El Lechozo","scheduled_service":"no","gps_code":"SVLU"},"geometry":{"type":"Point","coordinates":[-66.678329,9.3]}},{"id":"6258","type":"Feature","properties":{"ident":"SVBL","type":"medium_airport","name":"El Libertador Airbase","elevation_ft":"1450","continent":"SA","iso_country":"VE","iso_region":"VE-D","scheduled_service":"no","gps_code":"SVBL","local_code":"ELR","wikipedia_link":"https://en.wikipedia.org/wiki/El_Libertador_Air_Base"},"geometry":{"type":"Point","coordinates":[-67.55732,10.183375]}},{"id":"40180","type":"Feature","properties":{"ident":"SVLC","type":"small_airport","name":"El Lucero de Apure Airport","elevation_ft":"262","continent":"SA","iso_country":"VE","iso_region":"VE-C","municipality":"El Lucero","scheduled_service":"no"},"geometry":{"type":"Point","coordinates":[-68.066666,6.983333]}},{"id":"40182","type":"Feature","properties":{"ident":"VE-0218","type":"small_airport","name":"El Lucero del Zulia Airport","elevation_ft":"31","continent":"SA","iso_country":"VE","iso_region":"VE-V","municipality":"El Lucero","scheduled_service":"no","gps_code":"SVFZ"},"geometry":{"type":"Point","coordinates":[-72.244551,9.829045]}},{"id":"40219","type":"Feature","properties":{"ident":"SVNG","type":"small_airport","name":"El Mango Airport","elevation_ft":"393","continent":"SA","iso_country":"VE","iso_region":"VE-V","scheduled_service":"no","gps_code":"SVNG"},"geometry":{"type":"Point","coordinates":[-72.466667,10.283333]}},{"id":"6280","type":"Feature","properties":{"ident":"SVET","type":"small_airport","name":"El Manteco Airport","elevation_ft":"1000","continent":"SA","iso_country":"VE","iso_region":"VE-F","scheduled_service":"no","gps_code":"SVET"},"geometry":{"type":"Point","coordinates":[-62.531447,7.349514]}},{"id":"40147","type":"Feature","properties":{"ident":"SVGR","type":"small_airport","name":"El Milagro Carabobo Airport","elevation_ft":"2013","continent":"SA","iso_country":"VE","iso_region":"VE-U","scheduled_service":"no","gps_code":"SVGR"},"geometry":{"type":"Point","coordinates":[-68.375198,10.153]}},{"id":"40204","type":"Feature","properties":{"ident":"SVMK","type":"small_airport","name":"El Milagro Cojedes Airport","elevation_ft":"262","continent":"SA","iso_country":"VE","iso_region":"VE-H","scheduled_service":"no","gps_code":"SVMK"},"geometry":{"type":"Point","coordinates":[-67.970001,9.23]}},{"id":"40208","type":"Feature","properties":{"ident":"SVMO","type":"small_airport","name":"El Milagro Oeste Airport","elevation_ft":"295","continent":"SA","iso_country":"VE","iso_region":"VE-C","scheduled_service":"no","gps_code":"SVMO"},"geometry":{"type":"Point","coordinates":[-68.183334,7.683333]}},{"id":"40205","type":"Feature","properties":{"ident":"SVML","type":"small_airport","name":"El Milagro Sureste Airport","elevation_ft":"230","continent":"SA","iso_country":"VE","iso_region":"VE-C","scheduled_service":"no","gps_code":"SVML"},"geometry":{"type":"Point","coordinates":[-67.279643,7.26544]}},{"id":"40410","type":"Feature","properties":{"ident":"VE-0061","type":"small_airport","name":"El Millanero Airport","elevation_ft":"192","continent":"SA","iso_country":"VE","iso_region":"VE-J","scheduled_service":"no"},"geometry":{"type":"Point","coordinates":[-67.111664,8.316667]}},{"id":"40223","type":"Feature","properties":{"ident":"SVNR","type":"small_airport","name":"El Morichal Airport","elevation_ft":"492","continent":"SA","iso_country":"VE","iso_region":"VE-C","scheduled_service":"no","gps_code":"SVNR"},"geometry":{"type":"Point","coordinates":[-68.633331,6.983333]}},{"id":"601794","type":"Feature","properties":{"ident":"VE-0506","type":"heliport","name":"El Nula Heliport","elevation_ft":"840","continent":"SA","iso_country":"VE","iso_region":"VE-C","municipality":"El Nula","scheduled_service":"no","local_code":"SVX0W"},"geometry":{"type":"Point","coordinates":[-71.9303,7.26567]}},{"id":"6279","type":"Feature","properties":{"ident":"SVEP","type":"small_airport","name":"El Palmar Airport","elevation_ft":"1554","continent":"SA","iso_country":"VE","iso_region":"VE-D","scheduled_service":"no","gps_code":"SVEP"},"geometry":{"type":"Point","coordinates":[-67.443118,10.198035]}},{"id":"40126","type":"Feature","properties":{"ident":"SVEM","type":"small_airport","name":"El Paraiso Airport","elevation_ft":"656","continent":"SA","iso_country":"VE","iso_region":"VE-E","municipality":"El Paraiso","scheduled_service":"no"},"geometry":{"type":"Point","coordinates":[-70.375,8.333333]}},{"id":"6314","type":"Feature","properties":{"ident":"SVWQ","type":"small_airport","name":"El Pardillero Airport","elevation_ft":"2001","continent":"SA","iso_country":"VE","iso_region":"VE-E","municipality":"Mijagual","scheduled_service":"no","gps_code":"SVWQ"},"geometry":{"type":"Point","coordinates":[-69.760803,8.59827]}},{"id":"40248","type":"Feature","properties":{"ident":"SVPI","type":"small_airport","name":"El Pauji Airstrip","elevation_ft":"2857","continent":"SA","iso_country":"VE","iso_region":"VE-F","municipality":"El Paují","scheduled_service":"no","local_code":"SVJI"},"geometry":{"type":"Point","coordinates":[-61.589313,4.469021]}},{"id":"40246","type":"Feature","properties":{"ident":"SVPG","type":"small_airport","name":"El Progreso Airport","elevation_ft":"984","continent":"SA","iso_country":"VE","iso_region":"VE-C","scheduled_service":"no"},"geometry":{"type":"Point","coordinates":[-68.578987,7.134679]}},{"id":"525030","type":"Feature","properties":{"ident":"SVWX","type":"small_airport","name":"El Recreo Airport","elevation_ft":"394","continent":"SA","iso_country":"VE","iso_region":"VE-J","scheduled_service":"no","icao_code":"SVWX","gps_code":"SVWX"},"geometry":{"type":"Point","coordinates":[-67.603,9.040833]}},{"id":"601816","type":"Feature","properties":{"ident":"SVRD","type":"small_airport","name":"El Remanso del Cinaruco Pedroc Airport","elevation_ft":"180","continent":"SA","iso_country":"VE","iso_region":"VE-C","municipality":"Coco de Mono","scheduled_service":"no","icao_code":"SVRD","gps_code":"SVRD"},"geometry":{"type":"Point","coordinates":[-67.424216,6.567861]}},{"id":"40127","type":"Feature","properties":{"ident":"SVER","type":"small_airport","name":"El Respiro Airport","elevation_ft":"387","continent":"SA","iso_country":"VE","iso_region":"VE-C","scheduled_service":"no","gps_code":"SVER"},"geometry":{"type":"Point","coordinates":[-68.98333,7.216667]}},{"id":"40280","type":"Feature","properties":{"ident":"SVRC","type":"small_airport","name":"El Rocío Airport","elevation_ft":"328","continent":"SA","iso_country":"VE","iso_region":"VE-I","scheduled_service":"no","gps_code":"SVRC"},"geometry":{"type":"Point","coordinates":[-68.550003,10.783333]}},{"id":"40128","type":"Feature","properties":{"ident":"SVES","type":"small_airport","name":"El Samán de Apure Airport","elevation_ft":"361","continent":"SA","iso_country":"VE","iso_region":"VE-C","municipality":"El Samán de Apure","scheduled_service":"no","gps_code":"SVES"},"geometry":{"type":"Point","coordinates":[-68.692703,7.91235]}},{"id":"40411","type":"Feature","properties":{"ident":"VE-0062","type":"small_airport","name":"El Samán de Barinas Airport","elevation_ft":"510","continent":"SA","iso_country":"VE","iso_region":"VE-E","scheduled_service":"no"},"geometry":{"type":"Point","coordinates":[-70.178275,8.543946]}},{"id":"40412","type":"Feature","properties":{"ident":"VE-0063","type":"small_airport","name":"El Samán de Guárico Airport","elevation_ft":"334","continent":"SA","iso_country":"VE","iso_region":"VE-J","scheduled_service":"no"},"geometry":{"type":"Point","coordinates":[-67.018333,8.825]}},{"id":"40289","type":"Feature","properties":{"ident":"SVRN","type":"small_airport","name":"El Terrón Airport","elevation_ft":"376","continent":"SA","iso_country":"VE","iso_region":"VE-N","scheduled_service":"no","icao_code":"SVQT","gps_code":"SVQT"},"geometry":{"type":"Point","coordinates":[-63.266666,9.383333]}},{"id":"525782","type":"Feature","properties":{"ident":"VE-0222","type":"small_airport","name":"El Tigre Airport","elevation_ft":"837","continent":"SA","iso_country":"VE","iso_region":"VE-B","municipality":"El Tigre","scheduled_service":"no","iata_code":"ELX","wikipedia_link":"https://en.wikipedia.org/wiki/El_Tigre_Airport"},"geometry":{"type":"Point","coordinates":[-64.20828,8.833546]}},{"id":"40324","type":"Feature","properties":{"ident":"SVTO","type":"small_airport","name":"El Toco Airport","elevation_ft":"392","continent":"SA","iso_country":"VE","iso_region":"VE-B","municipality":"El Toco","scheduled_service":"no"},"geometry":{"type":"Point","coordinates":[-64.849998,9.2]}},{"id":"601593","type":"Feature","properties":{"ident":"VE-0390","type":"heliport","name":"El Toro Helipad","elevation_ft":"3","continent":"SA","iso_country":"VE","iso_region":"VE-Y","municipality":"El Toro","scheduled_service":"no"},"geometry":{"type":"Point","coordinates":[-61.488945,8.509071]}},{"id":"40346","type":"Feature","properties":{"ident":"SVYG","type":"small_airport","name":"El Yagual Airport","elevation_ft":"262","continent":"SA","iso_country":"VE","iso_region":"VE-C","municipality":"El Yagual","scheduled_service":"no","gps_code":"SVEY"},"geometry":{"type":"Point","coordinates":[-68.449997,7.466667]}},{"id":"40347","type":"Feature","properties":{"ident":"SVYI","type":"small_airport","name":"El Yavi Airport","elevation_ft":"557","continent":"SA","iso_country":"VE","iso_region":"VE-Z","scheduled_service":"no","gps_code":"SVYI"},"geometry":{"type":"Point","coordinates":[-65.898331,5.458333]}},{"id":"601546","type":"Feature","properties":{"ident":"VE-0370","type":"small_airport","name":"Electric Co. Airstrip","elevation_ft":"302","continent":"SA","iso_country":"VE","iso_region":"VE-F","municipality":"Malena","scheduled_service":"no"},"geometry":{"type":"Point","coordinates":[-64.360058,7.766823]}},{"id":"601742","type":"Feature","properties":{"ident":"VE-0454","type":"heliport","name":"Electricidad de Caracas HLS","elevation_ft":"3281","continent":"SA","iso_country":"VE","iso_region":"VE-A","municipality":"Caracas","scheduled_service":"no","local_code":"SVROI"},"geometry":{"type":"Point","coordinates":[-66.893242,10.503329]}},{"id":"6281","type":"Feature","properties":{"ident":"SVEZ","type":"medium_airport","name":"Elorza Airport","elevation_ft":"295","continent":"SA","iso_country":"VE","iso_region":"VE-C","scheduled_service":"no","icao_code":"SVEZ","iata_code":"EOZ","gps_code":"SVEZ","wikipedia_link":"https://en.wikipedia.org/wiki/Elorza_Airport"},"geometry":{"type":"Point","coordinates":[-69.4967,7.059677]}},{"id":"601788","type":"Feature","properties":{"ident":"VE-0500","type":"heliport","name":"Embalse Masparro Heliport","elevation_ft":"787","continent":"SA","iso_country":"VE","iso_region":"VE-E","municipality":"Barrancas","scheduled_service":"no","local_code":"SVI5O"},"geometry":{"type":"Point","coordinates":[-70.11303,8.829844]}},{"id":"601765","type":"Feature","properties":{"ident":"VE-0477","type":"heliport","name":"Embalse Zuata HLS","elevation_ft":"1739","continent":"SA","iso_country":"VE","iso_region":"VE-D","municipality":"San Mateo","scheduled_service":"no","local_code":"SVGU5"},"geometry":{"type":"Point","coordinates":[-67.386815,10.213109]}},{"id":"40121","type":"Feature","properties":{"ident":"SVEF","type":"small_airport","name":"Empujeca Airport","elevation_ft":"66","continent":"SA","iso_country":"VE","iso_region":"VE-U","scheduled_service":"no","gps_code":"SVEF"},"geometry":{"type":"Point","coordinates":[-68.495003,10.595]}},{"id":"6278","type":"Feature","properties":{"ident":"SVEN","type":"small_airport","name":"Encontrados Airport","elevation_ft":"66","continent":"SA","iso_country":"VE","iso_region":"VE-V","scheduled_service":"no","gps_code":"SVEW"},"geometry":{"type":"Point","coordinates":[-72.24797,9.03777]}},{"id":"40413","type":"Feature","properties":{"ident":"VE-0064","type":"heliport","name":"Ensco III  Heliport","elevation_ft":"10","continent":"SA","iso_country":"VE","iso_region":"VE-V","scheduled_service":"no"},"geometry":{"type":"Point","coordinates":[-71.58667,10.046667]}},{"id":"40414","type":"Feature","properties":{"ident":"VE-0065","type":"heliport","name":"Ensco IV Heliport","continent":"SA","iso_country":"VE","iso_region":"VE-V","scheduled_service":"no"},"geometry":{"type":"Point","coordinates":[-71.466942,9.585833]}},{"id":"40416","type":"Feature","properties":{"ident":"VE-0067","type":"small_airport","name":"Entrerios Airport","elevation_ft":"921","continent":"SA","iso_country":"VE","iso_region":"VE-F","scheduled_service":"no"},"geometry":{"type":"Point","coordinates":[-64.433334,5.958333]}},{"id":"40417","type":"Feature","properties":{"ident":"VE-0068","type":"small_airport","name":"Erebastina Airport","elevation_ft":"1250","continent":"SA","iso_country":"VE","iso_region":"VE-F","scheduled_service":"no"},"geometry":{"type":"Point","coordinates":[-64.849998,5.133333]}},{"id":"6261","type":"Feature","properties":{"ident":"SVBS","type":"medium_airport","name":"Escuela Mariscal Sucre Airport","elevation_ft":"1338","continent":"SA","iso_country":"VE","iso_region":"VE-D","municipality":"Maracay","scheduled_service":"no","icao_code":"SVBS","iata_code":"MYC","gps_code":"SVBS","wikipedia_link":"https://en.wikipedia.org/wiki/Mariscal_Sucre_Airport_(Venezuela)"},"geometry":{"type":"Point","coordinates":[-67.649422,10.249978]}},{"id":"601492","type":"Feature","properties":{"ident":"VE-0318","type":"heliport","name":"Escuela Naval Carúpano HLS","elevation_ft":"98","continent":"SA","iso_country":"VE","iso_region":"VE-R","municipality":"Guaca","scheduled_service":"no","local_code":"SVHP6"},"geometry":{"type":"Point","coordinates":[-63.416884,10.652478]}},{"id":"601762","type":"Feature","properties":{"ident":"VE-0474","type":"heliport","name":"Escuela Naval Maiquetía HLS","elevation_ft":"272","continent":"SA","iso_country":"VE","iso_region":"VE-X","municipality":"Catia La Mar","scheduled_service":"no","local_code":"SVZ7E"},"geometry":{"type":"Point","coordinates":[-67.048199,10.591709]}},{"id":"601537","type":"Feature","properties":{"ident":"VE-0362","type":"heliport","name":"Escuela Naval Píritu HLS","elevation_ft":"49","continent":"SA","iso_country":"VE","iso_region":"VE-B","municipality":"Puerto Píritu","scheduled_service":"no","local_code":"SVB9Y"},"geometry":{"type":"Point","coordinates":[-65.028711,10.068509]}},{"id":"40252","type":"Feature","properties":{"ident":"SVPN","type":"small_airport","name":"Espino Airport","elevation_ft":"689","continent":"SA","iso_country":"VE","iso_region":"VE-J","scheduled_service":"no","gps_code":"SVPN"},"geometry":{"type":"Point","coordinates":[-66.018303,8.5635]}},{"id":"40137","type":"Feature","properties":{"ident":"SVFS","type":"small_airport","name":"Fagotrans Airport","elevation_ft":"590","continent":"SA","iso_country":"VE","iso_region":"VE-D","scheduled_service":"no","gps_code":"SVFS"},"geometry":{"type":"Point","coordinates":[-66.643097,9.40164]}},{"id":"601591","type":"Feature","properties":{"ident":"VE-0388","type":"heliport","name":"Faro de Barima Heliport","elevation_ft":"3","continent":"SA","iso_country":"VE","iso_region":"VE-Y","scheduled_service":"no"},"geometry":{"type":"Point","coordinates":[-60.411265,8.584247]}},{"id":"601453","type":"Feature","properties":{"ident":"VE-0281","type":"heliport","name":"Ferrominera Caronoco HLS","elevation_ft":"328","continent":"SA","iso_country":"VE","iso_region":"VE-F","municipality":"Ciudad Guayana","scheduled_service":"no"},"geometry":{"type":"Point","coordinates":[-62.739894,8.321475]}},{"id":"601584","type":"Feature","properties":{"ident":"VE-0381","type":"heliport","name":"Ferrominera Ciudad Piar HLS","elevation_ft":"1017","continent":"SA","iso_country":"VE","iso_region":"VE-F","municipality":"Ciudad Piar","scheduled_service":"no"},"geometry":{"type":"Point","coordinates":[-63.334445,7.449905]}},{"id":"601446","type":"Feature","properties":{"ident":"VE-0274","type":"heliport","name":"Ferrominera Hospital HLS","elevation_ft":"115","continent":"SA","iso_country":"VE","iso_region":"VE-F","municipality":"Ciudad Guayana","scheduled_service":"no"},"geometry":{"type":"Point","coordinates":[-62.717407,8.320053]}},{"id":"526488","type":"Feature","properties":{"ident":"SVFW","type":"small_airport","name":"Finca Villa Carrara II Airport","elevation_ft":"597","continent":"SA","iso_country":"VE","iso_region":"VE-N","scheduled_service":"no","gps_code":"SVFW"},"geometry":{"type":"Point","coordinates":[-63.752167,9.868]}},{"id":"40140","type":"Feature","properties":{"ident":"SVFY","type":"small_airport","name":"Finca Yacurito Airport","elevation_ft":"1706","continent":"SA","iso_country":"VE","iso_region":"VE-P","scheduled_service":"no","gps_code":"SVFY"},"geometry":{"type":"Point","coordinates":[-69.099998,9.033333]}},{"id":"40169","type":"Feature","properties":{"ident":"SVJL","type":"small_airport","name":"Fleitera Airport","elevation_ft":"132","continent":"SA","iso_country":"VE","iso_region":"VE-J","municipality":"Guayabal","scheduled_service":"no","gps_code":"SVJL","keywords":"Los Lajeros"},"geometry":{"type":"Point","coordinates":[-67.403704,7.995295]}},{"id":"40420","type":"Feature","properties":{"ident":"VE-0071","type":"heliport","name":"Florida Hill HLS","elevation_ft":"3346","continent":"SA","iso_country":"VE","iso_region":"VE-M","municipality":"Caracas","scheduled_service":"no"},"geometry":{"type":"Point","coordinates":[-66.769785,10.475004]}},{"id":"601480","type":"Feature","properties":{"ident":"VE-0306","type":"heliport","name":"Fuerte Cayaurima HLS","elevation_ft":"197","continent":"SA","iso_country":"VE","iso_region":"VE-F","municipality":"Ciudad Bolívar","scheduled_service":"no"},"geometry":{"type":"Point","coordinates":[-63.519301,8.114532]}},{"id":"601513","type":"Feature","properties":{"ident":"VE-0338","type":"heliport","name":"Fuerte Cogollar HLS","elevation_ft":"2985","continent":"SA","iso_country":"VE","iso_region":"VE-R","municipality":"Cogollar","scheduled_service":"no"},"geometry":{"type":"Point","coordinates":[-63.828256,10.180256]}},{"id":"601671","type":"Feature","properties":{"ident":"VE-0421","type":"heliport","name":"Fuerte Conopoima HLS","elevation_ft":"1312","continent":"SA","iso_country":"VE","iso_region":"VE-J","municipality":"San Juan de Los Morros","scheduled_service":"no"},"geometry":{"type":"Point","coordinates":[-67.363185,9.935495]}},{"id":"601390","type":"Feature","properties":{"ident":"VE-0245","type":"heliport","name":"Fuerte Escamoto HLS","elevation_ft":"2953","continent":"SA","iso_country":"VE","iso_region":"VE-F","municipality":"Santa Elena de Uairén","scheduled_service":"no","icao_code":"SVKD"},"geometry":{"type":"Point","coordinates":[-61.129622,4.548398]}},{"id":"601463","type":"Feature","properties":{"ident":"VE-0291","type":"heliport","name":"Fuerte Guaraguao Heliport","elevation_ft":"623","continent":"SA","iso_country":"VE","iso_region":"VE-F","municipality":"Guri","scheduled_service":"no","local_code":"SV269"},"geometry":{"type":"Point","coordinates":[-63.005133,7.798206]}},{"id":"601783","type":"Feature","properties":{"ident":"VE-0495","type":"heliport","name":"Fuerte Los Caribes Heliport","elevation_ft":"525","continent":"SA","iso_country":"VE","iso_region":"VE-H","municipality":"El Pao","scheduled_service":"no","local_code":"SVFLZ","wikipedia_link":"https://wikimapia.org/21070258/es/Fuerte-Los-Caribes"},"geometry":{"type":"Point","coordinates":[-68.263221,9.648441]}},{"id":"601401","type":"Feature","properties":{"ident":"VE-0255","type":"heliport","name":"Fuerte Luepa HLS","elevation_ft":"4462","continent":"SA","iso_country":"VE","iso_region":"VE-F","scheduled_service":"no","local_code":"SV9Y7"},"geometry":{"type":"Point","coordinates":[-61.44237,5.830101]}},{"id":"601476","type":"Feature","properties":{"ident":"VE-0303","type":"heliport","name":"Fuerte Panare HLS","elevation_ft":"164","continent":"SA","iso_country":"VE","iso_region":"VE-F","municipality":"Caicara del Orinoco","scheduled_service":"no"},"geometry":{"type":"Point","coordinates":[-66.142266,7.61338]}},{"id":"601472","type":"Feature","properties":{"ident":"VE-0299","type":"heliport","name":"Fuerte Tarabay HLS","elevation_ft":"492","continent":"SA","iso_country":"VE","iso_region":"VE-F","municipality":"Tumeremo","scheduled_service":"no","local_code":"SVTD0"},"geometry":{"type":"Point","coordinates":[-61.436019,7.34093]}},{"id":"601789","type":"Feature","properties":{"ident":"VE-0501","type":"heliport","name":"Fuerte Tavacare Heliport","elevation_ft":"787","continent":"SA","iso_country":"VE","iso_region":"VE-E","municipality":"Barinas","scheduled_service":"no","local_code":"SV5QJ"},"geometry":{"type":"Point","coordinates":[-70.262307,8.646635]}},{"id":"601811","type":"Feature","properties":{"ident":"VE-0521","type":"heliport","name":"Fuerte Terepaima HLS","elevation_ft":"1476","continent":"SA","iso_country":"VE","iso_region":"VE-K","municipality":"Cabudare","scheduled_service":"no","local_code":"SV9FA"},"geometry":{"type":"Point","coordinates":[-69.193846,9.963087]}},{"id":"601756","type":"Feature","properties":{"ident":"VE-0468","type":"heliport","name":"Fuerte Tiuna Cerro HLS","elevation_ft":"3625","continent":"SA","iso_country":"VE","iso_region":"VE-A","municipality":"Caracas","scheduled_service":"no","local_code":"SVGN2"},"geometry":{"type":"Point","coordinates":[-66.893349,10.455465]}},{"id":"601757","type":"Feature","properties":{"ident":"VE-0469","type":"heliport","name":"Fuerte Tiuna Comandancia Heliport","elevation_ft":"2946","continent":"SA","iso_country":"VE","iso_region":"VE-A","municipality":"Caracas","scheduled_service":"no","local_code":"SV2QD"},"geometry":{"type":"Point","coordinates":[-66.901258,10.457501]}},{"id":"40498","type":"Feature","properties":{"ident":"VE-0149","type":"heliport","name":"Fuerte Tiuna Infantería HLS","elevation_ft":"3048","continent":"SA","iso_country":"VE","iso_region":"VE-A","municipality":"Caracas","scheduled_service":"no"},"geometry":{"type":"Point","coordinates":[-66.902731,10.444946]}},{"id":"601758","type":"Feature","properties":{"ident":"VE-0470","type":"heliport","name":"Fuerte Tiuna Sur HLS","elevation_ft":"3097","continent":"SA","iso_country":"VE","iso_region":"VE-A","municipality":"Caracas","scheduled_service":"no","local_code":"SVYWJ"},"geometry":{"type":"Point","coordinates":[-66.917514,10.433243]}},{"id":"601471","type":"Feature","properties":{"ident":"VE-0298","type":"heliport","name":"Fuerte Yocoima HLS","elevation_ft":"656","continent":"SA","iso_country":"VE","iso_region":"VE-F","municipality":"Guasipati","scheduled_service":"no","local_code":"SVLJG"},"geometry":{"type":"Point","coordinates":[-61.876137,7.503045]}},{"id":"40135","type":"Feature","properties":{"ident":"SVFL","type":"small_airport","name":"Fundación Layera Airport","elevation_ft":"219","continent":"SA","iso_country":"VE","iso_region":"VE-C","scheduled_service":"no","gps_code":"SVFL"},"geometry":{"type":"Point","coordinates":[-68.133331,7.2]}},{"id":"40209","type":"Feature","properties":{"ident":"SVMQ","type":"small_airport","name":"Fundo la Marqueseña Airport","elevation_ft":"646","continent":"SA","iso_country":"VE","iso_region":"VE-E","scheduled_service":"no","gps_code":"SVMQ"},"geometry":{"type":"Point","coordinates":[-70.033333,8.841667]}},{"id":"40308","type":"Feature","properties":{"ident":"SVSM","type":"small_airport","name":"Fundo Santa María Airport","elevation_ft":"400","continent":"SA","iso_country":"VE","iso_region":"VE-E","scheduled_service":"no"},"geometry":{"type":"Point","coordinates":[-70.271244,8.330602]}},{"id":"40422","type":"Feature","properties":{"ident":"VE-0073","type":"heliport","name":"Galáctica Heliport","elevation_ft":"1411","continent":"SA","iso_country":"VE","iso_region":"VE-M","municipality":"Guarenas","scheduled_service":"no","local_code":"SV64Z"},"geometry":{"type":"Point","coordinates":[-66.644483,10.478444]}},{"id":"40142","type":"Feature","properties":{"ident":"SVGE","type":"small_airport","name":"Ganadería Pedernales Airport","elevation_ft":"467","continent":"SA","iso_country":"VE","iso_region":"VE-P","scheduled_service":"no","gps_code":"SVGE"},"geometry":{"type":"Point","coordinates":[-69.581665,9.21]}},{"id":"601499","type":"Feature","properties":{"ident":"VE-0325","type":"heliport","name":"Gasoducto Casanay HLS","elevation_ft":"197","continent":"SA","iso_country":"VE","iso_region":"VE-R","municipality":"Casanay","scheduled_service":"no"},"geometry":{"type":"Point","coordinates":[-63.452657,10.480138]}},{"id":"601629","type":"Feature","properties":{"ident":"VE-0409","type":"heliport","name":"Gasoducto Coche HLS","elevation_ft":"98","continent":"SA","iso_country":"VE","iso_region":"VE-O","municipality":"El Guamache","scheduled_service":"no"},"geometry":{"type":"Point","coordinates":[-63.897319,10.747978]}},{"id":"601678","type":"Feature","properties":{"ident":"VE-0428","type":"heliport","name":"Gasoducto Cogollal HLS","elevation_ft":"2067","continent":"SA","iso_country":"VE","iso_region":"VE-G","municipality":"Cogollal","scheduled_service":"no"},"geometry":{"type":"Point","coordinates":[-67.856492,10.060213]}},{"id":"601502","type":"Feature","properties":{"ident":"VE-0328","type":"heliport","name":"Gasoducto Cumaná HLS","elevation_ft":"722","continent":"SA","iso_country":"VE","iso_region":"VE-R","municipality":"Cumaná","scheduled_service":"no"},"geometry":{"type":"Point","coordinates":[-64.155232,10.400505]}},{"id":"601498","type":"Feature","properties":{"ident":"VE-0324","type":"heliport","name":"Gasoducto El Pilar HLS","elevation_ft":"33","continent":"SA","iso_country":"VE","iso_region":"VE-R","municipality":"El Pilar","scheduled_service":"no"},"geometry":{"type":"Point","coordinates":[-63.129704,10.534199]}},{"id":"601632","type":"Feature","properties":{"ident":"VE-0411","type":"heliport","name":"Gasoducto Guacarapo HLS","elevation_ft":"33","continent":"SA","iso_country":"VE","iso_region":"VE-R","municipality":"Guacarapo","scheduled_service":"no"},"geometry":{"type":"Point","coordinates":[-63.746245,10.516635]}},{"id":"601676","type":"Feature","properties":{"ident":"VE-0426","type":"heliport","name":"Gasoducto Guaribito HLS","elevation_ft":"230","continent":"SA","iso_country":"VE","iso_region":"VE-J","scheduled_service":"no"},"geometry":{"type":"Point","coordinates":[-65.356578,9.509918]}},{"id":"601630","type":"Feature","properties":{"ident":"VE-0410","type":"heliport","name":"Gasoducto Guayacán HLS","elevation_ft":"23","continent":"SA","iso_country":"VE","iso_region":"VE-R","municipality":"Guayacán","scheduled_service":"no"},"geometry":{"type":"Point","coordinates":[-63.867729,10.631723]}},{"id":"601497","type":"Feature","properties":{"ident":"VE-0323","type":"heliport","name":"Gasoducto Irapa HLS","elevation_ft":"65","continent":"SA","iso_country":"VE","iso_region":"VE-R","scheduled_service":"no"},"geometry":{"type":"Point","coordinates":[-62.658914,10.60199]}},{"id":"601504","type":"Feature","properties":{"ident":"VE-0329","type":"heliport","name":"Gasoducto Los Altos HLS","elevation_ft":"1969","continent":"SA","iso_country":"VE","iso_region":"VE-R","municipality":"Los Altos de Sucre","scheduled_service":"no"},"geometry":{"type":"Point","coordinates":[-64.463005,10.211708]}},{"id":"601628","type":"Feature","properties":{"ident":"VE-0408","type":"heliport","name":"Gasoducto Margarita HLS","elevation_ft":"33","continent":"SA","iso_country":"VE","iso_region":"VE-O","municipality":"Porlamar","scheduled_service":"no"},"geometry":{"type":"Point","coordinates":[-63.885234,10.938332]}},{"id":"601501","type":"Feature","properties":{"ident":"VE-0327","type":"heliport","name":"Gasoducto Muelle de Cariaco HLS","elevation_ft":"459","continent":"SA","iso_country":"VE","iso_region":"VE-R","municipality":"Muelle de Cariaco","scheduled_service":"no"},"geometry":{"type":"Point","coordinates":[-63.64888,10.46967]}},{"id":"601672","type":"Feature","properties":{"ident":"VE-0422","type":"heliport","name":"Gasoducto Piloncito HLS","elevation_ft":"1181","continent":"SA","iso_country":"VE","iso_region":"VE-J","scheduled_service":"no","local_code":"SV5YS"},"geometry":{"type":"Point","coordinates":[-66.535608,9.798865]}},{"id":"601496","type":"Feature","properties":{"ident":"VE-0322","type":"heliport","name":"Gasoducto Río de Agua HLS","elevation_ft":"33","continent":"SA","iso_country":"VE","iso_region":"VE-R","scheduled_service":"no"},"geometry":{"type":"Point","coordinates":[-62.977622,10.581114]}},{"id":"601500","type":"Feature","properties":{"ident":"VE-0326","type":"heliport","name":"Gasoducto San Antonio HLS","elevation_ft":"525","continent":"SA","iso_country":"VE","iso_region":"VE-R","municipality":"San Antonio del Golfo","scheduled_service":"no"},"geometry":{"type":"Point","coordinates":[-63.821749,10.434097]}},{"id":"601673","type":"Feature","properties":{"ident":"VE-0423","type":"heliport","name":"Gasoducto Tamanaco HLS","elevation_ft":"853","continent":"SA","iso_country":"VE","iso_region":"VE-J","scheduled_service":"no"},"geometry":{"type":"Point","coordinates":[-66.088943,9.706552]}},{"id":"601675","type":"Feature","properties":{"ident":"VE-0425","type":"heliport","name":"Gasoducto Taparito HLS","elevation_ft":"262","continent":"SA","iso_country":"VE","iso_region":"VE-J","scheduled_service":"no"},"geometry":{"type":"Point","coordinates":[-65.459373,9.511669]}},{"id":"601674","type":"Feature","properties":{"ident":"VE-0424","type":"heliport","name":"Gasoducto Uveral HLS","elevation_ft":"722","continent":"SA","iso_country":"VE","iso_region":"VE-J","scheduled_service":"no"},"geometry":{"type":"Point","coordinates":[-65.816489,9.703434]}},{"id":"601495","type":"Feature","properties":{"ident":"VE-0321","type":"heliport","name":"Gasoducto Yaguaraparo HLS","elevation_ft":"164","continent":"SA","iso_country":"VE","iso_region":"VE-R","municipality":"Yaguaraparo","scheduled_service":"no"},"geometry":{"type":"Point","coordinates":[-62.84479,10.587773]}},{"id":"40423","type":"Feature","properties":{"ident":"VE-0074","type":"heliport","name":"Gaston  Heliport","elevation_ft":"3500","continent":"SA","iso_country":"VE","iso_region":"VE-M","scheduled_service":"no"},"geometry":{"type":"Point","coordinates":[-67.008331,10.4]}},{"id":"6310","type":"Feature","properties":{"ident":"SVPC","type":"medium_airport","name":"General Bartolome Salom International Airport","elevation_ft":"32","continent":"SA","iso_country":"VE","iso_region":"VE-G","municipality":"Puerto Cabello","scheduled_service":"no","icao_code":"SVPC","iata_code":"PBL","gps_code":"SVPC","wikipedia_link":"https://en.wikipedia.org/wiki/General_Bartolom%C3%A9_Salom_Airport"},"geometry":{"type":"Point","coordinates":[-68.072998,10.4805]}},{"id":"6270","type":"Feature","properties":{"ident":"SVCP","type":"medium_airport","name":"General Francisco Bermúdez Airport","elevation_ft":"33","continent":"SA","iso_country":"VE","iso_region":"VE-R","municipality":"Carúpano","scheduled_service":"yes","icao_code":"SVCP","iata_code":"CUP","gps_code":"SVCP","wikipedia_link":"https://en.wikipedia.org/wiki/General_Jos%C3%A9_Francisco_Berm%C3%BAdez_Airport"},"geometry":{"type":"Point","coordinates":[-63.261681,10.660014]}},{"id":"6255","type":"Feature","properties":{"ident":"SVBC","type":"large_airport","name":"General José Antonio Anzoategui International Airport","elevation_ft":"30","continent":"SA","iso_country":"VE","iso_region":"VE-B","municipality":"Barcelona","scheduled_service":"yes","icao_code":"SVBC","iata_code":"BLA","gps_code":"SVBC","home_link":"http://aigdjaa.baer.gob.ve","wikipedia_link":"https://en.wikipedia.org/wiki/General_Jos%C3%A9_Antonio_Anzo%C3%A1tegui_International_Airport","keywords":"Barcelona, Puero La Cruz,Lecheria"},"geometry":{"type":"Point","coordinates":[-64.692222,10.111111]}},{"id":"6315","type":"Feature","properties":{"ident":"SVPR","type":"medium_airport","name":"General Manuel Carlos Piar International Airport","elevation_ft":"472","continent":"SA","iso_country":"VE","iso_region":"VE-F","municipality":"Puerto Ordaz-Ciudad Guayana","scheduled_service":"yes","icao_code":"SVPR","iata_code":"PZO","gps_code":"SVPR","wikipedia_link":"https://en.wikipedia.org/wiki/Manuel_Carlos_Piar_Guayana_Airport","keywords":"CGU"},"geometry":{"type":"Point","coordinates":[-62.760399,8.28853]}},{"id":"6262","type":"Feature","properties":{"ident":"SVCB","type":"medium_airport","name":"General Tomas de Heres Airport","elevation_ft":"197","continent":"SA","iso_country":"VE","iso_region":"VE-F","municipality":"Ciudad Bolivar","scheduled_service":"no","icao_code":"SVCB","iata_code":"CBL","gps_code":"SVCB","wikipedia_link":"https://en.wikipedia.org/wiki/Tom%C3%A1s_de_Heres_Airport","keywords":"Aeropuerto General Tomas de Heres"},"geometry":{"type":"Point","coordinates":[-63.536957,8.122161]}},{"id":"6282","type":"Feature","properties":{"ident":"SVFM","type":"medium_airport","name":"Generalissimo Francisco de Miranda Air Base","elevation_ft":"2739","continent":"SA","iso_country":"VE","iso_region":"VE-M","municipality":"Caracas","scheduled_service":"no","gps_code":"SVFM","wikipedia_link":"https://en.wikipedia.org/wiki/Generalissimo_Francisco_de_Miranda_Air_Base","keywords":"Caracas Francisco de Miranda, La Carlota"},"geometry":{"type":"Point","coordinates":[-66.843513,10.485033]}},{"id":"601487","type":"Feature","properties":{"ident":"VE-0313","type":"heliport","name":"GN Aeropuerto Maturín HLS","elevation_ft":"230","continent":"SA","iso_country":"VE","iso_region":"VE-N","municipality":"Maturín","scheduled_service":"no"},"geometry":{"type":"Point","coordinates":[-63.162932,9.747061]}},{"id":"601515","type":"Feature","properties":{"ident":"VE-0340","type":"heliport","name":"GN Bergantín HLS","elevation_ft":"754","continent":"SA","iso_country":"VE","iso_region":"VE-B","municipality":"San Andrés","scheduled_service":"no","local_code":"SV97H"},"geometry":{"type":"Point","coordinates":[-63.915721,9.187793]}},{"id":"601801","type":"Feature","properties":{"ident":"VE-0511","type":"heliport","name":"GN Betania HLS","elevation_ft":"7251","continent":"SA","iso_country":"VE","iso_region":"VE-S","municipality":"Betania","scheduled_service":"no"},"geometry":{"type":"Point","coordinates":[-72.440879,7.453364]}},{"id":"601586","type":"Feature","properties":{"ident":"VE-0383","type":"heliport","name":"GN Casa Blanca HLS","elevation_ft":"525","continent":"SA","iso_country":"VE","iso_region":"VE-F","scheduled_service":"no"},"geometry":{"type":"Point","coordinates":[-61.559397,7.12885]}},{"id":"601815","type":"Feature","properties":{"ident":"VE-0524","type":"heliport","name":"GN Castilletes HLS","elevation_ft":"3","continent":"SA","iso_country":"VE","iso_region":"VE-V","scheduled_service":"no","local_code":"SVT7D"},"geometry":{"type":"Point","coordinates":[-71.332074,11.84984]}},{"id":"601527","type":"Feature","properties":{"ident":"VE-0352","type":"heliport","name":"GN Core 7 HLS","elevation_ft":"50","continent":"SA","iso_country":"VE","iso_region":"VE-B","municipality":"Puerto La Cruz","scheduled_service":"no"},"geometry":{"type":"Point","coordinates":[-64.626633,10.217296]}},{"id":"601488","type":"Feature","properties":{"ident":"VE-0314","type":"heliport","name":"GN Core 7 Maturín HLS","elevation_ft":"230","continent":"SA","iso_country":"VE","iso_region":"VE-N","municipality":"Maturín","scheduled_service":"no"},"geometry":{"type":"Point","coordinates":[-63.160164,9.751303]}},{"id":"601450","type":"Feature","properties":{"ident":"VE-0278","type":"heliport","name":"GN Core 8 Heliport","elevation_ft":"394","continent":"SA","iso_country":"VE","iso_region":"VE-F","municipality":"Ciudad Guayana","scheduled_service":"no","local_code":"SV7N3"},"geometry":{"type":"Point","coordinates":[-62.815576,8.242485]}},{"id":"601585","type":"Feature","properties":{"ident":"VE-0382","type":"heliport","name":"GN El Cintillo HLS","elevation_ft":"787","continent":"SA","iso_country":"VE","iso_region":"VE-F","municipality":"El Cintillo","scheduled_service":"no"},"geometry":{"type":"Point","coordinates":[-61.963073,7.653481]}},{"id":"601796","type":"Feature","properties":{"ident":"VE-0508","type":"heliport","name":"GN El Escalante HLS","elevation_ft":"594","continent":"SA","iso_country":"VE","iso_region":"VE-S","municipality":"La Tendida","scheduled_service":"no","local_code":"SVV81"},"geometry":{"type":"Point","coordinates":[-71.78756,8.512068]}},{"id":"601785","type":"Feature","properties":{"ident":"VE-0497","type":"heliport","name":"GN Guanare HLS","elevation_ft":"558","continent":"SA","iso_country":"VE","iso_region":"VE-P","municipality":"Guanare","scheduled_service":"no","local_code":"SVG0Z"},"geometry":{"type":"Point","coordinates":[-69.722977,9.062546]}},{"id":"601461","type":"Feature","properties":{"ident":"VE-0289","type":"heliport","name":"GN Guri HLS","elevation_ft":"689","continent":"SA","iso_country":"VE","iso_region":"VE-F","municipality":"Guri","scheduled_service":"no","local_code":"SVNET"},"geometry":{"type":"Point","coordinates":[-63.008072,7.783547]}},{"id":"601400","type":"Feature","properties":{"ident":"VE-0254","type":"heliport","name":"GN Ikabarú HLS","elevation_ft":"1607","continent":"SA","iso_country":"VE","iso_region":"VE-F","municipality":"Ikabarú","scheduled_service":"no","keywords":"Icabarú"},"geometry":{"type":"Point","coordinates":[-61.739227,4.331755]}},{"id":"601654","type":"Feature","properties":{"ident":"VE-0418","type":"heliport","name":"GN Ipire HLS","elevation_ft":"394","continent":"SA","iso_country":"VE","iso_region":"VE-J","municipality":"Santa María de Ipire","scheduled_service":"no"},"geometry":{"type":"Point","coordinates":[-65.310203,8.818099]}},{"id":"601519","type":"Feature","properties":{"ident":"VE-0344","type":"heliport","name":"GN La Guarapera HLS","elevation_ft":"886","continent":"SA","iso_country":"VE","iso_region":"VE-B","municipality":"San José de Guanipa","scheduled_service":"no","local_code":"SVQ5R"},"geometry":{"type":"Point","coordinates":[-64.162685,8.834933]}},{"id":"601489","type":"Feature","properties":{"ident":"VE-0315","type":"heliport","name":"GN La Hoguera HLS","elevation_ft":"98","continent":"SA","iso_country":"VE","iso_region":"VE-N","scheduled_service":"no"},"geometry":{"type":"Point","coordinates":[-63.004371,9.456396]}},{"id":"601520","type":"Feature","properties":{"ident":"VE-0345","type":"heliport","name":"GN Limoncito HLS","elevation_ft":"820","continent":"SA","iso_country":"VE","iso_region":"VE-B","municipality":"Pariaguán","scheduled_service":"no","local_code":"SVQ45"},"geometry":{"type":"Point","coordinates":[-64.735698,8.815668]}},