{"type":"FeatureCollection","features":[{"id":"308218","type":"Feature","properties":{"ident":"LYBS","type":"heliport","name":"Camp Bondsteel Army Heliport","elevation_ft":"1900","continent":"EU","iso_country":"XK","iso_region":"XK-05","municipality":"Sojevë / Camp Bondsteel","scheduled_service":"no","gps_code":"LYBS","wikipedia_link":"https://en.wikipedia.org/wiki/Camp_Bondsteel"},"geometry":{"type":"Point","coordinates":[21.24234,42.36632]}},{"id":"594458","type":"Feature","properties":{"ident":"XK-0021","type":"heliport","name":"Camp Villaggio Italia Heliport","elevation_ft":"2021","continent":"EU","iso_country":"XK","iso_region":"XK-03","municipality":"Peja","scheduled_service":"no"},"geometry":{"type":"Point","coordinates":[20.28684,42.63094]}},{"id":"351082","type":"Feature","properties":{"ident":"XK-0004","type":"heliport","name":"Dubrava Prison Heliport","elevation_ft":"1844","continent":"EU","iso_country":"XK","iso_region":"XK-03","municipality":"Istog","scheduled_service":"no"},"geometry":{"type":"Point","coordinates":[20.55182,42.78575]}},{"id":"594457","type":"Feature","properties":{"ident":"XK-0020","type":"heliport","name":"Gjakova Heliport","elevation_ft":"1204","continent":"EU","iso_country":"XK","iso_region":"XK-07","municipality":"Gjakova","scheduled_service":"no"},"geometry":{"type":"Point","coordinates":[20.43589,42.38589]}},{"id":"1651","type":"Feature","properties":{"ident":"XK-0010","type":"small_airport","name":"Gjakovë Air Base","elevation_ft":"1370","continent":"EU","iso_country":"XK","iso_region":"XK-07","municipality":"Gjakovë","scheduled_service":"no","wikipedia_link":"https://en.wikipedia.org/wiki/Gjakova_Airport","keywords":"Dakovica, Aerodrom Đakovica, Аеродром Ђаковица, Aeroporti i Gjakovës, Dakovjca, LYDK"},"geometry":{"type":"Point","coordinates":[20.427768,42.435066]}},{"id":"514487","type":"Feature","properties":{"ident":"XK-0007","type":"heliport","name":"Gjilan Regional Hospital Heliport","elevation_ft":"1791","continent":"EU","iso_country":"XK","iso_region":"XK-06","municipality":"Gjilan","scheduled_service":"no","keywords":"Heliporti i Spitalit Rajonal të Gjilanit"},"geometry":{"type":"Point","coordinates":[21.46207,42.45883]}},{"id":"514509","type":"Feature","properties":{"ident":"XK-0008","type":"heliport","name":"KFOR Camp Maxhunaj Heliport","elevation_ft":"1837","continent":"EU","iso_country":"XK","iso_region":"XK-02","municipality":"Maxhunaj","scheduled_service":"no","keywords":"Heliporti i bazës së KFOR-it në Maxhunaj"},"geometry":{"type":"Point","coordinates":[21.03111,42.78224]}},{"id":"513808","type":"Feature","properties":{"ident":"XK-0006","type":"heliport","name":"KFOR Headquarters Heliport","elevation_ft":"2113","continent":"EU","iso_country":"XK","iso_region":"XK-01","municipality":"Pristina","scheduled_service":"no"},"geometry":{"type":"Point","coordinates":[21.141505,42.664529]}},{"id":"594446","type":"Feature","properties":{"ident":"XK-0017","type":"heliport","name":"Prizren Heliport","elevation_ft":"1490","continent":"EU","iso_country":"XK","iso_region":"XK-04","municipality":"Prizren","scheduled_service":"no"},"geometry":{"type":"Point","coordinates":[20.749683,42.22165]}},{"id":"4614","type":"Feature","properties":{"ident":"BKPR","type":"medium_airport","name":"Priština Adem Jashari International Airport","elevation_ft":"1789","continent":"EU","iso_country":"XK","iso_region":"XK-01","municipality":"Prishtina","scheduled_service":"yes","icao_code":"BKPR","iata_code":"PRN","gps_code":"BKPR","home_link":"http://www.airportpristina.com/","wikipedia_link":"https://en.wikipedia.org/wiki/Pristina_International_Airport","keywords":"LYPR, Pristina, Slatina Air Base"},"geometry":{"type":"Point","coordinates":[21.035801,42.5728]}},{"id":"594447","type":"Feature","properties":{"ident":"XK-0018","type":"heliport","name":"University Clinical Center of Kosovo Heliport","elevation_ft":"1978","continent":"EU","iso_country":"XK","iso_region":"XK-01","municipality":"Pristina","scheduled_service":"no"},"geometry":{"type":"Point","coordinates":[21.1627,42.64596]}},{"id":"594452","type":"Feature","properties":{"ident":"XK-0019","type":"heliport","name":"UNMIK Mitrovica Heliport","elevation_ft":"1657","continent":"EU","iso_country":"XK","iso_region":"XK-02","municipality":"Mitrovica","scheduled_service":"no"},"geometry":{"type":"Point","coordinates":[20.87722,42.89382]}},{"id":"316472","type":"Feature","properties":{"ident":"BKVR","type":"heliport","name":"Vali Ranch Heliport","elevation_ft":"2168","continent":"EU","iso_country":"XK","iso_region":"XK-06","municipality":"Përlepnice","scheduled_service":"no","gps_code":"BKVR","keywords":"Vali"},"geometry":{"type":"Point","coordinates":[21.534508,42.513732]}}]}