{"type":"FeatureCollection","features":[{"id":"30960","type":"Feature","properties":{"ident":"OYAB","type":"small_airport","name":"Abs Airport","elevation_ft":"651","continent":"AS","iso_country":"YE","iso_region":"YE-SN","municipality":"Abs","scheduled_service":"no","gps_code":"OYBS","iata_code":"EAB","wikipedia_link":"https://en.wikipedia.org/wiki/Abbs_Airport","keywords":"Abbs, Abbse"},"geometry":{"type":"Point","coordinates":[43.176771,16.010983]}},{"id":"340202","type":"Feature","properties":{"ident":"DHL","type":"small_airport","name":"Ad-Dali Airport","continent":"AS","iso_country":"YE","iso_region":"YE-DA","municipality":"Ad-Dali","scheduled_service":"no","iata_code":"DHL","local_code":"DHL"},"geometry":{"type":"Point","coordinates":[44.72719,13.73846]}},{"id":"5311","type":"Feature","properties":{"ident":"OYAA","type":"medium_airport","name":"Aden International Airport","elevation_ft":"7","continent":"AS","iso_country":"YE","iso_region":"YE-AD","municipality":"Aden","scheduled_service":"yes","gps_code":"OYAA","iata_code":"ADE","wikipedia_link":"https://en.wikipedia.org/wiki/Aden_International_Airport","keywords":"RAF Khormaksar"},"geometry":{"type":"Point","coordinates":[45.028801,12.8295]}},{"id":"351964","type":"Feature","properties":{"ident":"YE-0011","type":"heliport","name":"Aden International Stadium Heliport","elevation_ft":"32","continent":"AS","iso_country":"YE","iso_region":"YE-AB","municipality":"Zinjibar","scheduled_service":"no"},"geometry":{"type":"Point","coordinates":[45.42159,13.11228]}},{"id":"519257","type":"Feature","properties":{"ident":"YE-0016","type":"small_airport","name":"Aden New","continent":"AS","iso_country":"YE","iso_region":"YE-U-A","scheduled_service":"no"},"geometry":{"type":"Point","coordinates":[44.828894,12.785641]}},{"id":"334407","type":"Feature","properties":{"ident":"WDA","type":"small_airport","name":"Al Ain Airport Ain District, Shabwah Governorate, Yemen","continent":"AS","iso_country":"YE","iso_region":"YE-SH","municipality":"Ain District","scheduled_service":"no","iata_code":"WDA","keywords":"VG5W"},"geometry":{"type":"Point","coordinates":[45.545705,14.859579]}},{"id":"26977","type":"Feature","properties":{"ident":"OY74","type":"medium_airport","name":"Al Anad Air Base","elevation_ft":"900","continent":"AS","iso_country":"YE","iso_region":"YE-LA","municipality":"Al Anad","scheduled_service":"no","keywords":"OY74"},"geometry":{"type":"Point","coordinates":[44.765099,13.1747]}},{"id":"5313","type":"Feature","properties":{"ident":"OYBA","type":"small_airport","name":"Al Badie Airport","elevation_ft":"908","continent":"AS","iso_country":"YE","iso_region":"YE-HD","municipality":"Dhula'","scheduled_service":"no","gps_code":"OYBA"},"geometry":{"type":"Point","coordinates":[50.835771,18.720709]}},{"id":"348395","type":"Feature","properties":{"ident":"YE-0003","type":"small_airport","name":"Al Dhaba Airport","elevation_ft":"52","continent":"AS","iso_country":"YE","iso_region":"YE-HD","municipality":"Al Dhaba","scheduled_service":"no","keywords":"Petromasila Dabba"},"geometry":{"type":"Point","coordinates":[49.49634,14.70339]}},{"id":"5315","type":"Feature","properties":{"ident":"OYGD","type":"medium_airport","name":"Al Ghaydah International Airport","elevation_ft":"134","continent":"AS","iso_country":"YE","iso_region":"YE-MR","municipality":"Al Ghaydah","scheduled_service":"yes","gps_code":"OYGD","iata_code":"AAY","wikipedia_link":"https://en.wikipedia.org/wiki/Al_Ghaydah_Airport","keywords":"ODAG"},"geometry":{"type":"Point","coordinates":[52.174186,16.193341]}},{"id":"32138","type":"Feature","properties":{"ident":"OYBI","type":"small_airport","name":"Al-Bayda Airport","elevation_ft":"6120","continent":"AS","iso_country":"YE","iso_region":"YE-BA","municipality":"Al-Bayda","scheduled_service":"no","gps_code":"OYBD","iata_code":"BYD","wikipedia_link":"https://en.wikipedia.org/wiki/Al_Bayda%27_Airport_(Yemen)"},"geometry":{"type":"Point","coordinates":[45.441079,14.105974]}},{"id":"32139","type":"Feature","properties":{"ident":"OYBQ","type":"small_airport","name":"Al-Bough Airport","elevation_ft":"3800","continent":"AS","iso_country":"YE","iso_region":"YE-SD","municipality":"Al-Bough","scheduled_service":"no","gps_code":"OYBQ","iata_code":"BUK","wikipedia_link":"https://en.wikipedia.org/wiki/Albuq_Airport","keywords":"Albuq, Al Buq, Albuqa"},"geometry":{"type":"Point","coordinates":[44.625542,17.350352]}},{"id":"32144","type":"Feature","properties":{"ident":"OYZM","type":"small_airport","name":"Al-Hazm Airport","elevation_ft":"3200","continent":"AS","iso_country":"YE","iso_region":"YE-JA","municipality":"Al-Hazm","scheduled_service":"no","gps_code":"OYZM","wikipedia_link":"https://en.wikipedia.org/wiki/Al_Hazm_Airport"},"geometry":{"type":"Point","coordinates":[44.783001,16.200001]}},{"id":"351859","type":"Feature","properties":{"ident":"YE-0005","type":"small_airport","name":"Ar Rawdah Airport","elevation_ft":"2730","continent":"AS","iso_country":"YE","iso_region":"YE-SH","municipality":"Ar Rawdah","scheduled_service":"no","iata_code":"RXA"},"geometry":{"type":"Point","coordinates":[47.27955,14.44872]}},{"id":"32143","type":"Feature","properties":{"ident":"OYSF","type":"small_airport","name":"As Salif Airport","continent":"AS","iso_country":"YE","iso_region":"YE-MU","municipality":"As Salif","scheduled_service":"no","gps_code":"OYSF"},"geometry":{"type":"Point","coordinates":[42.685954,15.294577]}},{"id":"5312","type":"Feature","properties":{"ident":"OYAT","type":"medium_airport","name":"Ataq Airport","elevation_ft":"3735","continent":"AS","iso_country":"YE","iso_region":"YE-SH","municipality":"Ataq","scheduled_service":"no","gps_code":"OYAT","iata_code":"AXK","wikipedia_link":"https://en.wikipedia.org/wiki/Ataq_Airport"},"geometry":{"type":"Point","coordinates":[46.826199,14.5513]}},{"id":"351962","type":"Feature","properties":{"ident":"YE-0009","type":"heliport","name":"Balhaf Lower Heliport","elevation_ft":"16","continent":"AS","iso_country":"YE","iso_region":"YE-SH","municipality":"Balhaf","scheduled_service":"no"},"geometry":{"type":"Point","coordinates":[48.17582,14.00131]}},{"id":"351959","type":"Feature","properties":{"ident":"YE-0006","type":"heliport","name":"Balhaf Main Heliport","elevation_ft":"80","continent":"AS","iso_country":"YE","iso_region":"YE-SH","municipality":"Balhaf","scheduled_service":"no"},"geometry":{"type":"Point","coordinates":[48.18221,14.00403]}},{"id":"351963","type":"Feature","properties":{"ident":"YE-0010","type":"heliport","name":"Balhaf North Heliport","elevation_ft":"82","continent":"AS","iso_country":"YE","iso_region":"YE-SH","municipality":"Balhaf","scheduled_service":"no"},"geometry":{"type":"Point","coordinates":[48.18081,14.0121]}},{"id":"351960","type":"Feature","properties":{"ident":"YE-0007","type":"heliport","name":"Balhaf Upper Heliport","elevation_ft":"112","continent":"AS","iso_country":"YE","iso_region":"YE-SH","municipality":"Balhaf","scheduled_service":"no"},"geometry":{"type":"Point","coordinates":[48.18431,14.00528]}},{"id":"351961","type":"Feature","properties":{"ident":"YE-0008","type":"small_airport","name":"Balhaf Yemen LNG Airport","elevation_ft":"13","continent":"AS","iso_country":"YE","iso_region":"YE-SH","municipality":"Balhaf","scheduled_service":"no"},"geometry":{"type":"Point","coordinates":[48.15943,14.01389]}},{"id":"32142","type":"Feature","properties":{"ident":"OYRT","type":"small_airport","name":"Barat Airport","elevation_ft":"6800","continent":"AS","iso_country":"YE","iso_region":"YE-JA","municipality":"Barat","scheduled_service":"no","gps_code":"OYRT"},"geometry":{"type":"Point","coordinates":[44.349998,16.733]}},{"id":"5314","type":"Feature","properties":{"ident":"OYBN","type":"small_airport","name":"Beihan Airport","elevation_ft":"3800","continent":"AS","iso_country":"YE","iso_region":"YE-SH","municipality":"Beihan","scheduled_service":"no","gps_code":"OYBN","iata_code":"BHN","wikipedia_link":"https://en.wikipedia.org/wiki/Beihan_Airport"},"geometry":{"type":"Point","coordinates":[45.719703,14.781714]}},{"id":"26978","type":"Feature","properties":{"ident":"OY75","type":"small_airport","name":"Canoxy Airport","elevation_ft":"3300","continent":"AS","iso_country":"YE","iso_region":"YE-HD","municipality":"Heru","scheduled_service":"no","gps_code":"OY75","local_code":"OY75"},"geometry":{"type":"Point","coordinates":[49.0807,15.6018]}},{"id":"340201","type":"Feature","properties":{"ident":"DAH","type":"small_airport","name":"Dathina Airport","elevation_ft":"-2","continent":"AS","iso_country":"YE","iso_region":"YE-AB","municipality":"Dathina","scheduled_service":"no","iata_code":"DAH","local_code":"DAH"},"geometry":{"type":"Point","coordinates":[46.133473,13.866884]}},{"id":"5316","type":"Feature","properties":{"ident":"OYHD","type":"medium_airport","name":"Hodeidah International Airport","elevation_ft":"41","continent":"AS","iso_country":"YE","iso_region":"YE-HU","municipality":"Hodeida","scheduled_service":"yes","gps_code":"OYHD","iata_code":"HOD","wikipedia_link":"https://en.wikipedia.org/wiki/Hodeida_International_Airport","keywords":"Al Hudaydah International Airport"},"geometry":{"type":"Point","coordinates":[42.976299,14.753]}},{"id":"32140","type":"Feature","properties":{"ident":"OYKM","type":"small_airport","name":"Kamaran Airport","elevation_ft":"51","continent":"AS","iso_country":"YE","iso_region":"YE-MU","municipality":"Kamaran","scheduled_service":"no","gps_code":"OYKM","iata_code":"KAM","wikipedia_link":"https://en.wikipedia.org/wiki/Kamaran_Airport"},"geometry":{"type":"Point","coordinates":[42.612515,15.368755]}},{"id":"517009","type":"Feature","properties":{"ident":"YE-0014","type":"small_airport","name":"Kharir","continent":"AS","iso_country":"YE","iso_region":"YE-U-A","scheduled_service":"no"},"geometry":{"type":"Point","coordinates":[48.799187,15.734984]}},{"id":"557987","type":"Feature","properties":{"ident":"YE-0017","type":"small_airport","name":"Kilmia","continent":"AS","iso_country":"YE","iso_region":"YE-U-A","scheduled_service":"no"},"geometry":{"type":"Point","coordinates":[52.291746,12.186662]}},{"id":"348442","type":"Feature","properties":{"ident":"YE-0004","type":"heliport","name":"Ma'asheeq Presidential Palace Heliport","elevation_ft":"151","continent":"AS","iso_country":"YE","iso_region":"YE-AD","municipality":"Aden","scheduled_service":"no"},"geometry":{"type":"Point","coordinates":[45.05339,12.76404]}},{"id":"31994","type":"Feature","properties":{"ident":"OYMB","type":"small_airport","name":"Marib Airport","elevation_ft":"3300","continent":"AS","iso_country":"YE","iso_region":"YE-MA","municipality":"Marib","scheduled_service":"no","gps_code":"OYMB","iata_code":"MYN","wikipedia_link":"https://en.wikipedia.org/wiki/Marib_Airport"},"geometry":{"type":"Point","coordinates":[45.327272,15.469228]}},{"id":"316933","type":"Feature","properties":{"ident":"OYMS","type":"small_airport","name":"Mukeiras Airport","elevation_ft":"7080","continent":"AS","iso_country":"YE","iso_region":"YE-BA","municipality":"Mukayras","scheduled_service":"no","gps_code":"OYMS","iata_code":"UKR","wikipedia_link":"https://en.wikipedia.org/wiki/Mukeiras_Airport","keywords":"Mukayras, OYMK"},"geometry":{"type":"Point","coordinates":[45.657,13.9368]}},{"id":"340200","type":"Feature","properties":{"ident":"YE-0002","type":"small_airport","name":"Perim / Mayyun East Airfield","continent":"AS","iso_country":"YE","iso_region":"YE-TA","municipality":"Dhubab","scheduled_service":"no"},"geometry":{"type":"Point","coordinates":[43.429654,12.661236]}},{"id":"340199","type":"Feature","properties":{"ident":"YE-0001","type":"small_airport","name":"Perim / Mayyun West Airfield","continent":"AS","iso_country":"YE","iso_region":"YE-TA","municipality":"Dhubab","scheduled_service":"no"},"geometry":{"type":"Point","coordinates":[43.41023,12.66456]}},{"id":"31667","type":"Feature","properties":{"ident":"OYQN","type":"small_airport","name":"Qishn Airport","elevation_ft":"100","continent":"AS","iso_country":"YE","iso_region":"YE-MR","municipality":"Qishn","scheduled_service":"no","gps_code":"OYQN","iata_code":"IHN","wikipedia_link":"https://ar.wikipedia.org/wiki/%D9%85%D8%B7%D8%A7%D8%B1_%D9%82%D8%B4%D9%86"},"geometry":{"type":"Point","coordinates":[51.682999,15.417]}},{"id":"5317","type":"Feature","properties":{"ident":"OYRN","type":"medium_airport","name":"Riyan Mukalla International Airport","elevation_ft":"54","continent":"AS","iso_country":"YE","iso_region":"YE-HD","municipality":"Riyan","scheduled_service":"yes","gps_code":"OYRN","iata_code":"RIY","wikipedia_link":"https://en.m.wikipedia.org/wiki/Riyan_International_Airport","keywords":"ريان المكلا الدولي"},"geometry":{"type":"Point","coordinates":[49.375,14.6626]}},{"id":"32413","type":"Feature","properties":{"ident":"OYSH","type":"small_airport","name":"Sadah Airport","elevation_ft":"5938","continent":"AS","iso_country":"YE","iso_region":"YE-SD","municipality":"Sa'dah","scheduled_service":"no","gps_code":"OYSH","iata_code":"SYE","wikipedia_link":"https://en.wikipedia.org/wiki/Saadah_Airport"},"geometry":{"type":"Point","coordinates":[43.728103,16.967542]}},{"id":"5318","type":"Feature","properties":{"ident":"OYSN","type":"medium_airport","name":"Sana'a International Airport","elevation_ft":"7216","continent":"AS","iso_country":"YE","iso_region":"YE-SN","municipality":"Sana'a","scheduled_service":"yes","gps_code":"OYSN","iata_code":"SAH","wikipedia_link":"https://en.wikipedia.org/wiki/Sana'a_International_Airport"},"geometry":{"type":"Point","coordinates":[44.2197,15.4763]}},{"id":"517008","type":"Feature","properties":{"ident":"YE-0013","type":"small_airport","name":"Sayma","continent":"AS","iso_country":"YE","iso_region":"YE-U-A","scheduled_service":"no"},"geometry":{"type":"Point","coordinates":[43.467598,13.020746]}},{"id":"5320","type":"Feature","properties":{"ident":"OYSY","type":"medium_airport","name":"Seiyun Hadhramaut International Airport","elevation_ft":"2097","continent":"AS","iso_country":"YE","iso_region":"YE-HD","municipality":"Seiyun","scheduled_service":"yes","gps_code":"OYSY","iata_code":"GXF","wikipedia_link":"https://en.wikipedia.org/wiki/Sayun_Airport"},"geometry":{"type":"Point","coordinates":[48.7883,15.9661]}},{"id":"5319","type":"Feature","properties":{"ident":"OYSQ","type":"medium_airport","name":"Socotra International Airport","elevation_ft":"146","continent":"AS","iso_country":"YE","iso_region":"YE-HD","municipality":"Socotra Islands","scheduled_service":"yes","gps_code":"OYSQ","iata_code":"SCT","wikipedia_link":"https://en.wikipedia.org/wiki/Socotra_Airport"},"geometry":{"type":"Point","coordinates":[53.9058,12.6307]}},{"id":"5321","type":"Feature","properties":{"ident":"OYTZ","type":"medium_airport","name":"Ta'izz International Airport","elevation_ft":"4838","continent":"AS","iso_country":"YE","iso_region":"YE-TA","municipality":"Ta'izz","scheduled_service":"yes","gps_code":"OYTZ","iata_code":"TAI","wikipedia_link":"https://en.wikipedia.org/wiki/Ta'izz_International_Airport","keywords":"Ganed Airport"},"geometry":{"type":"Point","coordinates":[44.139099,13.686]}},{"id":"517039","type":"Feature","properties":{"ident":"YE-0015","type":"small_airport","name":"Um Ghareb","continent":"AS","iso_country":"YE","iso_region":"YE-U-A","scheduled_service":"no"},"geometry":{"type":"Point","coordinates":[49.127599,18.399411]}}]}