{"type":"FeatureCollection","features":[{"id":"31216","type":"Feature","properties":{"ident":"FVAB","type":"small_airport","name":"Aberdeen Airport","elevation_ft":"4495","continent":"AF","iso_country":"ZW","iso_region":"ZW-MA","municipality":"Aberdeen","scheduled_service":"no","gps_code":"FVAB"},"geometry":{"type":"Point","coordinates":[32.675326,-18.195092]}},{"id":"345666","type":"Feature","properties":{"ident":"FVLK","type":"small_airport","name":"Airport of Linkwasha","elevation_ft":"3200","continent":"AF","iso_country":"ZW","iso_region":"ZW-MN","municipality":"Linkwasha","scheduled_service":"no","gps_code":"FVLK"},"geometry":{"type":"Point","coordinates":[27.2014,-19.1233]}},{"id":"325147","type":"Feature","properties":{"ident":"FVRB","type":"small_airport","name":"Barberton Lodge Airfield","elevation_ft":"2650","continent":"AF","iso_country":"ZW","iso_region":"ZW-MI","municipality":"Mwenezi","scheduled_service":"no","gps_code":"FVRB","keywords":"Barberton, Barberton Lodge, Bubiana Conservancy Zimbabwe"},"geometry":{"type":"Point","coordinates":[29.871943,-21.12863]}},{"id":"351673","type":"Feature","properties":{"ident":"ZW-0053","type":"small_airport","name":"Batoka Gorge South Airport","elevation_ft":"2805","continent":"AF","iso_country":"ZW","iso_region":"ZW-MS","municipality":"Hwange","scheduled_service":"no"},"geometry":{"type":"Point","coordinates":[26.11749,-17.93221]}},{"id":"29690","type":"Feature","properties":{"ident":"FVBB","type":"small_airport","name":"Beitbridge Airport","elevation_ft":"1509","continent":"AF","iso_country":"ZW","iso_region":"ZW-MS","municipality":"Beitbridge","scheduled_service":"no","gps_code":"FVBB"},"geometry":{"type":"Point","coordinates":[30.012774,-22.197617]}},{"id":"318994","type":"Feature","properties":{"ident":"ZW-0010","type":"small_airport","name":"Belingwe Airport","continent":"AF","iso_country":"ZW","iso_region":"ZW-MI","municipality":"Belingwe","scheduled_service":"no"},"geometry":{"type":"Point","coordinates":[29.876149,-20.522514]}},{"id":"351689","type":"Feature","properties":{"ident":"ZW-0059","type":"heliport","name":"Big Four Heliport","elevation_ft":"2986","continent":"AF","iso_country":"ZW","iso_region":"ZW-MN","municipality":"Victoria Falls","scheduled_service":"no"},"geometry":{"type":"Point","coordinates":[25.83235,-17.91354]}},{"id":"31218","type":"Feature","properties":{"ident":"FVBI","type":"small_airport","name":"Binga Airport","elevation_ft":"1950","continent":"AF","iso_country":"ZW","iso_region":"ZW-MN","municipality":"Binga","scheduled_service":"no","gps_code":"FVBI"},"geometry":{"type":"Point","coordinates":[27.316859,-17.647513]}},{"id":"318988","type":"Feature","properties":{"ident":"ZW-0005","type":"small_airport","name":"Boli Airport","continent":"AF","iso_country":"ZW","iso_region":"ZW-MV","municipality":"Boli","scheduled_service":"no"},"geometry":{"type":"Point","coordinates":[31.476691,-21.532188]}},{"id":"351699","type":"Feature","properties":{"ident":"ZW-0060","type":"small_airport","name":"Bomani Airstrip","elevation_ft":"3347","continent":"AF","iso_country":"ZW","iso_region":"ZW-MN","municipality":"Bomani Pan","scheduled_service":"no"},"geometry":{"type":"Point","coordinates":[27.457538,-19.0826]}},{"id":"31221","type":"Feature","properties":{"ident":"FVBO","type":"small_airport","name":"Bosbury Airport","elevation_ft":"3940","continent":"AF","iso_country":"ZW","iso_region":"ZW-MW","municipality":"Bosbury","scheduled_service":"no","gps_code":"FVBO"},"geometry":{"type":"Point","coordinates":[30.132999,-18.216999]}},{"id":"31217","type":"Feature","properties":{"ident":"FVAE","type":"small_airport","name":"Braebourne Airport","elevation_ft":"3600","continent":"AF","iso_country":"ZW","iso_region":"ZW-MC","municipality":"Braebourne","scheduled_service":"no","gps_code":"FVAE"},"geometry":{"type":"Point","coordinates":[31.233,-16.667]}},{"id":"318987","type":"Feature","properties":{"ident":"ZW-0004","type":"small_airport","name":"Bridge Camp Airstrip","continent":"AF","iso_country":"ZW","iso_region":"ZW-MV","scheduled_service":"no"},"geometry":{"type":"Point","coordinates":[31.908657,-21.247388]}},{"id":"3003","type":"Feature","properties":{"ident":"FVCZ","type":"medium_airport","name":"Buffalo Range Airport","elevation_ft":"1421","continent":"AF","iso_country":"ZW","iso_region":"ZW-MV","municipality":"Chiredzi","scheduled_service":"no","icao_code":"FVCZ","iata_code":"BFO","gps_code":"FVCZ","home_link":"https://www.caaz.co.zw/buffalo-range-airport","wikipedia_link":"https://en.wikipedia.org/wiki/Buffalo_Range_Airport"},"geometry":{"type":"Point","coordinates":[31.5786,-21.008101]}},{"id":"31220","type":"Feature","properties":{"ident":"FVBM","type":"small_airport","name":"Bumi Hills Airport","elevation_ft":"1650","continent":"AF","iso_country":"ZW","iso_region":"ZW-MW","municipality":"Bumi","scheduled_service":"no","iata_code":"BZH","gps_code":"FVBM"},"geometry":{"type":"Point","coordinates":[28.344786,-16.816485]}},{"id":"31222","type":"Feature","properties":{"ident":"FVCC","type":"small_airport","name":"C.C. Strip","elevation_ft":"4050","continent":"AF","iso_country":"ZW","iso_region":"ZW-MW","municipality":"C.C. Strip","scheduled_service":"no","gps_code":"FVCC"},"geometry":{"type":"Point","coordinates":[30.299999,-17.433001]}},{"id":"31225","type":"Feature","properties":{"ident":"FVCM","type":"small_airport","name":"Cam+Motor Airport","elevation_ft":"3720","continent":"AF","iso_country":"ZW","iso_region":"ZW-MW","municipality":"Cam+Motor","scheduled_service":"no","gps_code":"FVCM"},"geometry":{"type":"Point","coordinates":[29.979444,-18.299999]}},{"id":"31224","type":"Feature","properties":{"ident":"FVCE","type":"small_airport","name":"Celina Airport","elevation_ft":"4058","continent":"AF","iso_country":"ZW","iso_region":"ZW-MC","municipality":"Celina","scheduled_service":"no","gps_code":"FVCE"},"geometry":{"type":"Point","coordinates":[30.85,-17.517]}},{"id":"3001","type":"Feature","properties":{"ident":"FVCN","type":"small_airport","name":"Centenary Airport","elevation_ft":"4058","continent":"AF","iso_country":"ZW","iso_region":"ZW-MC","scheduled_service":"no","icao_code":"FVCN","gps_code":"FVCN","wikipedia_link":"https://en.wikipedia.org/wiki/Centenary_Airport"},"geometry":{"type":"Point","coordinates":[31.122,-16.7341]}},{"id":"319236","type":"Feature","properties":{"ident":"ZW-0024","type":"small_airport","name":"Chapoto Road Airstrip","elevation_ft":"1310","continent":"AF","iso_country":"ZW","iso_region":"ZW-MC","scheduled_service":"no","keywords":"Membwe"},"geometry":{"type":"Point","coordinates":[30.402576,-15.749968]}},{"id":"3002","type":"Feature","properties":{"ident":"FVCP","type":"small_airport","name":"Charles Prince Airport","elevation_ft":"4845","continent":"AF","iso_country":"ZW","iso_region":"ZW-HA","municipality":"Harare","scheduled_service":"no","icao_code":"FVCP","gps_code":"FVCP","wikipedia_link":"https://en.wikipedia.org/wiki/Charles_Prince_Airport"},"geometry":{"type":"Point","coordinates":[30.9247,-17.7516]}},{"id":"595579","type":"Feature","properties":{"ident":"ZW-0067","type":"small_airport","name":"Chawato Airfield","elevation_ft":"2855","continent":"AF","iso_country":"ZW","iso_region":"ZW-MN","municipality":"Sinamatella Camp","scheduled_service":"no"},"geometry":{"type":"Point","coordinates":[26.27256,-18.51297]}},{"id":"319002","type":"Feature","properties":{"ident":"ZW-0016","type":"small_airport","name":"Chete Airport","continent":"AF","iso_country":"ZW","iso_region":"ZW-MN","municipality":"Binga","scheduled_service":"no"},"geometry":{"type":"Point","coordinates":[28.001822,-17.050324]}},{"id":"319248","type":"Feature","properties":{"ident":"ZW-0032","type":"small_airport","name":"Chewonde Airport","continent":"AF","iso_country":"ZW","iso_region":"ZW-MI","municipality":"Chewonde","scheduled_service":"no"},"geometry":{"type":"Point","coordinates":[28.270602,-17.958974]}},{"id":"351661","type":"Feature","properties":{"ident":"ZW-0051","type":"small_airport","name":"Chief Simupas Village Airport","elevation_ft":"1719","continent":"AF","iso_country":"ZW","iso_region":"ZW-MN","municipality":"Binga","scheduled_service":"no"},"geometry":{"type":"Point","coordinates":[28.07068,-17.19447]}},{"id":"319008","type":"Feature","properties":{"ident":"ZW-0020","type":"small_airport","name":"Chigwell Airport","continent":"AF","iso_country":"ZW","iso_region":"ZW-MW","municipality":"Chigwell","scheduled_service":"no"},"geometry":{"type":"Point","coordinates":[29.965823,-18.16483]}},{"id":"351678","type":"Feature","properties":{"ident":"ZW-0056","type":"heliport","name":"Chikopokopo Heliport","elevation_ft":"3012","continent":"AF","iso_country":"ZW","iso_region":"ZW-MN","municipality":"Masuwe","scheduled_service":"no"},"geometry":{"type":"Point","coordinates":[25.80993,-17.96438]}},{"id":"319244","type":"Feature","properties":{"ident":"ZW-0029","type":"small_airport","name":"Chikwenya Game Lodge Airstrip","elevation_ft":"1250","continent":"AF","iso_country":"ZW","iso_region":"ZW-MW","municipality":"Hurungwe","scheduled_service":"no","keywords":"Sapi River"},"geometry":{"type":"Point","coordinates":[29.576598,-15.6956]}},{"id":"345912","type":"Feature","properties":{"ident":"ZW-0048","type":"heliport","name":"Chinyike Mine Heliport","continent":"AF","iso_country":"ZW","iso_region":"ZW-MI","scheduled_service":"no"},"geometry":{"type":"Point","coordinates":[30.2742,-18.9259]}},{"id":"30828","type":"Feature","properties":{"ident":"FVCH","type":"small_airport","name":"Chipinge Airport","elevation_ft":"3720","continent":"AF","iso_country":"ZW","iso_region":"ZW-MA","municipality":"Chipinge","scheduled_service":"no","icao_code":"FVCH","iata_code":"CHJ","gps_code":"FVCH","wikipedia_link":"https://en.wikipedia.org/wiki/Chipinge_Airport"},"geometry":{"type":"Point","coordinates":[32.6283,-20.206699]}},{"id":"319254","type":"Feature","properties":{"ident":"ZW-0038","type":"small_airport","name":"Chipinge Farm Airstrip","continent":"AF","iso_country":"ZW","iso_region":"ZW-MV","scheduled_service":"no"},"geometry":{"type":"Point","coordinates":[32.203607,-20.460575]}},{"id":"31223","type":"Feature","properties":{"ident":"FVCD","type":"small_airport","name":"Chirundu Airport","elevation_ft":"1310","continent":"AF","iso_country":"ZW","iso_region":"ZW-MW","municipality":"Chirundu","scheduled_service":"no","gps_code":"FVCD"},"geometry":{"type":"Point","coordinates":[28.899056,-15.998082]}},{"id":"31227","type":"Feature","properties":{"ident":"FVCV","type":"small_airport","name":"Chivu Airport","elevation_ft":"4790","continent":"AF","iso_country":"ZW","iso_region":"ZW-MI","municipality":"Chivu","scheduled_service":"no","gps_code":"FVCV"},"geometry":{"type":"Point","coordinates":[30.9,-19.033001]}},{"id":"31226","type":"Feature","properties":{"ident":"FVCR","type":"small_airport","name":"Chizarira Airport","elevation_ft":"3280","continent":"AF","iso_country":"ZW","iso_region":"ZW-MN","municipality":"Chizarira","scheduled_service":"no","gps_code":"FVCR"},"geometry":{"type":"Point","coordinates":[27.9,-17.683001]}},{"id":"341722","type":"Feature","properties":{"ident":"ZW-0046","type":"small_airport","name":"Dandawa Airstrip","elevation_ft":"1370","continent":"AF","iso_country":"ZW","iso_region":"ZW-MW","municipality":"Dandawas","scheduled_service":"no","keywords":"Damdawa"},"geometry":{"type":"Point","coordinates":[29.274619,-15.956175]}},{"id":"31228","type":"Feature","properties":{"ident":"FVDA","type":"small_airport","name":"Dawsons Airport","elevation_ft":"4762","continent":"AF","iso_country":"ZW","iso_region":"ZW-MC","municipality":"Mvurwi","scheduled_service":"no","gps_code":"FVDA"},"geometry":{"type":"Point","coordinates":[30.8961,-17.0049]}},{"id":"31229","type":"Feature","properties":{"ident":"FVDE","type":"small_airport","name":"Deka Airport","elevation_ft":"1750","continent":"AF","iso_country":"ZW","iso_region":"ZW-MN","municipality":"Deka","scheduled_service":"no","gps_code":"FVDE"},"geometry":{"type":"Point","coordinates":[26.714038,-18.093208]}},{"id":"319012","type":"Feature","properties":{"ident":"ZW-0022","type":"small_airport","name":"Dorowa Airport","continent":"AF","iso_country":"ZW","iso_region":"ZW-MA","municipality":"Dorowa","scheduled_service":"no"},"geometry":{"type":"Point","coordinates":[31.775152,-19.056975]}},{"id":"31230","type":"Feature","properties":{"ident":"FVDU","type":"small_airport","name":"Dudley Airport","elevation_ft":"4986","continent":"AF","iso_country":"ZW","iso_region":"ZW-ME","municipality":"Dudley","scheduled_service":"no","gps_code":"FVDU"},"geometry":{"type":"Point","coordinates":[31.483,-18.283001]}},{"id":"31231","type":"Feature","properties":{"ident":"FVED","type":"small_airport","name":"Eduan Airport","elevation_ft":"3900","continent":"AF","iso_country":"ZW","iso_region":"ZW-MI","municipality":"Eduan","scheduled_service":"no","gps_code":"FVED"},"geometry":{"type":"Point","coordinates":[29.783001,-18.767]}},{"id":"351677","type":"Feature","properties":{"ident":"ZW-0055","type":"heliport","name":"Elephant Hills Heliport","elevation_ft":"3054","continent":"AF","iso_country":"ZW","iso_region":"ZW-MN","municipality":"Victoria Falls","scheduled_service":"no"},"geometry":{"type":"Point","coordinates":[25.82802,-17.91199]}},{"id":"31233","type":"Feature","properties":{"ident":"FVFI","type":"small_airport","name":"Filabusi Airport","elevation_ft":"3525","continent":"AF","iso_country":"ZW","iso_region":"ZW-MS","municipality":"Filabusi","scheduled_service":"no","gps_code":"FVFI"},"geometry":{"type":"Point","coordinates":[29.256185,-20.535814]}},{"id":"31232","type":"Feature","properties":{"ident":"FVFG","type":"small_airport","name":"Fothergill Airport","elevation_ft":"1630","continent":"AF","iso_country":"ZW","iso_region":"ZW-MW","municipality":"Fothergill","scheduled_service":"no","gps_code":"FVFG"},"geometry":{"type":"Point","coordinates":[28.660112,-16.704523]}},{"id":"329803","type":"Feature","properties":{"ident":"FVGG","type":"small_airport","name":"Gachegache Airport","elevation_ft":"1665","continent":"AF","iso_country":"ZW","iso_region":"ZW-MW","municipality":"Gache Gache","scheduled_service":"no","gps_code":"FVGG"},"geometry":{"type":"Point","coordinates":[28.930312,-16.748077]}},{"id":"31235","type":"Feature","properties":{"ident":"FVGT","type":"small_airport","name":"Gaths Mine Airport","elevation_ft":"3454","continent":"AF","iso_country":"ZW","iso_region":"ZW-MV","municipality":"Gaths Mine","scheduled_service":"no","gps_code":"FVGT"},"geometry":{"type":"Point","coordinates":[30.5,-19.983]}},{"id":"29900","type":"Feature","properties":{"ident":"FVGO","type":"small_airport","name":"Gokwe Airport","elevation_ft":"4199","continent":"AF","iso_country":"ZW","iso_region":"ZW-MI","municipality":"Gokwe","scheduled_service":"no","gps_code":"FVGO"},"geometry":{"type":"Point","coordinates":[28.96625,-18.238705]}},{"id":"319251","type":"Feature","properties":{"ident":"ZW-0035","type":"small_airport","name":"Gokwe North Airport","continent":"AF","iso_country":"ZW","iso_region":"ZW-MI","municipality":"Gokwe","scheduled_service":"no"},"geometry":{"type":"Point","coordinates":[28.330871,-17.537114]}},{"id":"317037","type":"Feature","properties":{"ident":"FVGB","type":"small_airport","name":"Gombera Airport","elevation_ft":"3294","continent":"AF","iso_country":"ZW","iso_region":"ZW-MW","municipality":"Gombera Ranch","scheduled_service":"no","gps_code":"FVGB"},"geometry":{"type":"Point","coordinates":[30.358828,-16.958341]}},{"id":"30176","type":"Feature","properties":{"ident":"FVGR","type":"small_airport","name":"Grand Reef Airport","elevation_ft":"3333","continent":"AF","iso_country":"ZW","iso_region":"ZW-MA","municipality":"Mutare","scheduled_service":"no","icao_code":"FVGR","gps_code":"FVGR","wikipedia_link":"https://en.wikipedia.org/wiki/Grand_Reef_Airport"},"geometry":{"type":"Point","coordinates":[32.450802,-18.9775]}},{"id":"31234","type":"Feature","properties":{"ident":"FVGD","type":"small_airport","name":"Gwanda Airport","elevation_ft":"3328","continent":"AF","iso_country":"ZW","iso_region":"ZW-MS","municipality":"Gwanda","scheduled_service":"no","gps_code":"FVGD"},"geometry":{"type":"Point","coordinates":[29,-20.9]}},{"id":"3013","type":"Feature","properties":{"ident":"FVTL","type":"medium_airport","name":"Gweru - Thornhill Air Base","elevation_ft":"4680","continent":"AF","iso_country":"ZW","iso_region":"ZW-MI","municipality":"Gweru","scheduled_service":"no","icao_code":"FVTL","iata_code":"GWE","gps_code":"FVTL","wikipedia_link":"https://en.wikipedia.org/wiki/Gweru-Thornhill_Air_Base"},"geometry":{"type":"Point","coordinates":[29.861945,-19.436718]}},{"id":"31236","type":"Feature","properties":{"ident":"FVGW","type":"small_airport","name":"Gweru Airport","elevation_ft":"4660","continent":"AF","iso_country":"ZW","iso_region":"ZW-MI","municipality":"Gweru","scheduled_service":"no","gps_code":"FVGW"},"geometry":{"type":"Point","coordinates":[29.735388,-19.549362]}},{"id":"31238","type":"Feature","properties":{"ident":"FVHY","type":"small_airport","name":"Hippo Valley Airport","elevation_ft":"1420","continent":"AF","iso_country":"ZW","iso_region":"ZW-MV","municipality":"Chiredzi","scheduled_service":"no","gps_code":"FVHY"},"geometry":{"type":"Point","coordinates":[31.667,-21.049999]}},{"id":"31237","type":"Feature","properties":{"ident":"FVHP","type":"small_airport","name":"Home Park Airport","elevation_ft":"5150","continent":"AF","iso_country":"ZW","iso_region":"ZW-ME","municipality":"Home Park","scheduled_service":"no","gps_code":"FVHP"},"geometry":{"type":"Point","coordinates":[31.733,-18.200001]}},{"id":"319246","type":"Feature","properties":{"ident":"ZW-0031","type":"small_airport","name":"Honde Valley Airport","continent":"AF","iso_country":"ZW","iso_region":"ZW-MA","municipality":"Honde Valley","scheduled_service":"no"},"geometry":{"type":"Point","coordinates":[32.853992,-18.497124]}},{"id":"319009","type":"Feature","properties":{"ident":"ZW-0021","type":"small_airport","name":"Hot Springs Airport","continent":"AF","iso_country":"ZW","iso_region":"ZW-MA","municipality":"Hot Springs","scheduled_service":"no"},"geometry":{"type":"Point","coordinates":[32.4248,-19.653303]}},{"id":"318995","type":"Feature","properties":{"ident":"ZW-0011","type":"small_airport","name":"Hwali Airport","continent":"AF","iso_country":"ZW","iso_region":"ZW-MS","municipality":"Hwali","scheduled_service":"no"},"geometry":{"type":"Point","coordinates":[29.218657,-21.679911]}},{"id":"32656","type":"Feature","properties":{"ident":"FVWT","type":"small_airport","name":"Hwange (Town) Airport","elevation_ft":"2500","continent":"AF","iso_country":"ZW","iso_region":"ZW-MN","municipality":"Hwange","scheduled_service":"no","icao_code":"FVWT","iata_code":"WKI","gps_code":"FVWT","wikipedia_link":"https://en.wikipedia.org/wiki/Hwange_Town_Airport"},"geometry":{"type":"Point","coordinates":[26.519791,-18.362967]}},{"id":"325148","type":"Feature","properties":{"ident":"FVMC","type":"small_airport","name":"Hwange Main Camp Airfield","elevation_ft":"3485","continent":"AF","iso_country":"ZW","iso_region":"ZW-MN","scheduled_service":"no","gps_code":"FVMC","keywords":"Hwange, Hwange Main, Hwange Main Camp"},"geometry":{"type":"Point","coordinates":[26.956472,-18.724765]}},{"id":"3014","type":"Feature","properties":{"ident":"FVWN","type":"medium_airport","name":"Hwange National Park Airport","elevation_ft":"3543","continent":"AF","iso_country":"ZW","iso_region":"ZW-MN","municipality":"Gwayi River Farms","scheduled_service":"no","icao_code":"FVWN","iata_code":"HWN","gps_code":"FVWN","wikipedia_link":"https://en.wikipedia.org/wiki/Hwange_National_Park_Airport"},"geometry":{"type":"Point","coordinates":[27.021,-18.6299]}},{"id":"317019","type":"Feature","properties":{"ident":"FVIP","type":"small_airport","name":"Impinge Airport","elevation_ft":"4800","continent":"AF","iso_country":"ZW","iso_region":"ZW-MC","municipality":"Impinge Ranch","scheduled_service":"no","gps_code":"FVIP"},"geometry":{"type":"Point","coordinates":[30.8003,-16.9071]}},{"id":"31239","type":"Feature","properties":{"ident":"FVIN","type":"small_airport","name":"Induna Airport","elevation_ft":"4489","continent":"AF","iso_country":"ZW","iso_region":"ZW-MN","municipality":"Induna","scheduled_service":"no","gps_code":"FVIN"},"geometry":{"type":"Point","coordinates":[28.700001,-20.083]}},{"id":"31272","type":"Feature","properties":{"ident":"FVYT","type":"small_airport","name":"Inyati Airport","elevation_ft":"4400","continent":"AF","iso_country":"ZW","iso_region":"ZW-MN","municipality":"Inyati","scheduled_service":"no","gps_code":"FVYT"},"geometry":{"type":"Point","coordinates":[28.85,-19.700001]}},{"id":"31240","type":"Feature","properties":{"ident":"FVIT","type":"small_airport","name":"Itafa Airport","elevation_ft":"3800","continent":"AF","iso_country":"ZW","iso_region":"ZW-MW","municipality":"Itafa","scheduled_service":"no","gps_code":"FVIT"},"geometry":{"type":"Point","coordinates":[29.882999,-18.299999]}},{"id":"3000","type":"Feature","properties":{"ident":"FVBU","type":"medium_airport","name":"Joshua Mqabuko Nkomo International Airport","elevation_ft":"4359","continent":"AF","iso_country":"ZW","iso_region":"ZW-BU","municipality":"Bulawayo","scheduled_service":"yes","icao_code":"FVJN","iata_code":"BUQ","gps_code":"FVJN","wikipedia_link":"https://en.wikipedia.org/wiki/Joshua_Mqabuko_Nkomo_International_Airport","keywords":"FVBU"},"geometry":{"type":"Point","coordinates":[28.626296,-20.021254]}},{"id":"319237","type":"Feature","properties":{"ident":"ZW-0025","type":"small_airport","name":"Kanyemba Airport","elevation_ft":"1308","continent":"AF","iso_country":"ZW","iso_region":"ZW-MC","municipality":"Kanyemba","scheduled_service":"no","keywords":"Mwanzamtanda Airport"},"geometry":{"type":"Point","coordinates":[30.389806,-15.665006]}},{"id":"351670","type":"Feature","properties":{"ident":"ZW-0052","type":"small_airport","name":"Kapoka Airstrip","elevation_ft":"2400","continent":"AF","iso_country":"ZW","iso_region":"ZW-MW","municipality":"Siakobvu","scheduled_service":"no"},"geometry":{"type":"Point","coordinates":[28.342388,-17.139068]}},{"id":"3006","type":"Feature","properties":{"ident":"FVKB","type":"medium_airport","name":"Kariba International Airport","elevation_ft":"1706","continent":"AF","iso_country":"ZW","iso_region":"ZW-MW","municipality":"Kariba","scheduled_service":"no","icao_code":"FVKB","iata_code":"KAB","gps_code":"FVKB","home_link":"https://www.caaz.co.zw/kariba-airport","wikipedia_link":"https://en.wikipedia.org/wiki/Kariba_Airport"},"geometry":{"type":"Point","coordinates":[28.885,-16.5198]}},{"id":"351674","type":"Feature","properties":{"ident":"ZW-0054","type":"small_airport","name":"Kazungula Airport","elevation_ft":"3343","continent":"AF","iso_country":"ZW","iso_region":"ZW-MN","municipality":"Victoria Falls","scheduled_service":"no"},"geometry":{"type":"Point","coordinates":[25.77313,-17.92962]}},{"id":"31243","type":"Feature","properties":{"ident":"FVKZ","type":"small_airport","name":"Kezi Airport","elevation_ft":"3300","continent":"AF","iso_country":"ZW","iso_region":"ZW-MS","municipality":"Kezi","scheduled_service":"no","gps_code":"FVKZ"},"geometry":{"type":"Point","coordinates":[28.483,-20.917]}},{"id":"325149","type":"Feature","properties":{"ident":"FVRI","type":"small_airport","name":"Kipling's Rukari Airstrip","elevation_ft":"1660","continent":"AF","iso_country":"ZW","iso_region":"ZW-MW","scheduled_service":"no","gps_code":"FVRI"},"geometry":{"type":"Point","coordinates":[28.427034,-16.855422]}},{"id":"3011","type":"Feature","properties":{"ident":"FVOT","type":"small_airport","name":"Kotwa Airport","elevation_ft":"2450","continent":"AF","iso_country":"ZW","iso_region":"ZW-ME","scheduled_service":"no","icao_code":"FVOT","gps_code":"FVOT","wikipedia_link":"https://en.wikipedia.org/wiki/Kotwa_Airport"},"geometry":{"type":"Point","coordinates":[32.672699,-16.9848]}},{"id":"319242","type":"Feature","properties":{"ident":"ZW-0028","type":"small_airport","name":"Kuperinengu Airstrip","elevation_ft":"1181","continent":"AF","iso_country":"ZW","iso_region":"ZW-ME","municipality":"Kuperinengu","scheduled_service":"no","keywords":"Chewore Lodge"},"geometry":{"type":"Point","coordinates":[29.879651,-15.647438]}},{"id":"319256","type":"Feature","properties":{"ident":"ZW-0040","type":"small_airport","name":"Kwaraguza Airport","continent":"AF","iso_country":"ZW","iso_region":"ZW-MA","municipality":"Nyanga","scheduled_service":"no"},"geometry":{"type":"Point","coordinates":[32.841205,-18.117815]}},{"id":"31241","type":"Feature","properties":{"ident":"FVKK","type":"small_airport","name":"Kwekwe Airport","elevation_ft":"4000","continent":"AF","iso_country":"ZW","iso_region":"ZW-MI","municipality":"Kwekwe","scheduled_service":"no","icao_code":"FVKK","gps_code":"FVKK","wikipedia_link":"https://en.wikipedia.org/wiki/Kwekwe_East_Airport"},"geometry":{"type":"Point","coordinates":[29.8428,-18.9333]}},{"id":"27232","type":"Feature","properties":{"ident":"FV76","type":"small_airport","name":"Kwekwe East Airport","elevation_ft":"4025","continent":"AF","iso_country":"ZW","iso_region":"ZW-MI","municipality":"Kwekwe","scheduled_service":"no","gps_code":"FV76","local_code":"FV76"},"geometry":{"type":"Point","coordinates":[30.0252,-19.010799]}},{"id":"319003","type":"Feature","properties":{"ident":"ZW-0017","type":"small_airport","name":"Lake Kariba Airport","elevation_ft":"1755","continent":"AF","iso_country":"ZW","iso_region":"ZW-MN","municipality":"Binga","scheduled_service":"no"},"geometry":{"type":"Point","coordinates":[27.635,-17.345659]}},{"id":"31244","type":"Feature","properties":{"ident":"FVLA","type":"small_airport","name":"Langford Airport","elevation_ft":"4600","continent":"AF","iso_country":"ZW","iso_region":"ZW-ME","municipality":"Langford","scheduled_service":"no","gps_code":"FVLA"},"geometry":{"type":"Point","coordinates":[30.950001,-17.933001]}},{"id":"351659","type":"Feature","properties":{"ident":"ZW-0050","type":"small_airport","name":"Little Vundu Camp Airport","elevation_ft":"1204","continent":"AF","iso_country":"ZW","iso_region":"ZW-MW","municipality":"Hurungwe","scheduled_service":"no"},"geometry":{"type":"Point","coordinates":[29.19948,-15.79535]}},{"id":"325143","type":"Feature","properties":{"ident":"FVLS","type":"small_airport","name":"Lonestar Airfield","elevation_ft":"1303","continent":"AF","iso_country":"ZW","iso_region":"ZW-MV","municipality":"Chiredzi","scheduled_service":"no","gps_code":"FVLS","local_code":"FVLS","keywords":"Lonestar, Pamushana, Malilangwe, Chiredzi"},"geometry":{"type":"Point","coordinates":[31.889759,-21.061103]}},{"id":"31245","type":"Feature","properties":{"ident":"FVLG","type":"small_airport","name":"Longuiel Airport","elevation_ft":"4200","continent":"AF","iso_country":"ZW","iso_region":"ZW-MW","municipality":"Longuiel","scheduled_service":"no","gps_code":"FVLG"},"geometry":{"type":"Point","coordinates":[29.632999,-17]}},{"id":"318999","type":"Feature","properties":{"ident":"ZW-0013","type":"small_airport","name":"Lupane Airport","continent":"AF","iso_country":"ZW","iso_region":"ZW-MN","municipality":"Lupane","scheduled_service":"no"},"geometry":{"type":"Point","coordinates":[27.806533,-18.927645]}},{"id":"31246","type":"Feature","properties":{"ident":"FVLU","type":"small_airport","name":"Lusulu Airport","elevation_ft":"3240","continent":"AF","iso_country":"ZW","iso_region":"ZW-MN","municipality":"Lusulu","scheduled_service":"no","gps_code":"FVLU"},"geometry":{"type":"Point","coordinates":[27.867001,-18.083]}},{"id":"31219","type":"Feature","properties":{"ident":"FVBL","type":"small_airport","name":"Mabalauta Airport","elevation_ft":"950","continent":"AF","iso_country":"ZW","iso_region":"ZW-MV","municipality":"Mabalauta","scheduled_service":"no","gps_code":"FVBL"},"geometry":{"type":"Point","coordinates":[31.466999,-21.917]}},{"id":"31249","type":"Feature","properties":{"ident":"FVMF","type":"small_airport","name":"Mabikwa Airport","elevation_ft":"3450","continent":"AF","iso_country":"ZW","iso_region":"ZW-MN","municipality":"Mabikwa","scheduled_service":"no","gps_code":"FVMF","keywords":"Jotsholo"},"geometry":{"type":"Point","coordinates":[27.54682,-18.744805]}},{"id":"314044","type":"Feature","properties":{"ident":"FVMH","type":"small_airport","name":"Mahenye Airport","elevation_ft":"930","continent":"AF","iso_country":"ZW","iso_region":"ZW-MA","municipality":"Gonarezhou National Park","scheduled_service":"no","icao_code":"FVMH","iata_code":"MJW","gps_code":"FVMH"},"geometry":{"type":"Point","coordinates":[32.3336,-21.231]}},{"id":"318991","type":"Feature","properties":{"ident":"ZW-0007","type":"small_airport","name":"Makado Airport","continent":"AF","iso_country":"ZW","iso_region":"ZW-MS","municipality":"Makado","scheduled_service":"no"},"geometry":{"type":"Point","coordinates":[29.7175,-21.456959]}},{"id":"318990","type":"Feature","properties":{"ident":"ZW-0006","type":"small_airport","name":"Malipati Airport","continent":"AF","iso_country":"ZW","iso_region":"ZW-MV","municipality":"Malipati","scheduled_service":"no"},"geometry":{"type":"Point","coordinates":[31.436257,-22.063618]}},{"id":"31251","type":"Feature","properties":{"ident":"FVMN","type":"small_airport","name":"Mana Pools Airport","elevation_ft":"1300","continent":"AF","iso_country":"ZW","iso_region":"ZW-MW","municipality":"Hurungwe","scheduled_service":"no","gps_code":"FVMN"},"geometry":{"type":"Point","coordinates":[29.385617,-15.768735]}},{"id":"325150","type":"Feature","properties":{"ident":"ZW-0041","type":"small_airport","name":"Mana West Airport","elevation_ft":"1232","continent":"AF","iso_country":"ZW","iso_region":"ZW-MW","municipality":"Hurungwe","scheduled_service":"no"},"geometry":{"type":"Point","coordinates":[29.174883,-15.83586]}},{"id":"319007","type":"Feature","properties":{"ident":"ZW-0019","type":"small_airport","name":"Manjolo Airport","elevation_ft":"1775","continent":"AF","iso_country":"ZW","iso_region":"ZW-MN","municipality":"Binga","scheduled_service":"no"},"geometry":{"type":"Point","coordinates":[27.171634,-17.814685]}},{"id":"31247","type":"Feature","properties":{"ident":"FVMA","type":"small_airport","name":"Marondera Airport","elevation_ft":"5370","continent":"AF","iso_country":"ZW","iso_region":"ZW-ME","municipality":"Marondera","scheduled_service":"no","icao_code":"FVMA","gps_code":"FVMA","wikipedia_link":"https://en.wikipedia.org/wiki/Marondera_Airport"},"geometry":{"type":"Point","coordinates":[31.466999,-18.183001]}},{"id":"319001","type":"Feature","properties":{"ident":"ZW-0015","type":"small_airport","name":"Maronga Airport","continent":"AF","iso_country":"ZW","iso_region":"ZW-MW","scheduled_service":"no"},"geometry":{"type":"Point","coordinates":[28.427123,-16.855435]}},{"id":"31248","type":"Feature","properties":{"ident":"FVMB","type":"small_airport","name":"Mashumbi Airport","elevation_ft":"1240","continent":"AF","iso_country":"ZW","iso_region":"ZW-MC","municipality":"Mashumbi","scheduled_service":"no","gps_code":"FVMB"},"geometry":{"type":"Point","coordinates":[30.566999,-16.167]}},{"id":"351679","type":"Feature","properties":{"ident":"ZW-0057","type":"heliport","name":"Masuwe Heliport","elevation_ft":"3005","continent":"AF","iso_country":"ZW","iso_region":"ZW-MN","municipality":"Masuwe","scheduled_service":"no"},"geometry":{"type":"Point","coordinates":[25.81055,-17.96588]}},{"id":"3010","type":"Feature","properties":{"ident":"FVMV","type":"medium_airport","name":"Masvingo International Airport","elevation_ft":"3595","continent":"AF","iso_country":"ZW","iso_region":"ZW-MV","municipality":"Masvingo","scheduled_service":"no","icao_code":"FVMV","iata_code":"MVZ","gps_code":"FVMV","wikipedia_link":"https://en.wikipedia.org/wiki/Masvingo_Airport"},"geometry":{"type":"Point","coordinates":[30.8591,-20.0553]}},{"id":"318468","type":"Feature","properties":{"ident":"ZW-0001","type":"small_airport","name":"Matetsi Airport","continent":"AF","iso_country":"ZW","iso_region":"ZW-MN","municipality":"Matetsi","scheduled_service":"no"},"geometry":{"type":"Point","coordinates":[25.918628,-18.498899]}},{"id":"595576","type":"Feature","properties":{"ident":"ZW-0064","type":"small_airport","name":"Matetsi East Airstrip","elevation_ft":"2638","continent":"AF","iso_country":"ZW","iso_region":"ZW-MN","municipality":"Hwange","scheduled_service":"no"},"geometry":{"type":"Point","coordinates":[26.27076,-18.37304]}},{"id":"27233","type":"Feature","properties":{"ident":"FV77","type":"small_airport","name":"Mhangura Airport","elevation_ft":"4078","continent":"AF","iso_country":"ZW","iso_region":"ZW-MW","scheduled_service":"no","gps_code":"FVGM","wikipedia_link":"https://en.wikipedia.org/wiki/Mhangura_Airport","keywords":"FV77, Mangula"},"geometry":{"type":"Point","coordinates":[30.2423,-16.910101]}},{"id":"31252","type":"Feature","properties":{"ident":"FVMS","type":"small_airport","name":"Middle Sabi Airport","elevation_ft":"1510","continent":"AF","iso_country":"ZW","iso_region":"ZW-MA","municipality":"Middle Sabi","scheduled_service":"no","gps_code":"FVMS"},"geometry":{"type":"Point","coordinates":[32.367001,-20.216999]}},{"id":"31250","type":"Feature","properties":{"ident":"FVMK","type":"small_airport","name":"Mkonono Airport","elevation_ft":"4650","continent":"AF","iso_country":"ZW","iso_region":"ZW-MW","municipality":"Mkonono","scheduled_service":"no","gps_code":"FVMK"},"geometry":{"type":"Point","coordinates":[30.417,-17.716999]}},{"id":"31242","type":"Feature","properties":{"ident":"FVKW","type":"small_airport","name":"Mkwasine Airport","elevation_ft":"1620","continent":"AF","iso_country":"ZW","iso_region":"ZW-MV","municipality":"Mkwasine","scheduled_service":"no","gps_code":"FVKW"},"geometry":{"type":"Point","coordinates":[31.816999,-20.799999]}},{"id":"317598","type":"Feature","properties":{"ident":"FVML","type":"small_airport","name":"Mlibizi Airstrip","elevation_ft":"1980","continent":"AF","iso_country":"ZW","iso_region":"ZW-MN","municipality":"Mlibizi","scheduled_service":"no","gps_code":"FVML","keywords":"Mibizi"},"geometry":{"type":"Point","coordinates":[27.1184,-17.9604]}},{"id":"3007","type":"Feature","properties":{"ident":"FVMD","type":"small_airport","name":"Mount Darwin Airport","elevation_ft":"3240","continent":"AF","iso_country":"ZW","iso_region":"ZW-MC","scheduled_service":"no","icao_code":"FVMD","gps_code":"FVMD","wikipedia_link":"https://en.wikipedia.org/wiki/Mount_Darwin_Airport"},"geometry":{"type":"Point","coordinates":[31.559799,-16.769199]}},{"id":"319239","type":"Feature","properties":{"ident":"ZW-0026","type":"small_airport","name":"Mucumbura River Airport","continent":"AF","iso_country":"ZW","iso_region":"ZW-MC","scheduled_service":"no"},"geometry":{"type":"Point","coordinates":[31.681177,-16.205187]}},{"id":"31253","type":"Feature","properties":{"ident":"FVMW","type":"small_airport","name":"Murewa Airport","elevation_ft":"4579","continent":"AF","iso_country":"ZW","iso_region":"ZW-ME","municipality":"Murewa","scheduled_service":"no","gps_code":"FVMW"},"geometry":{"type":"Point","coordinates":[31.799999,-17.65]}},{"id":"3009","type":"Feature","properties":{"ident":"FVMU","type":"small_airport","name":"Mutare Airport","elevation_ft":"3410","continent":"AF","iso_country":"ZW","iso_region":"ZW-MA","municipality":"Mutare","scheduled_service":"no","icao_code":"FVMU","iata_code":"UTA","gps_code":"FVMU","wikipedia_link":"https://en.wikipedia.org/wiki/Mutare_Airport"},"geometry":{"type":"Point","coordinates":[32.627201,-18.997499]}},{"id":"3008","type":"Feature","properties":{"ident":"FVMT","type":"medium_airport","name":"Mutoko Airport","elevation_ft":"3950","continent":"AF","iso_country":"ZW","iso_region":"ZW-ME","municipality":"Mutoko","scheduled_service":"no","icao_code":"FVMT","gps_code":"FVMT","wikipedia_link":"https://en.wikipedia.org/wiki/Mutoko_Airport","keywords":"Mtoko"},"geometry":{"type":"Point","coordinates":[32.184502,-17.4319]}},{"id":"319241","type":"Feature","properties":{"ident":"ZW-0027","type":"small_airport","name":"Mwanja River Airport","continent":"AF","iso_country":"ZW","iso_region":"ZW-MW","scheduled_service":"no"},"geometry":{"type":"Point","coordinates":[29.9871,-15.64811]}},{"id":"318996","type":"Feature","properties":{"ident":"ZW-0012","type":"small_airport","name":"Mwenezi Airport","continent":"AF","iso_country":"ZW","iso_region":"ZW-MV","municipality":"Mwenezi","scheduled_service":"no"},"geometry":{"type":"Point","coordinates":[30.734302,-21.431546]}},{"id":"351681","type":"Feature","properties":{"ident":"ZW-0058","type":"small_airport","name":"Neyuka Airstrip","elevation_ft":"2203","continent":"AF","iso_country":"ZW","iso_region":"ZW-MW","municipality":"Mangara","scheduled_service":"no"},"geometry":{"type":"Point","coordinates":[28.458581,-17.252056]}},{"id":"319000","type":"Feature","properties":{"ident":"ZW-0014","type":"small_airport","name":"Nkayi Airport","continent":"AF","iso_country":"ZW","iso_region":"ZW-MN","municipality":"Nkayi","scheduled_service":"no"},"geometry":{"type":"Point","coordinates":[28.89743,-18.999493]}},{"id":"31254","type":"Feature","properties":{"ident":"FVNY","type":"small_airport","name":"Nyanyadzi Airport","elevation_ft":"1850","continent":"AF","iso_country":"ZW","iso_region":"ZW-MA","municipality":"Nyanyadzi","scheduled_service":"no","gps_code":"FVNY"},"geometry":{"type":"Point","coordinates":[32.432999,-19.733]}},{"id":"319235","type":"Feature","properties":{"ident":"ZW-0023","type":"small_airport","name":"Peoza Pasi Airstrip","continent":"AF","iso_country":"ZW","iso_region":"ZW-MC","scheduled_service":"no"},"geometry":{"type":"Point","coordinates":[30.396064,-15.977261]}},{"id":"31255","type":"Feature","properties":{"ident":"FVPL","type":"small_airport","name":"Plumtree Airport","elevation_ft":"4527","continent":"AF","iso_country":"ZW","iso_region":"ZW-MS","municipality":"Plumtree","scheduled_service":"no","gps_code":"FVPL"},"geometry":{"type":"Point","coordinates":[27.783001,-20.483]}},{"id":"31256","type":"Feature","properties":{"ident":"FVRA","type":"small_airport","name":"Ratelshoek Airport","elevation_ft":"3250","continent":"AF","iso_country":"ZW","iso_region":"ZW-MA","municipality":"Ratelshoek","scheduled_service":"no","gps_code":"FVRA"},"geometry":{"type":"Point","coordinates":[32.79753,-20.234513]}},{"id":"319252","type":"Feature","properties":{"ident":"ZW-0036","type":"small_airport","name":"Renco Airport","continent":"AF","iso_country":"ZW","iso_region":"ZW-MV","municipality":"Renco","scheduled_service":"no"},"geometry":{"type":"Point","coordinates":[31.170552,-20.602044]}},{"id":"31257","type":"Feature","properties":{"ident":"FVRE","type":"small_airport","name":"Renroc Airport","elevation_ft":"4200","continent":"AF","iso_country":"ZW","iso_region":"ZW-MW","municipality":"Renroc","scheduled_service":"no","gps_code":"FVRE"},"geometry":{"type":"Point","coordinates":[29.566999,-16.966999]}},{"id":"325151","type":"Feature","properties":{"ident":"FVRF","type":"small_airport","name":"Rifa Airstrip","elevation_ft":"1350","continent":"AF","iso_country":"ZW","iso_region":"ZW-MW","municipality":"Hurungwe","scheduled_service":"no","gps_code":"FVRF","keywords":"A Camp, Sharu"},"geometry":{"type":"Point","coordinates":[28.898235,-16.31318]}},{"id":"3005","type":"Feature","properties":{"ident":"FVHA","type":"large_airport","name":"Robert Gabriel Mugabe International Airport","elevation_ft":"4887","continent":"AF","iso_country":"ZW","iso_region":"ZW-HA","municipality":"Harare","scheduled_service":"yes","iata_code":"HRE","gps_code":"FVRG","wikipedia_link":"https://en.wikipedia.org/wiki/Harare_International_Airport","keywords":"FVHA,Harare"},"geometry":{"type":"Point","coordinates":[31.0928,-17.931801]}},{"id":"331822","type":"Feature","properties":{"ident":"ZW-0045","type":"small_airport","name":"Robins Airstrip","continent":"AF","iso_country":"ZW","iso_region":"ZW-MN","municipality":"Robins Camp","scheduled_service":"no"},"geometry":{"type":"Point","coordinates":[25.979821,-18.629722]}},{"id":"319245","type":"Feature","properties":{"ident":"ZW-0030","type":"small_airport","name":"Rukomeshe Research Station Airstrip","continent":"AF","iso_country":"ZW","iso_region":"ZW-MW","scheduled_service":"no","gps_code":"FVRK"},"geometry":{"type":"Point","coordinates":[29.415766,-16.147148]}},{"id":"319253","type":"Feature","properties":{"ident":"ZW-0037","type":"small_airport","name":"Rupangwana Airport","continent":"AF","iso_country":"ZW","iso_region":"ZW-MA","municipality":"Rupangwana","scheduled_service":"no"},"geometry":{"type":"Point","coordinates":[32.181507,-21.008374]}},{"id":"343344","type":"Feature","properties":{"ident":"ZW-0047","type":"small_airport","name":"Rusape South Airport","elevation_ft":"4596","continent":"AF","iso_country":"ZW","iso_region":"ZW-MA","municipality":"Rusape","scheduled_service":"no"},"geometry":{"type":"Point","coordinates":[32.117565,-18.578396]}},{"id":"31258","type":"Feature","properties":{"ident":"FVRT","type":"small_airport","name":"Rutenga Airport","elevation_ft":"1825","continent":"AF","iso_country":"ZW","iso_region":"ZW-MV","municipality":"Rutenga","scheduled_service":"no","gps_code":"FVRT"},"geometry":{"type":"Point","coordinates":[30.733,-21.233]}},{"id":"31260","type":"Feature","properties":{"ident":"FVSE","type":"small_airport","name":"Sanyati Estate Airport","elevation_ft":"2790","continent":"AF","iso_country":"ZW","iso_region":"ZW-MW","municipality":"Sanyati Estate","scheduled_service":"no","gps_code":"FVSE","keywords":"Chigaware"},"geometry":{"type":"Point","coordinates":[29.226615,-17.973835]}},{"id":"30583","type":"Feature","properties":{"ident":"FVSC","type":"small_airport","name":"Sencol Airport","elevation_ft":"2350","continent":"AF","iso_country":"ZW","iso_region":"ZW-MI","municipality":"Sencol","scheduled_service":"no","gps_code":"FVSC"},"geometry":{"type":"Point","coordinates":[28.264259,-17.602694]}},{"id":"319249","type":"Feature","properties":{"ident":"ZW-0033","type":"small_airport","name":"Sengwa Airport","continent":"AF","iso_country":"ZW","iso_region":"ZW-MI","scheduled_service":"no"},"geometry":{"type":"Point","coordinates":[28.235588,-18.167161]}},{"id":"31263","type":"Feature","properties":{"ident":"FVSX","type":"small_airport","name":"Sengwa Gorge Airport","elevation_ft":"2900","continent":"AF","iso_country":"ZW","iso_region":"ZW-MI","municipality":"Sengwa Gorge","scheduled_service":"no","gps_code":"FVSX"},"geometry":{"type":"Point","coordinates":[28.85,-18.167]}},{"id":"319250","type":"Feature","properties":{"ident":"ZW-0034","type":"small_airport","name":"Sengwa Research Area Airstrip","continent":"AF","iso_country":"ZW","iso_region":"ZW-MI","scheduled_service":"no"},"geometry":{"type":"Point","coordinates":[28.215618,-18.165196]}},{"id":"319004","type":"Feature","properties":{"ident":"ZW-0018","type":"small_airport","name":"Sijarira Lodge Airstrip","elevation_ft":"1893","continent":"AF","iso_country":"ZW","iso_region":"ZW-MN","municipality":"Binga","scheduled_service":"no"},"geometry":{"type":"Point","coordinates":[27.500593,-17.51631]}},{"id":"318469","type":"Feature","properties":{"ident":"ZW-0002","type":"small_airport","name":"Sinamatella Camp Airport","continent":"AF","iso_country":"ZW","iso_region":"ZW-MN","municipality":"Hwange","scheduled_service":"no"},"geometry":{"type":"Point","coordinates":[26.320678,-18.576311]}},{"id":"325152","type":"Feature","properties":{"ident":"ZW-0042","type":"small_airport","name":"Sipepa Airstrip","elevation_ft":"3270","continent":"AF","iso_country":"ZW","iso_region":"ZW-MN","scheduled_service":"no"},"geometry":{"type":"Point","coordinates":[27.648321,-19.280942]}},{"id":"31264","type":"Feature","properties":{"ident":"FVSY","type":"small_airport","name":"Siyalima Airport","elevation_ft":"4540","continent":"AF","iso_country":"ZW","iso_region":"ZW-MC","municipality":"Siyalima","scheduled_service":"no","gps_code":"FVSY"},"geometry":{"type":"Point","coordinates":[30.65,-16.632999]}},{"id":"31261","type":"Feature","properties":{"ident":"FVSN","type":"small_airport","name":"Sun Yet Sen Airport","elevation_ft":"2891","continent":"AF","iso_country":"ZW","iso_region":"ZW-MS","municipality":"Sun Yet Sen","scheduled_service":"no","gps_code":"FVSN"},"geometry":{"type":"Point","coordinates":[28.517,-21.333]}},{"id":"31265","type":"Feature","properties":{"ident":"FVTA","type":"small_airport","name":"Tashinga Airport","elevation_ft":"1630","continent":"AF","iso_country":"ZW","iso_region":"ZW-MW","municipality":"Tashinga","scheduled_service":"no","gps_code":"FVTA"},"geometry":{"type":"Point","coordinates":[28.443215,-16.824147]}},{"id":"31267","type":"Feature","properties":{"ident":"FVTE","type":"small_airport","name":"Tengwe Airport","elevation_ft":"4000","continent":"AF","iso_country":"ZW","iso_region":"ZW-MW","municipality":"Tengwe","scheduled_service":"no","gps_code":"FVTE"},"geometry":{"type":"Point","coordinates":[29.617001,-17.117001]}},{"id":"317597","type":"Feature","properties":{"ident":"FVTB","type":"small_airport","name":"Tiger Bay Airstrip","elevation_ft":"1720","continent":"AF","iso_country":"ZW","iso_region":"ZW-MW","municipality":"Kariba","scheduled_service":"no","gps_code":"FVTB"},"geometry":{"type":"Point","coordinates":[28.426079,-16.911231]}},{"id":"318953","type":"Feature","properties":{"ident":"ZW-0003","type":"small_airport","name":"Tilbury Airport","continent":"AF","iso_country":"ZW","iso_region":"ZW-MA","municipality":"Tilbury","scheduled_service":"no"},"geometry":{"type":"Point","coordinates":[32.969636,-19.906934]}},{"id":"31266","type":"Feature","properties":{"ident":"FVTD","type":"small_airport","name":"Tinfields Airport","elevation_ft":"3600","continent":"AF","iso_country":"ZW","iso_region":"ZW-MV","municipality":"Tinfields","scheduled_service":"no","icao_code":"FVTD","gps_code":"FVTD"},"geometry":{"type":"Point","coordinates":[31.425944,-19.941665]}},{"id":"318992","type":"Feature","properties":{"ident":"ZW-0008","type":"small_airport","name":"Towla Airport","continent":"AF","iso_country":"ZW","iso_region":"ZW-MS","municipality":"Towla","scheduled_service":"no"},"geometry":{"type":"Point","coordinates":[29.883056,-21.440873]}},{"id":"31269","type":"Feature","properties":{"ident":"FVTS","type":"small_airport","name":"Tsholothso Airport","elevation_ft":"3580","continent":"AF","iso_country":"ZW","iso_region":"ZW-MN","municipality":"Tsholothso","scheduled_service":"no","gps_code":"FVTS"},"geometry":{"type":"Point","coordinates":[27.766464,-19.765526]}},{"id":"31270","type":"Feature","properties":{"ident":"FVTU","type":"small_airport","name":"Tuli Airport","elevation_ft":"1940","continent":"AF","iso_country":"ZW","iso_region":"ZW-MS","municipality":"Tuli","scheduled_service":"no","gps_code":"FVTU"},"geometry":{"type":"Point","coordinates":[29.196339,-21.934925]}},{"id":"319255","type":"Feature","properties":{"ident":"ZW-0039","type":"small_airport","name":"Turwi River Airstrip","continent":"AF","iso_country":"ZW","iso_region":"ZW-MV","scheduled_service":"no"},"geometry":{"type":"Point","coordinates":[32.10904,-20.395009]}},{"id":"595619","type":"Feature","properties":{"ident":"ZW-0069","type":"small_airport","name":"Umguza Airfield","elevation_ft":"4121","continent":"AF","iso_country":"ZW","iso_region":"ZW-MN","municipality":"Umguza","scheduled_service":"no"},"geometry":{"type":"Point","coordinates":[28.54575,-19.91273]}},{"id":"3004","type":"Feature","properties":{"ident":"FVFA","type":"medium_airport","name":"Victoria Falls International Airport","elevation_ft":"3490","continent":"AF","iso_country":"ZW","iso_region":"ZW-MN","municipality":"Victoria Falls","scheduled_service":"yes","icao_code":"FVFA","iata_code":"VFA","gps_code":"FVFA","wikipedia_link":"https://en.wikipedia.org/wiki/Victoria_Falls_Airport"},"geometry":{"type":"Point","coordinates":[25.839001,-18.0959]}},{"id":"31271","type":"Feature","properties":{"ident":"FVWD","type":"small_airport","name":"Wedza Airport","elevation_ft":"4600","continent":"AF","iso_country":"ZW","iso_region":"ZW-ME","municipality":"Wedza","scheduled_service":"no","gps_code":"FVWD"},"geometry":{"type":"Point","coordinates":[31.583,-18.617001]}},{"id":"318993","type":"Feature","properties":{"ident":"ZW-0009","type":"small_airport","name":"West Nicholson Airport","continent":"AF","iso_country":"ZW","iso_region":"ZW-MS","municipality":"West Nicholson","scheduled_service":"no"},"geometry":{"type":"Point","coordinates":[29.353583,-21.048952]}},{"id":"317036","type":"Feature","properties":{"ident":"FVYB","type":"small_airport","name":"Yomba Airport","continent":"AF","iso_country":"ZW","iso_region":"ZW-MW","municipality":"Yomba","scheduled_service":"no","gps_code":"FVYB"},"geometry":{"type":"Point","coordinates":[30.400914,-16.946664]}},{"id":"31274","type":"Feature","properties":{"ident":"FVZK","type":"small_airport","name":"Zaka Airport","elevation_ft":"2550","continent":"AF","iso_country":"ZW","iso_region":"ZW-MV","municipality":"Zaka","scheduled_service":"no","gps_code":"FVZK"},"geometry":{"type":"Point","coordinates":[31.451845,-20.335499]}},{"id":"31273","type":"Feature","properties":{"ident":"FVZC","type":"small_airport","name":"Zisco Airport","elevation_ft":"3975","continent":"AF","iso_country":"ZW","iso_region":"ZW-MI","municipality":"Zisco","scheduled_service":"no","gps_code":"FVZC"},"geometry":{"type":"Point","coordinates":[29.721901,-19.029]}},{"id":"3012","type":"Feature","properties":{"ident":"FVSH","type":"small_airport","name":"Zvishavane Airport","elevation_ft":"3012","continent":"AF","iso_country":"ZW","iso_region":"ZW-MI","municipality":"Zvishavane","scheduled_service":"no","icao_code":"FVSH","gps_code":"FVSH","wikipedia_link":"https://en.wikipedia.org/wiki/Zvishavane_Airport"},"geometry":{"type":"Point","coordinates":[30.0882,-20.289499]}}]}